,final_address,district,lowZone_value,lowZone_npsf_min,lowZone_nfa_min,midZone_value,midZone_npsf_min,midZone_nfa_min,highZone_value,highZone_npsf_max,highZone_nfa_max,oneSixth_floor,middle_floor,fifthSixth_floor,unit_list,value_avg,npsf_avg,unitSize_avg,noStorey,noFlat,op_date,bldgAge,est_name_en,est_name_ch,est_orNot,est_bldgNo,est_flatNo,final_coords,lat,long
0,"ABBA HSE(Block B),ABERDEEN MAIN RD|福群大樓B座,香港仔大道",HA,4835470.0,14683.0,305.0,5016945.0,15293.0,305.0,7849350.0,17443.0,450.0,10.0,19.0,28.0,"['1', '2', '3', '4', '5', '6', '7', '8']",5975578.958333333,16311.5,366.875,29,232,1983/03,38,ABBA HSE,福群大樓,True,2.0,464.0,POINT Z (22.2483297 114.1525978 0),22.2483297,114.1525978
1,"YEE TSUI COURT(Block 16,Phase 2,SOUTH HORIZONS),16 SOUTH HORIZON DR|海怡半島,2期,16座(怡翠閣),16 海怡路",HA,9028125.0,14445.0,625.0,9108750.0,14574.0,625.0,17320414.0,19549.0,897.0,8.0,20.0,33.0,"['A', 'B', 'C', 'D', 'E', 'F', 'G', 'H']",12666391.125,16451.375,760.875,40,320,1993/00,28,SOUTH HORIZONS,海怡半島,True,34.0,9921.0,POINT Z (22.2431304 114.1465931 0),22.2431304,114.14659309999999
2,"COBLE COURT,MAIN ST AP LEI CHAU|高寶閣,鴨利洲大街",HA,4414105.0,14414.0,265.0,4471080.0,15002.0,265.0,6069965.0,17268.0,395.0,6.0,13.0,20.0,"['A', 'B', 'C', 'D', 'E', 'F', 'G', 'H']",5429937.708333333,15666.125,348.875,23,184,1987/02,34,blank,,False,,,POINT Z (22.2434521 114.1545021 0),22.243452100000003,114.1545021
3,"MEI WAH COURT(Block 22,Phase 3,SOUTH HORIZONS),22 SOUTH HORIZON DR|海怡半島,3期,22座(美華閣),22 海怡路",HA,8562670.0,14513.0,589.0,9618180.0,16302.0,589.0,17528448.0,19563.0,896.0,7.0,18.0,30.0,"['A', 'B', 'C', 'D', 'E', 'F', 'G', 'H']",12874476.083333334,17245.625,739.75,36,288,1994/08,27,SOUTH HORIZONS,海怡半島,True,34.0,9921.0,POINT Z (22.2429446 114.1475257 0),22.2429446,114.1475257
4,"YEE FAI COURT(Block 13A,Phase 2,SOUTH HORIZONS),13A SOUTH HORIZON DR|海怡半島,2期,13A座(怡暉閣),13A 海怡路",HA,9899760.0,15643.0,624.0,10045948.0,15746.0,624.0,19253208.0,21464.0,897.0,8.0,20.0,33.0,"['A', 'B', 'C', 'D', 'E', 'F', 'G', 'H']",14224453.958333334,18401.208333333332,760.375,40,320,1993/07,28,SOUTH HORIZONS,海怡半島,True,34.0,9921.0,POINT Z (22.2432615 114.1457236 0),22.2432615,114.1457236
5,"CAMBRIDGE COURT(Block 33A,Phase 4,SOUTH HORIZONS),33A YI NAM RD|海怡半島,4期,33A座(御翠居),33A 怡南路",HA,7954697.999999999,15123.0,526.0,8444930.0,15670.0,526.0,10949356.0,17162.0,656.0,10.0,18.0,26.0,"['A', 'B', 'C', 'D', 'E', 'F', 'G', 'H']",9691922.071428573,16103.007936507936,591.25,25,200,1995/03,26,SOUTH HORIZONS,海怡半島,True,34.0,9921.0,POINT Z (22.2429142 114.1491839 0),22.242914199999998,114.14918390000001
6,"KIN FAI BLDG,ABERDEEN MAIN RD|建輝大廈,香港仔大道",HA,4417840.0,14635.0,280.0,4370800.0,14772.0,280.0,5261130.0,16702.0,315.0,7.0,13.0,19.0,"['A', 'B', 'C', 'D', 'E', 'F']",4699590.777777777,15820.4,291.6666666666667,19,114,1979/11,42,blank,,False,,,POINT Z (22.2478893 114.1587287 0),22.2478893,114.1587287
7,"YEE KING COURT(Block 8,Phase 2,SOUTH HORIZONS),8 SOUTH HORIZON DR|海怡半島,2期,8座(怡景閣),8 海怡路",HA,10391788.0,16012.0,648.0,10835208.0,16721.0,648.0,33985864.0,22552.0,1507.0,8.0,21.0,34.0,"['A', 'AB', 'B', 'C', 'D', 'E', 'F', 'G', 'H']",14930586.407407409,17970.44444444444,813.888888888889,41,369,1992/10,29,SOUTH HORIZONS,海怡半島,True,34.0,9921.0,POINT Z (22.2443926 114.1450302 0),22.2443926,114.14503020000001
8,"YEE LOK COURT(Block 13,Phase 2,SOUTH HORIZONS),13 SOUTH HORIZON DR|海怡半島,2期,13座(怡樂閣),13 海怡路",HA,9013101.0,14061.0,631.0,9213734.0,14374.0,631.0,13796566.0,18082.0,763.0,6.0,17.0,28.0,"['A', 'B', 'C', 'D', 'E', 'F', 'G', 'H']",10773868.208333334,16061.041666666666,668.625,33,264,1992/10,29,SOUTH HORIZONS,海怡半島,True,34.0,9921.0,POINT Z (22.2436581 114.1456689 0),22.2436581,114.1456689
9,"ABBA HSE(Block A),ABERDEEN MAIN RD|福群大樓A座,香港仔大道",HA,4863835.0,14263.0,305.0,5065745.0,15200.0,305.0,7271745.0,17512.0,450.0,10.0,19.0,28.0,"['1', '2', '3', '4', '5', '6', '7', '8']",6135911.875,16094.125,383.125,29,232,1983/03,38,ABBA HSE,福群大樓,True,2.0,464.0,POINT Z (22.2482423 114.1528764 0),22.2482423,114.1528764
10,"ALBERT HSE,CHENGTU RD|添喜大廈,成都道",HA,3541714.500912438,5318.0,390.0,4064513.6515736384,6103.0,390.0,5384180.054408815,13042.0,780.0,7.0,15.0,22.0,"['A', 'AC', 'B', 'C', 'D']",4380689.825672415,7942.583333333333,468.0,21,105,1973/08,48,blank,,False,,,POINT Z (22.248646 114.154863 0),22.248646,114.15486299999999
11,"MEI HIN COURT(Block 23,Phase 3,SOUTH HORIZONS),23 SOUTH HORIZON DR|海怡半島,3期,23座(美軒閣),23 海怡路",HA,9201947.0,15623.0,589.0,9375100.0,15890.0,589.0,15340654.0,19394.0,791.0,7.0,20.0,33.0,"['A', 'B', 'C', 'D', 'E', 'F', 'G', 'H']",11743869.833333334,16962.458333333332,687.875,39,312,1994/08,27,SOUTH HORIZONS,海怡半島,True,34.0,9921.0,POINT Z (22.2420243 114.1486033 0),22.2420243,114.1486033
12,"KONG FU COURT(Block E,ABERDEEN CTR),NAM NING ST|香港仔中心,E座(港富閣),南寧街",HA,6024809.0,13069.0,450.0,6453000.0,14259.0,450.0,8311590.0,15167.0,553.0,6.0,15.0,24.0,"['1', '2', '3', '4', '5', '6']",7018571.722222223,14375.111111111111,488.0,27,162,1982/01,39,ABERDEEN CTR,香港仔中心,True,20.0,2778.0,POINT Z (22.249187 114.154169 0),22.249187,114.154169
13,"WAI KING COURT(Block 30,Phase 4,SOUTH HORIZONS),30 YI NAM RD|海怡半島,4期,30座(慧景閣),30 怡南路",HA,7691376.000000001,14458.0,528.0,7986000.0,15031.0,528.0,11327849.0,16811.0,7254.0,8.0,17.0,26.0,"['A', 'A-H', 'B', 'C', 'D', 'E', 'F', 'G', 'H']",,,1343.3333333333333,27,243,1994/12,27,SOUTH HORIZONS,海怡半島,True,34.0,9921.0,POINT Z (22.243881 114.149743 0),22.243881,114.14974299999999
14,"SHUN FUNG COURT,KA WO ST|順豐大廈,嘉禾街",HA,3734013.0,11419.0,327.0,3859581.0,11803.0,327.0,4629694.299376719,13375.0,327.0,5.0,12.0,21.0,"['A', 'B']",4093772.8444476486,12259.666666666666,327.0,21,42,1994/11,27,blank,,False,,,POINT Z (22.2497168 114.1486429 0),22.2497168,114.1486429
15,"ON FAI BLDG,OLD MAIN ST ABERDEEN|安輝大廈,香港仔舊大街",HA,4278152.450810732,13188.0,301.0,4228447.246198647,13271.0,301.0,6490432.0,14720.0,467.0,7.0,12.0,16.0,"['A', 'B', 'C', 'D', 'E', 'F']",5791070.827553044,13733.0,419.1666666666667,16,96,1977/04,44,blank,,False,,,POINT Z (22.2482727 114.1561509 0),22.248272699999998,114.15615090000001
16,"HOI YAT COURT(Block 6,Phase 1,SOUTH HORIZONS),6 SOUTH HORIZON DR|海怡半島,1期,6座(海逸閣),6 海怡路",HA,8590264.0,14152.0,600.0,9046728.0,14904.0,600.0,13126652.0,17204.0,763.0,7.0,18.0,29.0,"['A', 'B', 'C', 'D', 'E', 'F', 'G', 'H']",10638617.125,15769.041666666666,674.0,35,280,1992/03,29,SOUTH HORIZONS,海怡半島,True,34.0,9921.0,POINT Z (22.2446038 114.1462959 0),22.2446038,114.1462959
17,"FENTON COURT(Block 27,Phase 4,SOUTH HORIZONS),27 YI NAM RD|海怡半島,4期,27座(御雅居),27 怡南路",HA,7428065.0,14095.0,526.0,7754805.0,14715.0,526.0,21093696.0,20032.0,1053.0,7.0,18.0,29.0,"['A', 'A & B', 'B', 'C', 'D', 'E', 'F', 'G', 'H']",11634553.185185185,16759.37037037037,682.3333333333334,35,315,1995/07,26,SOUTH HORIZONS,海怡半島,True,34.0,9921.0,POINT Z (22.2429245 114.1500896 0),22.2429245,114.1500896
18,"KONG HING COURT(Block J,ABERDEEN CTR),NAM NING ST|香港仔中心,J座(港興閣),南寧街",HA,6304050.0,13960.0,450.0,6468750.0,14375.0,450.0,8714174.0,15758.0,553.0,6.0,15.0,24.0,"['1', '2', '3', '4', '5', '6']",7204852.0,14735.388888888889,488.0,27,162,1981/12,40,ABERDEEN CTR,香港仔中心,True,20.0,2778.0,POINT Z (22.2491936 114.1537589 0),22.2491936,114.15375890000001
19,"MAY COURT,OLD MAIN ST ABERDEEN|美倫閣,香港仔舊大街",HA,4699032.0,15061.0,312.0,4827576.0,15473.0,312.0,5352984.0,17157.0,312.0,7.0,15.0,22.0,"['A', 'B']",5056376.0,16206.333333333334,312.0,23,46,1996/11,25,blank,,False,,,POINT Z (22.2475454 114.1561441 0),22.2475454,114.15614409999999
20,"GRANDVIEW GARDEN(Block 1),NAM LONG SHAN RD|金寶花園1座,南朗山道",HA,4949770.0,15142.0,307.0,5300016.0,15669.0,307.0,6025080.0,18322.0,370.0,6.0,14.0,21.0,"['A', 'B', 'C', 'D', 'E', 'F']",5459005.333333333,16567.833333333332,330.5,24,144,1985/03,36,GRANDVIEW GARDEN,金寶花園,True,2.0,294.0,POINT Z (22.244926 114.16684 0),22.244926,114.16684
21,"KONG KAI BLDG,ABERDEEN MAIN RD|港基大廈,香港仔大道",HA,4960770.0,13974.0,355.0,5065495.0,14269.0,355.0,5332100.0,15020.0,355.0,6.0,13.0,20.0,"['A', 'B']",5134660.833333333,14463.833333333334,355.0,21,42,1990/01,31,blank,,False,,,POINT Z (22.2496212 114.1554774 0),22.2496212,114.1554774
22,"EVER SECURE MANSION,KA WO ST|永穩大廈,嘉禾街",HA,4239359.82295872,12136.0,330.0,4332628.533631922,12403.0,330.0,4446157.863103047,12728.0,330.0,6.0,11.0,16.0,"['A', 'B']",4418386.842509341,12648.5,330.0,15,30,1986/01,35,blank,,False,,,POINT Z (22.2498077 114.148464 0),22.249807699999998,114.14846399999999
23,"YEE WAN COURT(Block 15,Phase 2,SOUTH HORIZONS),15 SOUTH HORIZON DR|海怡半島,2期,15座(怡韻閣),15 海怡路",HA,9229375.0,14733.0,625.0,9595625.0,15353.0,625.0,18725772.0,20876.0,897.0,8.0,20.0,33.0,"['A', 'B', 'C', 'D', 'E', 'F', 'G', 'H']",13450177.291666666,17395.333333333332,759.5,40,320,1993/07,28,SOUTH HORIZONS,海怡半島,True,34.0,9921.0,POINT Z (22.243179 114.146127 0),22.243179,114.146127
24,"PAK KING COURT(Block 31,Phase 4,SOUTH HORIZONS),31 YI NAM RD|海怡半島,4期,31座(柏景閣),31 怡南路",HA,7826286.0,14467.0,523.0,8185131.999999999,14966.0,523.0,11307387.0,16673.0,688.0,8.0,16.0,25.0,"['A', 'B', 'C', 'D', 'E', 'F', 'G', 'H']",9414075.833333334,15681.75,600.125,26,208,1994/12,27,SOUTH HORIZONS,海怡半島,True,34.0,9921.0,POINT Z (22.243803 114.150128 0),22.243803,114.15012800000001
25,"MARINA HABITAT(Block 2),YUET HOI ST|悅海華庭2座,悅海街",HA,6401318.0,14574.0,422.0,6608252.0,15439.0,422.0,10262615.0,16963.0,605.0,10.0,24.0,37.0,"['A', 'B', 'C', 'D', 'E', 'F', 'G', 'H']",7894595.958333333,15958.5,495.25,42,336,1998/05,23,MARINA HABITAT,悅海華庭,True,3.0,992.0,POINT Z (22.244175 114.154286 0),22.244175,114.15428600000001
26,"MEI CHUN COURT(Block 21,Phase 3,SOUTH HORIZONS),21 SOUTH HORIZON DR|海怡半島,3期,21座(美浚閣),21 海怡路",HA,9627128.0,16072.0,589.0,9731460.0,16494.0,589.0,17428506.0,19671.0,896.0,7.0,18.0,30.0,"['A', 'B', 'C', 'D', 'E', 'F', 'G', 'H']",13129634.208333334,17576.5,740.375,36,288,1993/12,28,SOUTH HORIZONS,海怡半島,True,34.0,9921.0,POINT Z (22.2420248 114.1477673 0),22.242024800000003,114.1477673
27,"YEE MEI COURT(Block 7,Phase 2,SOUTH HORIZONS),7 SOUTH HORIZON DR|海怡半島,2期,7座(怡美閣),7 海怡路",HA,9793308.0,14336.0,644.0,9990904.0,15068.0,644.0,13443530.0,17806.0,760.0,8.0,22.0,35.0,"['A', 'B', 'C', 'D', 'E', 'F', 'G', 'H']",11627222.291666666,15947.583333333334,728.625,42,336,1992/10,29,SOUTH HORIZONS,海怡半島,True,34.0,9921.0,POINT Z (22.2446716 114.145352 0),22.2446716,114.145352
28,"EATON COURT(Block 26,Phase 4,SOUTH HORIZONS),26 YI NAM RD|海怡半島,4期,26座(御盈居),26 怡南路",HA,7735833.0,14679.0,526.0,8129501.999999999,15426.0,526.0,13731036.0,18357.0,748.0,7.0,18.0,29.0,"['A', 'B', 'C', 'D', 'E', 'F', 'G', 'H']",10506294.291666666,16426.166666666668,636.0,35,280,1995/03,26,SOUTH HORIZONS,海怡半島,True,34.0,9921.0,POINT Z (22.2427306 114.1496813 0),22.2427306,114.14968130000001
29,"MARINA HABITAT(Block 3),YUET HOI ST|悅海華庭3座,悅海街",HA,6600924.0,13823.0,422.0,6750734.0,14454.0,422.0,9737475.0,17708.0,605.0,10.0,23.0,36.0,"['A', 'B', 'C', 'D', 'E', 'F', 'G', 'H']",7854172.708333333,15971.666666666666,495.25,41,328,1998/05,23,MARINA HABITAT,悅海華庭,True,3.0,992.0,POINT Z (22.2442833 114.1546303 0),22.244283300000003,114.15463030000001
30,"DOVER COURT(Block 25,Phase 4,SOUTH HORIZONS),25 YI NAM RD|海怡半島,4期,25座(御柳居),25 怡南路",HA,8005657.000000001,15191.0,526.0,8408636.0,15986.0,526.0,13178264.0,17618.0,748.0,7.0,18.0,29.0,"['A', 'B', 'C', 'D', 'E', 'F', 'G', 'H']",10429477.458333334,16380.333333333334,635.25,35,280,1995/03,26,SOUTH HORIZONS,海怡半島,True,34.0,9921.0,POINT Z (22.2425571 114.1494557 0),22.242557100000003,114.1494557
31,"SILVER MANSION,SHEK PAI WAN RD|兆暉大廈,石排灣道",HA,5249264.869056055,12491.0,397.0,5460647.482868817,12994.0,397.0,5832724.0,14692.0,397.0,6.0,15.0,24.0,"['A', 'B']",5536561.16433604,13565.666666666666,397.0,27,54,1997/02,24,blank,,False,,,POINT Z (22.2493714 114.1487427 0),22.249371399999998,114.14874270000001
32,"YEE MOON COURT(Block 12,Phase 2,SOUTH HORIZONS),12 SOUTH HORIZON DR|海怡半島,2期,12座(怡滿閣),12 海怡路",HA,9230899.0,14629.0,631.0,9924368.0,15603.0,631.0,13060663.0,16911.0,781.0,6.0,17.0,28.0,"['A', 'B', 'C', 'D', 'E', 'F', 'G', 'H']",10672422.333333334,15891.083333333334,671.0,33,264,1992/10,29,SOUTH HORIZONS,海怡半島,True,34.0,9921.0,POINT Z (22.243179 114.146127 0),22.243179,114.146127
33,"YEE LAI COURT(Block 10,Phase 2,SOUTH HORIZONS),10 SOUTH HORIZON DR|海怡半島,2期,10座(怡麗閣),10 海怡路",HA,9946574.0,15326.0,648.0,10535866.0,16234.0,648.0,17605488.0,19826.0,893.0,8.0,22.0,35.0,"['A', 'B', 'C', 'D', 'E', 'F', 'G', 'H']",14083656.916666666,17586.75,796.25,42,336,1992/10,29,SOUTH HORIZONS,海怡半島,True,34.0,9921.0,POINT Z (22.243875 114.144527 0),22.243875,114.144527
34,"MARINA HABITAT(Block 1),YUET HOI ST|悅海華庭1座,悅海街",HA,6880710.0,14583.0,422.0,6151494.0,13775.0,422.0,9711460.0,16222.0,605.0,10.0,23.0,36.0,"['A', 'B', 'C', 'D', 'E', 'F', 'G', 'H']",7780961.458333333,15764.833333333334,495.25,41,328,1998/05,23,MARINA HABITAT,悅海華庭,True,3.0,992.0,POINT Z (22.2440158 114.1538286 0),22.2440158,114.15382859999998
35,"HOI NGAR COURT(Block 3,Phase 1,SOUTH HORIZONS),3 SOUTH HORIZON DR|海怡半島,1期,3座(海雅閣),3 海怡路",HA,9066152.0,14863.0,600.0,9454003.0,15473.0,600.0,22813842.0,18654.0,1223.0,7.0,18.0,29.0,"['A', 'B', 'C', 'D', 'E', 'EF', 'F', 'G', 'H']",11994310.88888889,16150.518518518518,735.0,35,315,1991/11,30,SOUTH HORIZONS,海怡半島,True,34.0,9921.0,POINT Z (22.2447503 114.1473493 0),22.2447503,114.1473493
36,"HOI FAI COURT(Block 2,Phase 1,SOUTH HORIZONS),2 SOUTH HORIZON DR|海怡半島,1期,2座(海暉閣),2 海怡路",HA,7307223.0,13557.0,526.0,7643559.0,14181.0,526.0,11087260.0,17307.0,652.0,8.0,20.0,33.0,"['A', 'B', 'C', 'D', 'E', 'F', 'G', 'H']",8792046.833333334,15737.166666666666,559.0,40,320,1991/11,30,SOUTH HORIZONS,海怡半島,True,34.0,9921.0,POINT Z (22.244541 114.147874 0),22.244541,114.147874
37,"FULL JADE MANSION,SHEK PAI WAN RD|富澤大廈,石排灣道",HA,4044734.9999999995,15778.0,243.0,4160160.0000000005,16701.0,243.0,4588406.0,18483.0,262.0,5.0,12.0,20.0,"['A', 'B', 'C', 'D']",4305522.416666667,17260.083333333332,249.66666666666666,24,96,1992/06,29,blank,,False,,,POINT Z (22.2495028 114.1479066 0),22.249502800000002,114.14790659999998
38,"MEI KA COURT(Block 23A,Phase 3,SOUTH HORIZONS),23A SOUTH HORIZON DR|海怡半島,3期,23A座(美家閣),23A 海怡路",HA,8874463.0,15067.0,589.0,9269964.0,15606.0,589.0,14800851.0,18782.0,791.0,7.0,20.0,33.0,"['A', 'B', 'C', 'D', 'E', 'F', 'G', 'H']",11540832.541666666,16690.5,687.875,39,312,1994/02,27,SOUTH HORIZONS,海怡半島,True,34.0,9921.0,POINT Z (22.2421636 114.1488258 0),22.2421636,114.1488258
39,"GRANDVIEW GARDEN(Block 2),NAM LONG SHAN RD|金寶花園2座,南朗山道",HA,5498984.0,16049.0,307.0,5654019.0,16445.0,307.0,6508850.0,19112.0,373.0,6.0,14.0,22.0,"['A', 'B', 'C', 'D', 'E', 'F']",5930049.277777777,17723.27777777778,335.5,25,150,1985/03,36,GRANDVIEW GARDEN,金寶花園,True,2.0,294.0,POINT Z (22.244926 114.16684 0),22.244926,114.16684
40,"YEE ON BLDG,MAIN ST AP LEI CHAU|怡安大廈,鴨利洲大街",HA,4872360.0,12822.0,380.0,5068440.0,13338.0,380.0,5301380.0,13951.0,380.0,7.0,12.0,18.0,"['A', 'B']",5130443.333333333,13501.166666666666,380.0,18,36,1984/09,37,blank,,False,,,POINT Z (22.2433801 114.1535731 0),22.2433801,114.15357309999999
41,"HOI LEE BLDG,MAIN ST AP LEI CHAU|海利大廈,鴨利洲大街",HA,4439688.0,16528.0,268.0,4618444.0,16668.0,268.0,5331984.0,18363.0,300.0,5.0,12.0,19.0,"['A', 'B', 'C', 'D']",4924860.166666667,17440.833333333332,282.5,23,92,1991/09,30,blank,,False,,,POINT Z (22.2440977 114.1562206 0),22.244097699999998,114.1562206
42,"HOI NING COURT(Block 5,Phase 1,SOUTH HORIZONS),5 SOUTH HORIZON DR|海怡半島,1期,5座(海寧閣),5 海怡路",HA,9004800.0,14414.0,600.0,9570000.0,15123.0,600.0,11794090.0,17370.0,742.0,7.0,18.0,29.0,"['A', 'B', 'C', 'D', 'E', 'F', 'G', 'H']",10469832.916666666,15734.625,666.75,35,280,1991/11,30,SOUTH HORIZONS,海怡半島,True,34.0,9921.0,POINT Z (22.244734 114.146632 0),22.244734,114.14663200000001
43,"MEI HAY COURT(Block 18,Phase 3,SOUTH HORIZONS),18 SOUTH HORIZON DR|海怡半島,3期,18座(美晞閣),18 海怡路",HA,8558170.0,14526.0,589.0,8920800.0,15120.0,589.0,27024613.070438627,19042.0,1263.0,8.0,20.0,33.0,"['A', 'B', 'C', 'D', 'E', 'E & F', 'F', 'G', 'H']",12691803.92970674,16172.185185185184,739.888888888889,40,360,1993/12,28,SOUTH HORIZONS,海怡半島,True,34.0,9921.0,POINT Z (22.2427771 114.1478342 0),22.2427771,114.14783419999999
44,"MEI FAI COURT(Block Q,ABERDEEN CTR),NAM NING ST|香港仔中心,Q座(美輝閣),南寧街",HA,8080380.0,13356.0,605.0,8381669.999999999,13854.0,605.0,10645920.0,14786.0,720.0,7.0,15.0,22.0,"['1', '2', '3', '4']",9273417.777777778,14059.416666666666,662.5,23,92,1981/05,40,ABERDEEN CTR,香港仔中心,True,20.0,2778.0,POINT Z (22.2482784 114.1532016 0),22.2482784,114.15320159999999
45,"ABERDEEN HARBOUR MANSION,ABERDEEN MAIN RD|雙喜大廈,香港仔大道",HA,4870800.0,12514.0,369.0,5027994.0,12743.0,369.0,11943996.804972278,14844.0,788.0,7.0,12.0,18.0,"['A', 'AB', 'B', 'C', 'D', 'E', 'E & F', 'F', 'G', 'H', 'I', 'J', 'K']",6479348.168098527,13498.442307692307,466.8205128205129,17,221,1972/10,49,blank,,False,,,POINT Z (22.2475013 114.1577301 0),22.2475013,114.1577301
46,"PORT CTR,CHENGTU RD|利港中心,成都道",HA,5978817.0,14547.0,411.0,6169110.0,14824.0,411.0,7387656.0,16357.0,456.0,9.0,16.0,22.0,"['A', 'B', 'C', 'D', 'E', 'F', 'G', 'H']",6740144.375,15550.208333333334,433.5,22,176,1989/07,32,blank,,False,,,POINT Z (22.2490583 114.1550362 0),22.2490583,114.1550362
47,"YEE NGAR COURT(Block 9,Phase 2,SOUTH HORIZONS),9 SOUTH HORIZON DR|海怡半島,2期,9座(怡雅閣),9 海怡路",HA,9932544.0,15328.0,648.0,10462529.0,16121.0,648.0,13996945.0,18552.0,755.0,8.0,22.0,35.0,"['A', 'B', 'C', 'D', 'E', 'F', 'G', 'H']",12378957.375,16962.5,728.7083333333334,42,336,1992/10,29,SOUTH HORIZONS,海怡半島,True,34.0,9921.0,POINT Z (22.2440632 114.1447667 0),22.2440632,114.14476670000002
48,"HUNG FOOK COURT,HUNG SHING ST|鴻福閣,洪聖街",HA,4672584.0,16002.0,292.0,5191176.0,17778.0,292.0,5269724.0,18047.0,292.0,6.0,12.0,19.0,"['A', 'B']",5151464.0,17642.0,292.0,22,44,1992/03,29,blank,,False,,,POINT Z (22.2444612 114.1561277 0),22.2444612,114.1561277
49,"KONG SHING COURT(Block F,ABERDEEN CTR),NAM NING ST|香港仔中心,F座(港盛閣),南寧街",HA,5698080.0,11871.0,450.0,5807520.0,12099.0,450.0,7260480.0,15126.0,480.0,6.0,15.0,24.0,"['1', '2', '3', '4', '5', '6']",6434599.5,13886.611111111111,463.6666666666667,27,162,1982/01,39,ABERDEEN CTR,香港仔中心,True,20.0,2778.0,POINT Z (22.2493679 114.1540376 0),22.249367899999996,114.1540376
50,"PAT LEUNG BLDG,LEE MAN RD|百良大廈,利民道",HA,5265470.0,14231.0,370.0,5542240.0,14740.0,370.0,5968248.0,15887.0,376.0,5.0,13.0,21.0,"['A', 'B', 'C', 'D']",5627161.666666667,15107.166666666666,372.5,25,100,1986/08,35,blank,,False,,,POINT Z (22.2435479 114.1525049 0),22.2435479,114.15250490000001
51,"BILLION COURT,MAIN ST AP LEI CHAU|利豐大廈,鴨利洲大街",HA,5415587.0,14277.0,373.0,5578588.0,14549.0,373.0,6417180.0,16205.0,413.0,5.0,12.0,20.0,"['A', 'B', 'C', 'D', 'E', 'F']",6001462.777777779,15241.11111111111,394.0,24,144,1990/10,31,blank,,False,,,POINT Z (22.243282 114.1540055 0),22.243282,114.1540055
52,"HIP SING MANSION,OLD MAIN ST ABERDEEN|協勝大廈,香港仔舊大街",HA,5388322.154793155,12631.0,403.0,5676359.560155114,13111.0,403.0,6020962.623129648,14114.0,403.0,5.0,12.0,20.0,"['A', 'B']",5710415.712625136,13353.5,404.0,24,48,1990/03,31,blank,,False,,,POINT Z (22.2477477 114.1560929 0),22.247747699999998,114.1560929
53,"PELENE MANSION,YUE KO ST|碧麗大廈,漁歌街",HA,4082599.9999999995,14598.0,268.0,4098255.9999999995,15154.0,268.0,4484076.0,16188.0,290.0,6.0,14.0,21.0,"['A', 'B', 'C', 'D', 'E', 'F']",4251988.555555556,15276.111111111111,278.5,24,144,1979/09,42,blank,,False,,,POINT Z (22.2490628 114.1483479 0),22.2490628,114.1483479
54,"COMFORT CTR,OLD MAIN ST ABERDEEN|港暉中心,香港仔舊大街",HA,5782460.0,14412.0,380.0,6046940.0,14920.0,380.0,8019065.000000001,16537.0,515.0,6.0,15.0,24.0,"['A', 'B', 'C', 'D', 'E', 'F']",6627448.888888888,15501.944444444443,429.0,29,174,1992/08,29,blank,,False,,,POINT Z (22.2486215 114.1561509 0),22.2486215,114.15615090000001
55,"KAM FUNG BLDG,ABERDEEN MAIN RD|金豐大廈,香港仔大道",HA,5884980.0,13546.0,430.0,6210060.0,14319.0,430.0,9031828.0,15648.0,578.0,6.0,17.0,28.0,"['A', 'B', 'C', 'D', 'E', 'F', 'G', 'H']",7088767.0,14610.708333333334,485.2083333333333,33,264,1986/04,35,blank,,False,,,POINT Z (22.2483749 114.1555007 0),22.248374899999998,114.1555007
56,"SOUTH VIEW GARDEN,SHEK PAI WAN RD|南景花園,石排灣道",HA,4281966.0,14257.0,261.0,4452660.0,14607.0,261.0,6514676.0,17991.0,406.0,9.0,18.0,27.0,"['A', 'B', 'C', 'D', 'E', 'F']",5407354.777777777,16042.22222222222,340.3333333333333,25,150,1995/06,26,blank,,False,,,POINT Z (22.2491127 114.1485465 0),22.249112699999998,114.14854650000001
57,"GROSVENOR COURT(Block 28,Phase 4,SOUTH HORIZONS),28 YI NAM RD|海怡半島,4期,28座(御意居),28 怡南路",HA,8037753.000000001,15487.0,519.0,7887240.0,14472.0,519.0,13245056.0,17996.0,1485.0,6.0,16.0,25.0,"['A', 'B', 'C', 'D', 'E', 'EF', 'F', 'G', 'H']",10572687.791666666,16548.916666666668,729.3333333333334,30,270,1995/03,26,SOUTH HORIZONS,海怡半島,True,34.0,9921.0,POINT Z (22.243154 114.150396 0),22.243154,114.150396
58,"JUMBO BLDG,ABERDEEN MAIN RD|珍寶大廈,香港仔大道",HA,4824296.0,14450.0,314.0,4955548.0,14840.0,314.0,6089400.0,16607.0,398.0,8.0,15.0,22.0,"['A', 'B', 'C', 'D']",5446157.833333333,15362.916666666666,356.0,23,92,1988/05,33,blank,,False,,,POINT Z (22.2494217 114.1549433 0),22.2494217,114.1549433
59,"MEI HONG COURT(Block 19,Phase 3,SOUTH HORIZONS),19 SOUTH HORIZON DR|海怡半島,3期,19座(美康閣),19 海怡路",HA,8678900.0,14710.0,589.0,8883298.0,15082.0,589.0,15116932.0,16922.0,898.0,8.0,20.0,33.0,"['A', 'B', 'C', 'D', 'E', 'F', 'G', 'H']",10837972.583333334,15977.375,674.5,40,320,1994/02,27,SOUTH HORIZONS,海怡半島,True,34.0,9921.0,POINT Z (22.242928 114.148272 0),22.242928,114.14827199999999
60,"KONG CHEUNG COURT(Block G,ABERDEEN CTR),NAM NING ST|香港仔中心,G座(港昌閣),南寧街",HA,6038178.0,13098.0,450.0,6279742.0,13622.0,450.0,7848176.0,14438.0,553.0,6.0,15.0,24.0,"['1', '2', '3', '4', '5', '6']",6771921.888888889,13877.5,488.0,27,162,1982/01,39,ABERDEEN CTR,香港仔中心,True,20.0,2778.0,POINT Z (22.2487869 114.1538679 0),22.2487869,114.1538679
61,"MANLY HSE,MAIN ST AP LEI CHAU|文麗大樓,鴨利洲大街",HA,3336394.3771830588,6322.0,295.0,3339920.688619007,6401.0,295.0,3986080.971547935,6788.0,360.0,6.0,9.0,12.0,"['A', 'B', 'C', 'D', 'E']",3662531.793663258,6551.0,328.0,9,45,1980/01,41,blank,,False,,,POINT Z (22.243704 114.154861 0),22.243704,114.15486100000001
62,"AP LEI CHAU CTR(Block B),LEE CHI RD|鴨利洲中心B座,利枝道",HA,4754240.0,14603.0,320.0,4921600.0,15086.0,320.0,7376640.0,16390.0,452.0,7.0,16.0,25.0,"['1', '2', '3', '4', '5', '6', '7', '8']",5693819.291666667,15509.75,366.7916666666667,27,216,1983/12,38,AP LEI CHAU CTR,鴨利洲中心,True,2.0,400.0,POINT Z (22.243399 114.1532905 0),22.243399,114.1532905
63,"YEE FUNG COURT(Block 11,Phase 2,SOUTH HORIZONS),11 SOUTH HORIZON DR|海怡半島,2期,11座(怡豐閣),11 海怡路",HA,9258472.0,14332.0,631.0,9282420.0,14584.0,631.0,24561048.0,19309.0,1272.0,6.0,17.0,28.0,"['A', 'B', 'C', 'D', 'E', 'EF', 'F', 'G', 'H']",12013799.037037035,15974.666666666666,740.0,33,297,1992/10,29,SOUTH HORIZONS,海怡半島,True,34.0,9921.0,POINT Z (22.244399 114.145846 0),22.244398999999998,114.14584599999999
64,"HOI WAN COURT(Block 4,Phase 1,SOUTH HORIZONS),4 SOUTH HORIZON DR|海怡半島,1期,4座(海韻閣),4 海怡路",HA,9179054.0,14936.0,600.0,9463737.0,15456.0,600.0,12061952.0,17210.0,742.0,7.0,18.0,29.0,"['A', 'B', 'C', 'D', 'E', 'F', 'G', 'H']",10698278.541666666,16060.375,666.75,35,280,1991/11,30,SOUTH HORIZONS,海怡半島,True,34.0,9921.0,POINT Z (22.244454 114.146952 0),22.244454,114.146952
65,"HAPPY VIEW BLDG,MAIN ST AP LEI CHAU|樂景大廈,鴨利洲大街",HA,5224476.0,15870.0,326.0,5377370.0,16210.0,326.0,5769705.0,17389.0,335.0,6.0,12.0,19.0,"['A', 'B', 'C', 'D']",5510089.833333333,16673.416666666668,330.5,20,80,1981/10,40,blank,,False,,,POINT Z (22.2436381 114.153457 0),22.243638100000002,114.153457
66,"SHUN KING COURT,MAIN ST AP LEI CHAU|順景閣,鴨利洲大街",HA,4334616.0,16419.0,264.0,4491432.0,17013.0,264.0,5072480.0,18116.0,280.0,7.0,15.0,22.0,"['A', 'B', 'C']",4736045.333333333,17238.333333333332,274.6666666666667,21,63,1995/11,26,blank,,False,,,POINT Z (22.2442864 114.1566851 0),22.244286399999996,114.1566851
67,"MEI CHEUNG COURT(Block 20,Phase 3,SOUTH HORIZONS),20 SOUTH HORIZON DR|海怡半島,3期,20座(美祥閣),20 海怡路",HA,8687161.0,14749.0,589.0,9163662.0,15459.0,589.0,11356400.0,17800.0,640.0,8.0,20.0,33.0,"['A', 'B', 'C', 'D', 'E', 'F', 'G', 'H']",9825570.875,16047.125,612.0,40,320,1994/00,27,SOUTH HORIZONS,海怡半島,True,34.0,9921.0,POINT Z (22.2426274 114.1486498 0),22.242627399999996,114.14864979999999
68,"JING HUI GARDEN(Block 1),ABERDEEN MAIN RD|景惠花園1座,香港仔大道",HA,5254875.0,12975.0,405.0,5312385.0,13117.0,405.0,6799700.0,14020.0,485.0,5.0,12.0,20.0,"['A', 'B', 'C', 'D']",5975711.666666667,13419.666666666666,445.0,24,96,1989/02,32,JING HUI GARDEN,景惠花園,True,2.0,192.0,POINT Z (22.248027 114.1592396 0),22.248027,114.15923959999999
69,"MEI FAI COURT(Block 17,Phase 3,SOUTH HORIZONS),17 SOUTH HORIZON DR|海怡半島,3期,17座(美暉閣),17 海怡路",HA,9197500.0,14716.0,625.0,9744375.0,15591.0,625.0,17510102.0,19499.0,898.0,8.0,20.0,33.0,"['A', 'B', 'C', 'D', 'E', 'F', 'G', 'H']",13271971.291666666,17231.25,760.875,40,320,1993/12,28,SOUTH HORIZONS,海怡半島,True,34.0,9921.0,POINT Z (22.2429446 114.1475257 0),22.2429446,114.1475257
70,"HOI SING COURT(Block 1,Phase 1,SOUTH HORIZONS),1 SOUTH HORIZON DR|海怡半島,1期,1座(海昇閣),1 海怡路",HA,8208648.0,14231.0,526.0,8633712.0,15066.0,526.0,24485355.0,19295.0,1269.0,8.0,20.0,33.0,"['A', 'AB', 'B', 'C', 'D', 'E', 'F', 'G', 'H']",11136843.629629629,16603.185185185186,660.2222222222222,40,360,1991/11,30,SOUTH HORIZONS,海怡半島,True,34.0,9921.0,POINT Z (22.2450552 114.1479066 0),22.2450552,114.14790659999998
71,"AP LEI CHAU CTR(Block A),LEE CHI RD|鴨利洲中心A座,利枝道",HA,5096000.0,15409.0,320.0,4907200.0,15335.0,320.0,7530320.0,17306.0,452.0,7.0,14.0,21.0,"['1', '2', '3', '4', '5', '6', '7', '8']",5920111.958333333,16317.875,363.0,23,184,1983/12,38,AP LEI CHAU CTR,鴨利洲中心,True,2.0,400.0,POINT Z (22.243318 114.152938 0),22.243318,114.15293799999999
72,"HOI FAI MANSION,ABERDEEN MAIN RD|海暉大廈,香港仔大道",HA,6947804.424898128,13760.0,477.0,7193704.189064218,14247.0,477.0,7479998.165002971,14814.0,477.0,5.0,13.0,21.0,"['A', 'B']",7212891.4396562325,14285.0,477.0,25,50,1992/09,29,blank,,False,,,POINT Z (22.2473433 114.1575559 0),22.2473433,114.1575559
73,"KA NING MANSION,ABERDEEN MAIN RD|嘉寧大廈,香港仔大道",HA,7476639.390528268,11123.0,635.0,7697786.055949809,11452.0,635.0,10782999.834939642,12765.0,830.0,6.0,13.0,20.0,"['A', 'B', 'C', 'D']",9226613.731062412,11897.583333333334,732.5,23,92,1979/12,42,blank,,False,,,POINT Z (22.2472655 114.1571495 0),22.2472655,114.15714950000002
74,"NGAN FUNG BLDG,ABERDEEN MAIN RD|銀輝大廈,香港仔大道",HA,5210376.971836655,12621.0,390.0,5355694.513559696,12973.0,390.0,5683860.0,14574.0,390.0,5.0,12.0,20.0,"['A', 'B']",5442919.401687569,13575.833333333334,390.0,24,48,1988/07,33,blank,,False,,,POINT Z (22.2472004 114.1567315 0),22.247200399999997,114.15673149999999
75,"KA WO BLDG(Block B),KA WO ST|嘉和大廈B座,嘉禾街",HA,4399560.0,12770.0,330.0,4568520.0,13165.0,330.0,6509460.0,14710.0,445.0,6.0,14.0,21.0,"['1', '2', '3', '4', '5', '6', '7', '8']",4812146.458333333,13620.125,353.3333333333333,23,184,1978/05,43,KA WO BLDG,嘉和大廈,True,2.0,360.0,POINT Z (22.2499491 114.1488123 0),22.249949100000002,114.14881229999999
76,"ALBANY COURT(Block 32,Phase 4,SOUTH HORIZONS),32 YI NAM RD|海怡半島,4期,32座(御泉居),32 怡南路",HA,8095974.999999999,14811.0,526.0,8299754.000000001,15087.0,526.0,11395371.0,16539.0,689.0,10.0,18.0,26.0,"['A', 'B', 'C', 'D', 'E', 'F', 'G', 'H']",9444583.541666666,15730.291666666666,600.0,25,200,1995/03,26,SOUTH HORIZONS,海怡半島,True,34.0,9921.0,POINT Z (22.2435972 114.1492768 0),22.243597199999996,114.1492768
77,"BERKELEY COURT(Block 33,Phase 4,SOUTH HORIZONS),33 YI NAM RD|海怡半島,4期,33座(御林居),33 怡南路",HA,7728518.000000001,14693.0,526.0,8010980.0,15230.0,526.0,11944504.0,17336.0,689.0,10.0,18.0,26.0,"['A', 'B', 'C', 'D', 'E', 'F', 'G', 'H']",9636062.916666666,16014.083333333334,600.0,25,200,1995/03,26,SOUTH HORIZONS,海怡半島,True,34.0,9921.0,POINT Z (22.2425571 114.1494557 0),22.242557100000003,114.1494557
78,"NING FUNG MANSION,MAIN ST AP LEI CHAU|年豐大廈,鴨利洲大街",HA,4357464.0,15452.0,271.0,4540200.0,16100.0,271.0,4997322.0,17721.0,287.0,6.0,12.0,19.0,"['A', 'B', 'C', 'D', 'E', 'F']",4689645.722222223,16751.38888888889,280.0,20,120,1981/08,40,blank,,False,,,POINT Z (22.2442317 114.1568941 0),22.244231699999997,114.15689409999999
79,"OCEAN HSE,OLD MAIN ST ABERDEEN|海洋大廈,香港仔舊大街",HA,4772720.083539806,12665.0,356.0,4892556.245132042,12983.0,356.0,5425789.479889943,14398.0,356.0,5.0,10.0,15.0,"['A', 'B', 'C', 'D']",5189044.92550512,13552.083333333334,361.8333333333333,15,60,1983/08,38,blank,,False,,,POINT Z (22.2478548 114.1561741 0),22.247854800000002,114.15617409999999
80,"KONG TAI COURT(Block H,ABERDEEN CTR),NAM NING ST|香港仔中心,H座(港泰閣),南寧街",HA,5652900.0,12562.0,450.0,5892300.0,13094.0,450.0,7696654.000000001,14093.0,553.0,6.0,15.0,24.0,"['1', '2', '3', '4', '5', '6']",6482579.5,13278.0,488.0,27,162,1981/12,40,ABERDEEN CTR,香港仔中心,True,20.0,2778.0,POINT Z (22.24953 114.153739 0),22.24953,114.15373899999999
81,"JUMBO COURT,WELFARE RD|珍寶閣,惠福道",HA,5787306.0,13362.0,391.0,5754276.0,13369.0,391.0,7986131.0,16831.0,1133.0,8.0,12.0,17.0,"['A', 'B', 'C', 'D', 'E', 'F', 'G', 'H', 'I', 'J', 'J & K & L', 'K', 'L']",6531454.75,15431.138888888889,478.84615384615387,14,182,1979/05,42,blank,,False,,,POINT Z (22.245874 114.164656 0),22.245874,114.16465600000001
82,"SIU KWAN MANSION,OLD MAIN ST ABERDEEN|兆群大廈,香港仔舊大街",HA,5280093.0,17199.0,307.0,5514027.0,17961.0,307.0,5760241.0,18763.0,440.0,6.0,13.0,20.0,"['A', 'B', 'C', 'D']",5518120.333333333,17974.333333333332,374.75,23,92,1993/10,28,blank,,False,,,POINT Z (22.2488831 114.1561509 0),22.2488831,114.15615090000001
83,"SEAVIEW COURT,ABERDEEN MAIN RD|海光閣,香港仔大道",HA,4697700.0,15659.0,300.0,4795500.0,15985.0,300.0,5091000.0,16970.0,300.0,6.0,14.0,21.0,"['A', 'B']",4863400.0,16211.333333333334,300.0,24,48,1992/07,29,blank,,False,,,POINT Z (22.247766 114.1584036 0),22.247766,114.15840359999999
84,74-76 OLD MAIN ST ABERDEEN|74-76 香港仔舊大街,HA,4620280.0,16501.0,280.0,4638480.0,16566.0,280.0,5963573.0,20779.0,287.0,2.0,3.0,4.0,"['A', 'B', 'C', 'D']",5072162.083333333,17887.166666666668,283.5,5,20,1971/07,50,blank,,False,,,POINT Z (22.2481686 114.1560401 0),22.248168600000003,114.15604009999998
85,"WAI KING MANSION,ABERDEEN MAIN RD|偉景大廈,香港仔大道",HA,6040827.344778648,11599.0,492.0,6289772.553055585,12077.0,492.0,6856930.150991954,13166.0,492.0,7.0,15.0,22.0,"['A', 'B']",6521878.371372367,12522.666666666666,492.0,23,46,1994/07,27,blank,,False,,,POINT Z (22.2478004 114.1585313 0),22.2478004,114.1585313
86,"JING HUI GARDEN(Block 2),ABERDEEN MAIN RD|景惠花園2座,香港仔大道",HA,5054805.0,12102.0,405.0,5308740.0,12776.0,405.0,6567870.0,14142.0,485.0,5.0,12.0,20.0,"['E', 'F', 'G', 'H']",5816723.333333333,13095.333333333334,445.0,24,96,1989/02,32,JING HUI GARDEN,景惠花園,True,2.0,192.0,POINT Z (22.2481503 114.1595647 0),22.2481503,114.15956470000002
87,"HUNG SHING BLDG,HUNG SHING ST|鴻勝大廈,洪聖街",HA,3916900.5366108203,16519.0,224.0,3927167.9999999995,16651.0,224.0,4224281.857746723,18028.0,234.0,4.0,6.0,9.0,"['A', 'B', 'C']",4033960.8919725493,17088.666666666668,227.33333333333334,10,30,1986/04,35,blank,,False,,,POINT Z (22.2446502 114.1560348 0),22.2446502,114.1560348
88,"MEI KWONG COURT(Block P,ABERDEEN CTR),NAM NING ST|香港仔中心,P座(美光閣),南寧街",HA,7840920.000000001,13756.0,570.0,8113950.0,14235.0,570.0,8905800.0,14843.0,600.0,7.0,15.0,23.0,"['1', '2', '3', '4', '5', '6']",8426298.333333334,14281.166666666666,590.0,25,150,1981/05,40,ABERDEEN CTR,香港仔中心,True,20.0,2778.0,POINT Z (22.248508 114.1532394 0),22.248507999999998,114.1532394
89,"KA FOOK COURT,KA WO ST|嘉福閣,嘉禾街",HA,8048186.789204187,11590.0,656.0,8263453.217560815,11900.0,656.0,8799726.60368693,12482.0,666.0,7.0,13.0,19.0,"['A', 'B', 'C']",8273127.718761026,11043.111111111111,662.6666666666666,19,57,1981/07,40,blank,,False,,,POINT Z (22.2496907 114.1489952 0),22.249690700000002,114.1489952
90,"YEN CHING BLDG,MAIN ST AP LEI CHAU|仁正大廈,鴨利洲大街",HA,4462734.733028621,14053.0,260.0,4348411.492162593,13693.0,260.0,7048504.146227622,14797.0,450.0,4.0,10.0,17.0,"['A', 'B', 'C', 'D']",5286550.123806278,14181.0,293.75,19,76,1985/03,36,blank,,False,,,POINT Z (22.243637 114.1551291 0),22.243637,114.1551291
91,"ON TAI BLDG,WU NAM ST|安泰大廈,湖南街",HA,4577440.0,16348.0,275.0,4253200.0,15190.0,275.0,5097040.0,17576.0,290.0,8.0,13.0,18.0,"['A', 'B', 'C']",4682283.888888889,16618.55555555555,281.6666666666667,17,51,1984/02,37,blank,,False,,,POINT Z (22.2478262 114.1555239 0),22.2478262,114.1555239
92,"FORTUNE MANSION,MAIN ST AP LEI CHAU|利是大廈,鴨利洲大街",HA,5554629.0,13490.0,409.0,5702278.0,13847.0,409.0,6389807.0,15623.0,442.0,5.0,12.0,19.0,"['A', 'B', 'C', 'D', 'E', 'F']",5971438.888888889,14113.72222222222,423.3333333333333,23,138,1987/03,34,blank,,False,,,POINT Z (22.2439544 114.1559535 0),22.2439544,114.1559535
93,"TSUNG MAN COURT,TSUNG MAN ST|崇文閣,崇文街",HA,3327465.6480713314,5980.0,328.0,3341955.1245101662,6258.0,328.0,3521420.706672825,9763.0,330.0,3.0,4.0,5.0,"['A', 'B', 'C']",3410397.2652518763,7333.666666666667,329.1111111111111,5,15,1976/01,45,blank,,False,,,POINT Z (22.249956 114.1547343 0),22.249956,114.15473429999999
94,"COMMAND TOWER,MAIN ST AP LEI CHAU|僑民大廈,鴨利洲大街",HA,4724071.0,13166.0,319.0,4832212.0,13519.0,319.0,6045630.0,15789.0,435.0,6.0,12.0,19.0,"['1', '2', '3', '4']",5306174.666666667,14556.083333333334,367.0,20,80,1986/08,35,blank,,False,,,POINT Z (22.243347 114.1542002 0),22.243347,114.1542002
95,"TUNG NAM BLDG,MAIN ST AP LEI CHAU|東南大廈,鴨利洲大街",HA,5124672.1197729735,10021.0,396.0,5197289.966395841,10163.0,396.0,5629403.406066447,12707.0,420.0,4.0,7.0,10.0,"['A', 'B', 'C', 'D']",5361708.843350363,11500.944444444445,404.75,9,36,1980/12,41,blank,,False,,,POINT Z (22.243859 114.1546879 0),22.243859,114.1546879
96,"ROUSSEAU HEIGHTS,MAIN ST AP LEI CHAU|亨利閣,鴨利洲大街",HA,4386091.585513215,12868.0,322.0,4443013.973979232,13035.0,322.0,4675000.0,13750.0,340.0,5.0,8.0,10.0,"['A', 'B']",4532818.744942681,13315.5,331.0,8,16,1973/09,48,blank,,False,,,POINT Z (22.2444894 114.1573353 0),22.244489399999996,114.15733529999999
97,"WAH LEE BLDG,TSUNG MAN ST|華利大廈,崇文街",HA,4794377.986392759,9416.0,400.0,4923944.326040925,9670.0,400.0,4930373.664596378,12104.0,380.0,6.0,12.0,17.0,"['A', 'B']",4896092.296785793,10698.166666666666,393.3333333333333,18,36,1978/12,43,blank,,False,,,POINT Z (22.2497883 114.1555239 0),22.2497883,114.1555239
98,"SZE HEI BLDG,SHEK PAI WAN RD|四喜大廈,石排灣道",HA,3792271.0,11963.0,315.0,3888956.0,12268.0,315.0,4405275.0,13985.0,317.0,7.0,12.0,18.0,"['A', 'B', 'C']",4146104.6666666665,13136.22222222222,315.6666666666667,18,54,1975/05,46,blank,,False,,,POINT Z (22.2488626 114.1489285 0),22.248862600000002,114.1489285
99,"YEE HING BLDG,MAIN ST AP LEI CHAU|怡慶大廈,鴨利洲大街",HA,4977600.0,14538.0,320.0,5101120.0,14954.0,320.0,5593280.0,17479.0,349.0,6.0,12.0,19.0,"['A', 'B', 'C', 'D']",5259148.0,15983.444444444443,334.5,22,88,1985/05,36,blank,,False,,,POINT Z (22.2435543 114.1538518 0),22.2435543,114.1538518
100,"KAM TSEUK MANSION,KA WO ST|金爵大廈,嘉禾街",HA,4031623.90881988,14054.0,271.0,3808708.684021532,10883.0,271.0,4416025.220746637,15394.0,271.0,5.0,7.0,9.0,"['A', 'B']",4133142.1382821673,13606.5,271.0,7,14,1980/11,41,blank,,False,,,POINT Z (22.2494804 114.148882 0),22.249480399999996,114.148882
101,"KONG WING COURT(Block I,ABERDEEN CTR),NAM NING ST|香港仔中心,I座(港榮閣),南寧街",HA,5919240.0,12840.0,450.0,6163109.0,13369.0,450.0,6718560.0,14300.0,480.0,6.0,15.0,24.0,"['1', '2', '3', '4', '5', '6']",6293008.666666667,13575.22222222222,463.6666666666667,27,162,1981/12,40,ABERDEEN CTR,香港仔中心,True,20.0,2778.0,POINT Z (22.2493534 114.1538518 0),22.249353399999997,114.1538518
102,"KAM FAT BLDG,LEE CHI RD|金發大廈,利枝道",HA,6105362.0,15817.0,386.0,6460482.0,16408.0,386.0,7864318.0,17282.0,458.0,6.0,14.0,23.0,"['A', 'B', 'C', 'D', 'E', 'F']",6883240.444444445,16619.11111111111,414.3333333333333,28,168,1986/08,35,blank,,False,,,POINT Z (22.2436059 114.1526907 0),22.2436059,114.15269070000001
103,"HOI CHUN COURT(Block A,Phase 4,ABERDEEN CTR),4 NAM NING ST|香港仔中心,4期,A座(海珍閣),4 南寧街",HA,6371640.0,14160.0,440.0,6232600.0,14165.0,440.0,9241410.0,16213.0,570.0,6.0,14.0,23.0,"['1', '2', '3', '4', '5', '6']",7319791.666666667,15134.833333333334,483.3333333333333,26,156,1979/12,42,ABERDEEN CTR,香港仔中心,True,20.0,2778.0,POINT Z (22.2482557 114.1544556 0),22.2482557,114.15445559999999
104,"MEI FUNG COURT(Block R,ABERDEEN CTR),NAM NING ST|香港仔中心,R座(美豐閣),南寧街",HA,9192890.580316365,10719.0,685.0,10331074.184720723,11111.0,685.0,11660696.72851972,12541.0,720.0,7.0,15.0,23.0,"['1', '2', '3', '4']",10605073.339424675,11922.666666666666,700.0,25,100,1981/05,40,ABERDEEN CTR,香港仔中心,True,20.0,2778.0,POINT Z (22.2481257 114.1533409 0),22.2481257,114.1533409
105,"KWUN HOI COURT(Block S,Phase 3,ABERDEEN CTR),5 NAM NING ST|香港仔中心,3期,S座(觀海閣),5 南寧街",HA,9935705.837843386,12684.0,715.0,10350868.569951316,13214.0,715.0,11495043.086800223,14911.0,750.0,7.0,16.0,24.0,"['1', '2', '3']",10678951.571771199,13876.888888888889,727.2222222222223,25,75,1981/06,40,ABERDEEN CTR,香港仔中心,True,20.0,2778.0,POINT Z (22.2479071 114.1541769 0),22.247907100000003,114.15417690000001
106,"HOI LUNG COURT(Block N,Phase 5,ABERDEEN CTR),6 NAM NING ST|香港仔中心,5期,N座(海龍閣),6 南寧街",HA,6178040.0,13637.0,440.0,6385720.0,14165.0,440.0,8533470.0,15961.0,570.0,6.0,14.0,23.0,"['1', '2', '3', '4', '5', '6']",7106925.555555555,14745.444444444443,483.3333333333333,26,156,1979/12,42,ABERDEEN CTR,香港仔中心,True,20.0,2778.0,POINT Z (22.2483157 114.1537136 0),22.2483157,114.15371359999999
107,"YEE TIAM BLDG,KA WO ST|益添大廈,嘉禾街",HA,4208085.0,11643.0,305.0,4297145.0,12309.0,305.0,4903260.0,14374.0,355.0,8.0,13.0,18.0,"['A', 'B', 'C']",4534542.1862287,13200.555555555557,338.3333333333333,16,48,1979/04,42,blank,,False,,,POINT Z (22.2495822 114.1487891 0),22.2495822,114.14878909999999
108,"HOI WU COURT(Block D,Phase 4,ABERDEEN CTR),14 NAM NING ST|香港仔中心,4期,D座(海湖閣),14 南寧街",HA,6178480.0,14042.0,440.0,6328080.0,14382.0,440.0,9202080.0,16144.0,570.0,6.0,14.0,23.0,"['1', '2', '3', '4', '5', '6']",7251421.666666667,14960.833333333334,483.3333333333333,26,156,1979/12,42,ABERDEEN CTR,香港仔中心,True,20.0,2778.0,POINT Z (22.2485926 114.1545448 0),22.248592600000002,114.15454479999998
109,"HOI TSING COURT(Block K,Phase 5,ABERDEEN CTR),12 NAM NING ST|香港仔中心,5期,K座(海晶閣),12 南寧街",HA,5831320.0,13022.0,440.0,6026240.0,13519.0,440.0,9211087.02948754,15266.0,570.0,6.0,14.0,23.0,"['1', '2', '3', '4', '5', '6']",7132593.865043453,14011.833333333334,483.3333333333333,26,156,1979/12,42,ABERDEEN CTR,香港仔中心,True,20.0,2778.0,POINT Z (22.2483157 114.1537136 0),22.2483157,114.15371359999999
110,"KA WO BLDG(Block A),KA WO ST|嘉和大廈A座,嘉禾街",HA,4299240.0,12986.0,330.0,4440150.0,13241.0,330.0,6445380.0,15048.0,445.0,6.0,13.0,20.0,"['1', '2', '3', '4', '5', '6', '7', '8']",4896386.041666667,14065.333333333334,348.5416666666667,22,176,1978/05,43,KA WO BLDG,嘉和大廈,True,2.0,360.0,POINT Z (22.249981 114.148647 0),22.249981,114.148647
111,"HOI TIN COURT(Block M,Phase 5,ABERDEEN CTR),8 NAM NING ST|香港仔中心,5期,M座(海天閣),8 南寧街",HA,5982240.0,13596.0,440.0,6205320.0,14103.0,440.0,8889150.0,15595.0,570.0,6.0,14.0,23.0,"['1', '2', '3', '4', '5', '6']",7022628.888888888,14500.777777777776,483.3333333333333,26,156,1979/12,42,ABERDEEN CTR,香港仔中心,True,20.0,2778.0,POINT Z (22.2483157 114.1537136 0),22.2483157,114.15371359999999
112,"HOI SHAN COURT(Block C,Phase 4,ABERDEEN CTR),16 NAM NING ST|香港仔中心,4期,C座(海珊閣),16 南寧街",HA,5783800.0,13145.0,440.0,6025360.0,13694.0,440.0,8706750.0,15275.0,570.0,6.0,14.0,23.0,"['1', '2', '3', '4', '5', '6']",6833012.777777779,14104.055555555555,483.3333333333333,26,156,1979/12,42,ABERDEEN CTR,香港仔中心,True,20.0,2778.0,POINT Z (22.2485899 114.1545485 0),22.2485899,114.1545485
113,"KWUN KING COURT(Block U,Phase 3,ABERDEEN CTR),1 NAM NING ST|香港仔中心,3期,U座(觀景閣),1 南寧街",HA,11158460.0,15079.0,740.0,12548920.0,16958.0,740.0,13452000.0,17936.0,750.0,7.0,16.0,24.0,"['1', '2', '3']",12681562.222222222,16982.333333333332,746.6666666666666,25,75,1981/06,40,ABERDEEN CTR,香港仔中心,True,20.0,2778.0,POINT Z (22.247878 114.154547 0),22.247878,114.154547
114,"HOI CHU COURT(Block B,Phase 4,ABERDEEN CTR),2 NAM NING ST|香港仔中心,4期,B座(海珠閣),2 南寧街",HA,6004680.0,13647.0,440.0,6299040.0,14316.0,440.0,8682810.0,15351.0,570.0,6.0,14.0,23.0,"['1', '2', '3', '4', '5', '6']",7144749.444444445,14774.5,483.3333333333333,26,156,1979/12,42,ABERDEEN CTR,香港仔中心,True,20.0,2778.0,POINT Z (22.248411 114.154576 0),22.248410999999997,114.154576
115,"SHUN LEE BLDG,MAIN ST AP LEI CHAU|順利大廈,鴨利洲大街",HA,4221941.406954548,11769.0,321.0,4211433.195731613,11816.0,318.0,4696131.980547779,12575.0,374.0,3.0,4.0,5.0,"['1', '2', '3', '4', '5']",4509075.305864158,12049.949999999999,354.40000000000003,5,25,1981/03,40,blank,,False,,,POINT Z (22.2437066 114.1542698 0),22.243706600000003,114.15426979999998
116,"HOI YING COURT(Block L,Phase 5,ABERDEEN CTR),10 NAM NING ST|香港仔中心,5期,L座(海瑩閣),10 南寧街",HA,5833520.0,13258.0,440.0,5513200.0,12530.0,440.0,8618400.0,15120.0,570.0,6.0,14.0,23.0,"['1', '2', '3', '4', '5', '6']",6907942.777777777,14253.833333333334,483.3333333333333,26,156,1979/12,42,ABERDEEN CTR,香港仔中心,True,20.0,2778.0,POINT Z (22.2485544 114.1537173 0),22.2485544,114.1537173
117,"NGAN ON HSE(Block A,YUE ON COURT),YUE ON COURT RD|漁安苑,A座(銀安閣),漁安苑道",HA,5449311.0,11619.0,469.0,5737746.0,12234.0,469.0,6659352.0,13480.0,504.0,7.0,18.0,29.0,"['1', '2', '3', '4', '5', '6', '7', '8']",6000515.166666667,12405.041666666666,483.75,35,280,1988/08,33,YUE ON COURT,漁安苑,True,7.0,1904.0,POINT Z (22.2430112 114.1563367 0),22.243011199999998,114.15633670000001
118,"YEN SHING MANSION,SHEK PAI WAN RD|仁勝大廈,石排灣道",HA,3981211.5937920674,12969.0,290.0,4056421.466602543,13214.0,290.0,4664404.105561876,15236.0,295.0,4.0,10.0,16.0,"['A', 'B', 'C', 'D']",4306079.719254154,14137.888888888889,292.5,19,76,1988/02,33,blank,,False,,,POINT Z (22.2494766 114.1480764 0),22.2494766,114.1480764
119,"PIK ON HSE(Block C,YUE ON COURT),YUE ON COURT RD|漁安苑,C座(碧安閣),漁安苑道",HA,5946451.0,12471.0,469.0,6123733.0,12708.0,469.0,6879600.0,13842.0,504.0,8.0,18.0,29.0,"['1', '2', '3', '4', '5', '6', '7', '8']",6336179.75,13103.333333333334,483.75,34,272,1988/08,33,YUE ON COURT,漁安苑,True,7.0,1904.0,POINT Z (22.2427365 114.1569436 0),22.2427365,114.1569436
120,"TSE ON HSE(Block D,YUE ON COURT),YUE ON COURT RD|漁安苑,D座(紫安閣),漁安苑道",HA,6032278.0,12862.0,469.0,6191738.0,13202.0,469.0,7161811.0,14527.0,504.0,7.0,18.0,29.0,"['1', '2', '3', '4', '5', '6', '7', '8']",6548230.041666667,13535.25,483.75,33,264,1988//1,33,YUE ON COURT,漁安苑,True,7.0,1904.0,POINT Z (22.2427365 114.1569436 0),22.2427365,114.1569436
121,"HAR ON HSE(Block E,YUE ON COURT),YUE ON COURT RD|漁安苑,E座(霞安閣),漁安苑道",HA,6056197.0,12541.0,469.0,6234417.0,12956.0,469.0,6932520.0,14184.0,504.0,8.0,18.0,29.0,"['1', '2', '3', '4', '5', '6', '7', '8']",6446339.0,13329.916666666666,483.75,34,272,1988/10,33,YUE ON COURT,漁安苑,True,7.0,1904.0,POINT Z (22.2427365 114.1569436 0),22.2427365,114.1569436
122,"CHOI ON HSE(Block B,YUE ON COURT),YUE ON COURT RD|漁安苑,B座(彩安閣),漁安苑道",HA,5854996.0,12484.0,469.0,6099345.0,12770.0,469.0,6659352.0,13667.0,504.0,8.0,18.0,29.0,"['1', '2', '3', '4', '5', '6', '7', '8']",6331501.833333333,13091.083333333334,483.75,34,272,1988/00,33,YUE ON COURT,漁安苑,True,7.0,1904.0,POINT Z (22.243183 114.156574 0),22.243183,114.15657399999999
123,"SHAN ON HSE(Block F,YUE ON COURT),YUE ON COURT RD|漁安苑,F座(珊安閣),漁安苑道",HA,5778549.0,12321.0,469.0,6214719.0,13080.0,469.0,6873048.0,14153.0,504.0,7.0,18.0,29.0,"['1', '2', '3', '4', '5', '6', '7', '8']",6407550.333333333,13248.083333333334,483.75,35,280,1988/10,33,YUE ON COURT,漁安苑,True,7.0,1904.0,POINT Z (22.2429922 114.1573339 0),22.2429922,114.15733390000001
124,"WU ON HSE(Block G,YUE ON COURT),YUE ON COURT RD|漁安苑,G座(瑚安閣),漁安苑道",HA,5753692.0,11543.0,469.0,6141086.0,12704.0,469.0,6822134.0,14333.0,504.0,7.0,19.0,30.0,"['1', '2', '3', '4', '5', '6', '7', '8']",6294853.541666667,13022.375,483.75,33,264,1988//0,33,YUE ON COURT,漁安苑,True,7.0,1904.0,POINT Z (22.2429797 114.1563056 0),22.2429797,114.15630559999998
125,122 MAIN ST AP LEI CHAU|122 鴨利洲大街,HA,,,529.0,,,512.0,,,490.0,3.0,4.0,5.0,['whole floor'],,,510.3333333333333,3,3,1967/04,54,blank,,False,,,POINT Z (22.2439202 114.1552265 0),22.243920199999998,114.15522649999998
126,"BAYSHORE APT,ABERDEEN MAIN RD|海峰華軒,香港仔大道",HA,6766900.0,12984.0,490.0,7387240.0,13755.0,490.0,8572116.0,16616.0,575.0,7.0,20.0,34.0,"['50 UNIT', 'A', 'B', 'C', 'D']",7718067.8,14787.666666666666,523.8,38,190,2000/10,21,blank,,False,,,POINT Z (22.2484356 114.1517849 0),22.248435600000004,114.15178490000001
127,"KWUN CHIU COURT(Block T,Phase 3,ABERDEEN CTR),3 NAM NING ST|香港仔中心,3期,T座(觀潮閣),3 南寧街",HA,10880396.884866338,13708.0,740.0,11256869.668329328,14179.0,740.0,11853891.03729637,14931.0,750.0,8.0,16.0,24.0,"['1', '2', '3']",11345932.412857091,14355.22222222222,746.6666666666666,22,66,1981/06,40,ABERDEEN CTR,香港仔中心,True,20.0,2778.0,POINT Z (22.2477907 114.1543627 0),22.2477907,114.15436270000001
128,"WATERFRONT SOUTH(Block 2),YUE WOK ST|港麗豪園2座,漁獲街",HA,7020230.0,14327.0,490.0,7165760.0,14624.0,490.0,7851759.999999999,16024.0,635.0,10.0,20.0,30.0,"['A', 'B', 'C', 'D']",7768077.5,15121.166666666666,562.5,29,116,1999/06,22,WATERFRONT SOUTH,港麗豪園,True,2.0,236.0,POINT Z (22.2490595 114.1479531 0),22.2490595,114.1479531
129,"WATERFRONT SOUTH(Block 1),YUE WOK ST|港麗豪園1座,漁獲街",HA,7046690.0,13166.0,490.0,7268660.0,13619.0,490.0,9804060.0,15813.0,620.0,10.0,20.0,31.0,"['A', 'B', 'C', 'D']",8108073.916666667,14660.75,554.25,30,120,1999/06,22,WATERFRONT SOUTH,港麗豪園,True,2.0,236.0,POINT Z (22.2492631 114.1477673 0),22.249263100000004,114.1477673
130,"SOUTH WAVE COURT(Block 3),SHUM WAN RD|南濤閣3座,深灣道",HA,4411370.0,9820.0,430.0,4622500.0,10311.0,430.0,6401252.0,11387.0,590.0,7.0,18.0,29.0,"['A', 'B', 'C', 'D', 'E', 'F', 'G', 'H', 'J', 'K']",5642176.333333333,10548.633333333333,536.2,30,300,1995/10,26,SOUTH WAVE COURT,南濤閣,True,3.0,980.0,POINT Z (22.2448246 114.1660206 0),22.2448246,114.1660206
131,"SOUTH WAVE COURT(Block 1),SHUM WAN RD|南濤閣1座,深灣道",HA,4550260.0,10419.0,430.0,4757950.0,10752.0,430.0,7039728.0,11952.0,590.0,7.0,18.0,28.0,"['A', 'B', 'C', 'D', 'E', 'F', 'G', 'H', 'J', 'K']",5961693.033333334,11100.333333333334,536.2,34,340,1995/10,26,SOUTH WAVE COURT,南濤閣,True,3.0,980.0,POINT Z (22.2444541 114.1658813 0),22.244454100000002,114.16588130000001
132,"SOUTH WAVE COURT(Block 2),SHUM WAN RD|南濤閣2座,深灣道",HA,4449210.0,9007.0,430.0,4339191.534496454,9416.0,430.0,6523358.2222124655,11488.0,590.0,8.0,18.0,29.0,"['A', 'B', 'C', 'D', 'E', 'F', 'G', 'H', 'J', 'K']",5504359.007391887,9815.14074074074,536.2,34,340,1995/10,26,SOUTH WAVE COURT,南濤閣,True,3.0,980.0,POINT Z (22.2449078 114.1664619 0),22.2449078,114.1664619
133,"TOHO COURT,PING LAN ST|東寶閣,平瀾街",HA,4875009.744756159,13466.0,319.0,5082087.241711493,14038.0,319.0,5412473.0,16967.0,342.0,7.0,14.0,20.0,"['A', 'B']",5151390.317250087,15213.166666666666,330.5,20,40,1989/04,32,blank,,False,,,POINT Z (22.2447094 114.1571147 0),22.244709399999998,114.15711470000001
134,"FUNG KING COURT(Block 29,Phase 4,SOUTH HORIZONS),29 YI NAM RD|海怡半島,4期,29座(豐景閣),29 怡南路",HA,7888320.0,14655.0,528.0,8162880.000000001,15203.0,528.0,11724713.0,17410.0,689.0,8.0,16.0,25.0,"['A', 'B', 'C', 'D', 'E', 'F', 'G', 'H']",9621135.916666666,15866.708333333334,604.5,26,208,1994/12,27,SOUTH HORIZONS,海怡半島,True,34.0,9921.0,POINT Z (22.243803 114.150128 0),22.243803,114.15012800000001
135,"YUK FAI HSE(Block A,Phase 1,YUE FAI COURT),45 YUE KWONG RD|漁暉苑,1期,A座(旭暉閣),45 漁光道",HA,5028480.0,13026.0,384.0,5235456.0,13068.0,384.0,5917537.0,14546.0,419.0,5.0,14.0,23.0,"['1', '2', '3', '4', '5', '6', '7', '8']",5427233.25,13525.5,401.5,29,232,1980/04,41,YUE FAI COURT,漁暉苑,True,6.0,1320.0,POINT Z (22.248283 114.156683 0),22.248282999999997,114.156683
136,"KING FAI HSE(Block E,Phase 1,YUE FAI COURT),45 YUE KWONG RD|漁暉苑,1期,E座(景暉閣),45 漁光道",HA,5096448.0,13272.0,384.0,5427456.0,14025.0,384.0,6117400.0,15316.0,419.0,5.0,14.0,23.0,"['1', '2', '3', '4', '5', '6', '7', '8']",5693781.458333333,14187.708333333334,401.5,27,216,1980/08,41,YUE FAI COURT,漁暉苑,True,6.0,1320.0,POINT Z (22.2499061 114.156947 0),22.2499061,114.156947
137,"YAT FAI HSE(Block B,Phase 1,YUE FAI COURT),45 YUE KWONG RD|漁暉苑,1期,B座(日暉閣),45 漁光道",HA,4772736.0,12429.0,384.0,5280768.0,13237.0,384.0,5945088.0,15482.0,419.0,6.0,14.0,23.0,"['1', '2', '3', '4', '5', '6', '7', '8']",5539880.0,13816.458333333334,401.5,28,224,1980/04,41,YUE FAI COURT,漁暉苑,True,6.0,1320.0,POINT Z (22.2486357 114.1566154 0),22.248635699999998,114.1566154
138,"TIN FAI HSE(Block F,Phase 2,YUE FAI COURT),45 YUE KWONG RD|漁暉苑,2期,F座(天暉閣),45 漁光道",HA,5255424.0,13045.0,384.0,5352960.0,12971.0,384.0,5896168.0,14803.0,419.0,5.0,14.0,22.0,"['1', '2', '3', '4', '5', '6', '7', '8']",5542413.416666667,13819.083333333334,401.5,28,224,1981/03,40,YUE FAI COURT,漁暉苑,True,6.0,1320.0,POINT Z (22.2505287 114.1566386 0),22.250528699999997,114.1566386
139,"BROADVIEW COURT(Block 4),SHUM WAN RD|雅濤閣4座,深灣道",HA,4954280.0,10942.0,422.0,5064422.0,11608.0,422.0,7667753.0,13531.0,591.0,7.0,20.0,33.0,"['A', 'B', 'C', 'D', 'E', 'F', 'G', 'H', 'J', 'K']",6519184.544444445,12418.42962962963,527.2,37,370,2001/07,20,BROADVIEW COURT,雅濤閣,True,4.0,1510.0,POINT Z (22.2423903 114.1659742 0),22.2423903,114.16597420000001
140,"ON FAI HSE(Block D,Phase 1,YUE FAI COURT),45 YUE KWONG RD|漁暉苑,1期,D座(安暉閣),45 漁光道",HA,5053056.0,12482.0,384.0,5260032.0,12823.0,384.0,6029829.0,14751.0,419.0,6.0,14.0,23.0,"['1', '2', '3', '4', '5', '6', '7', '8']",5456135.708333333,13607.416666666666,401.5,26,208,1980/08,41,YUE FAI COURT,漁暉苑,True,6.0,1320.0,POINT Z (22.2499061 114.156947 0),22.2499061,114.156947
141,"KINGSTON MANSION,HUNG SHING ST|金利豐大廈,洪聖街",HA,7808221.000000001,14171.0,551.0,8091986.0,14686.0,551.0,8403852.0,15252.0,551.0,8.0,16.0,22.0,"['A', 'B']",8147728.833333333,14787.166666666666,551.0,20,40,9999,-7978,blank,,False,,,POINT Z (22.2439014 114.1563599 0),22.2439014,114.15635990000001
142,"TIN WAN COURT,TIN WAN ST|田灣畔,田灣街",HA,5479312.869037249,12208.0,423.0,5688867.369544679,12705.0,423.0,7979504.985156867,13437.0,561.0,7.0,16.0,23.0,"['A', 'B', 'C', 'D']",6597680.798206699,12933.833333333334,492.0,24,96,9999,-7978,blank,,False,,,POINT Z (22.2499634 114.1492768 0),22.2499634,114.1492768
143,"SHAM WAN TOWERS(Block 2),AP LEI CHAU DR|深灣軒2座,鴨利洲徑",HA,7907676.0,16257.0,476.0,8377600.000000001,17173.0,476.0,22964340.0,23433.0,980.0,13.0,29.0,45.0,"['A', 'AB', 'B', 'C', 'D', 'E', 'F', 'G', 'H']",10326057.00925926,18554.578703703704,564.7777777777778,43,387,2004/04,17,SHAM WAN TOWERS,深灣軒,True,3.0,1127.0,POINT Z (22.2438379 114.1588448 0),22.2438379,114.15884479999998
144,"SHAM WAN TOWERS(Block 1),AP LEI CHAU DR|深灣軒1座,鴨利洲徑",HA,7222400.0,14800.0,483.0,7958580.0,16242.0,483.0,11704755.0,19868.0,591.0,13.0,29.0,45.0,"['A', 'B', 'C', 'D', 'E', 'F', 'G', 'H']",8853724.041666666,17664.125,501.125,43,344,2004/04,17,SHAM WAN TOWERS,深灣軒,True,3.0,1127.0,POINT Z (22.243799 114.1588541 0),22.243799,114.1588541
145,"SHAM WAN TOWERS(Block 3),AP LEI CHAU DR|深灣軒3座,鴨利洲徑",HA,8495861.0,16433.0,502.0,8755530.0,16870.0,502.0,24048759.0,23371.0,1029.0,14.0,30.0,46.0,"['A', 'AB', 'B', 'C', 'D', 'E', 'F', 'G', 'H']",11647398.444444442,18824.55555555556,606.3333333333334,44,396,2004/03,17,SHAM WAN TOWERS,深灣軒,True,3.0,1127.0,POINT Z (22.243799 114.1588541 0),22.243799,114.1588541
146,"BROADVIEW COURT(Block 1),SHUM WAN RD|雅濤閣1座,深灣道",HA,5399360.0,11488.0,422.0,5324374.0,11903.0,422.0,8432064.0,14639.0,591.0,7.0,20.0,32.0,"['A', 'B', 'C', 'D', 'E', 'F', 'G', 'H', 'J', 'K']",6916464.766666667,13117.4,527.2,38,380,2001/07,20,BROADVIEW COURT,雅濤閣,True,4.0,1510.0,POINT Z (22.2431797 114.164697 0),22.2431797,114.164697
147,"MEI FAI HSE(Block C,Phase 1,YUE FAI COURT),45 YUE KWONG RD|漁暉苑,1期,C座(美暉閣),45 漁光道",HA,4918439.873702931,12100.0,384.0,5063147.691474687,12307.0,384.0,5918794.0,14126.0,419.0,5.0,14.0,23.0,"['1', '2', '3', '4', '5', '6', '7', '8']",5380078.272576674,12879.75,401.5,27,216,1980/08,41,YUE FAI COURT,漁暉苑,True,6.0,1320.0,POINT Z (22.2499061 114.156947 0),22.2499061,114.156947
148,"BROADVIEW COURT(Block 3),SHUM WAN RD|雅濤閣3座,深灣道",HA,5299054.0,10475.0,422.0,5514274.0,11120.0,422.0,7907903.999999999,13968.0,591.0,7.0,20.0,33.0,"['A', 'B', 'C', 'D', 'E', 'F', 'G', 'H', 'J', 'K']",6562810.566666667,12520.833333333334,527.2,39,390,2001/07,20,BROADVIEW COURT,雅濤閣,True,4.0,1510.0,POINT Z (22.2427721 114.1656259 0),22.242772100000003,114.16562590000001
149,"OCEAN COURT(Block 2),ABERDEEN PRAYA RD|逸港居2座,香港仔海傍道",HA,4722938.66343381,9553.0,431.0,4912275.945632905,9981.0,431.0,7840152.364380864,12511.0,592.0,8.0,18.0,27.0,"['A', 'B', 'C', 'D', 'E']",6087237.781816934,10885.733333333334,527.6,25,125,1999/12,22,OCEAN COURT,逸港居,True,3.0,418.0,POINT Z (22.2473548 114.1592164 0),22.2473548,114.1592164
150,"LEE FAT MANSION,MAIN ST AP LEI CHAU|利發大廈,鴨利洲大街",HA,5487292.207830287,12863.0,401.0,5590954.806485559,13106.0,401.0,5858644.792070418,13802.0,403.0,5.0,10.0,17.0,"['A', 'B']",5664144.9687074,13311.0,402.0,18,36,1982/06,39,blank,,False,,,POINT Z (22.2440186 114.1550594 0),22.2440186,114.1550594
151,"OCEAN COURT(Block 3),ABERDEEN PRAYA RD|逸港居3座,香港仔海傍道",HA,4905642.0,10569.0,431.0,5117694.0,11221.0,431.0,7400000.0,12500.0,592.0,8.0,18.0,27.0,"['A', 'B', 'C', 'D', 'E', 'F']",6412129.944444444,11724.611111111111,547.1666666666666,28,168,1999/12,22,OCEAN COURT,逸港居,True,3.0,418.0,POINT Z (22.2474854 114.159495 0),22.2474854,114.15949499999999
152,"OCEAN COURT(Block 1),ABERDEEN PRAYA RD|逸港居1座,香港仔海傍道",HA,4541792.251009434,8160.0,431.0,4728807.226051,8496.0,431.0,6918025.062268421,11290.0,592.0,8.0,17.0,26.0,"['A', 'B', 'C', 'D', 'E']",5745399.8173249075,9378.466666666667,516.0,25,125,1999/12,22,OCEAN COURT,逸港居,True,3.0,418.0,POINT Z (22.2472388 114.1588448 0),22.2472388,114.15884479999998
153,"BROADVIEW COURT(Block 2),SHUM WAN RD|雅濤閣2座,深灣道",HA,5192288.0,10354.0,422.0,5209010.0,10694.0,422.0,7769088.0,13552.0,591.0,7.0,20.0,32.0,"['A', 'B', 'C', 'D', 'E', 'F', 'G', 'H', 'J', 'K']",6179105.633333333,11783.766666666668,527.2,37,370,2001/07,20,BROADVIEW COURT,雅濤閣,True,4.0,1510.0,POINT Z (22.2429469 114.1650685 0),22.2429469,114.1650685
154,8 PING LAN ST|8 平瀾街,HA,6085948.0,19382.0,314.0,6085948.0,19382.0,314.0,6412194.0,20421.0,314.0,2.0,3.0,4.0,['whole floor'],6194696.666666667,19728.333333333332,314.0,5,5,1964/10,57,blank,,False,,,POINT Z (22.2447677 114.1568694 0),22.2447677,114.15686940000002
155,"HUNG FUK COURT(Block B),TIN WAN NEW ST|鴻褔苑B座,田灣新街",HA,4911933.0,8519.0,405.0,5123794.0,8479.0,405.0,5743080.0,9684.0,645.0,8.0,19.0,29.0,"['1', '10', '2', '3', '4', '5', '6', '8', '9']",5339722.800000001,9018.533333333333,509.6666666666667,31,279,1997/11,24,HUNG FUK COURT,鴻褔苑,True,2.0,549.0,POINT Z (22.251137 114.150695 0),22.251137,114.150695
156,"MAN KING BLDG,HING WO ST|萬景樓,興和街",HA,5631600.0,10830.0,520.0,5760560.0,11078.0,520.0,5888480.0,11324.0,584.0,8.0,13.0,18.0,"['A', 'B', 'C']",5465140.026025775,10322.166666666666,537.2222222222222,17,51,1974/06,47,blank,,False,,,POINT Z (22.2498335 114.1478834 0),22.249833499999998,114.1478834
157,"JADEWATER,ABERDEEN MAIN RD|南灣御園,香港仔大道",HA,7523824.0,14404.0,496.0,7943936.000000001,14967.0,496.0,11354910.0,16338.0,695.0,12.0,26.0,38.0,"['A', 'B', 'C', 'D', 'E']",9241627.200000001,15624.133333333333,591.0,36,180,2008/04,13,blank,,False,,,POINT Z (22.2484894 114.1523025 0),22.248489399999997,114.15230249999999
158,"LEE FAT MANSION,ABERDEEN MAIN RD|利發大廈,香港仔大道",HA,,,280.0,,,280.0,,,354.0,3.0,4.0,5.0,"['A', 'B', 'C']",,,329.3333333333333,3,9,1971/05,50,blank,,False,,,POINT Z (22.250331 114.153841 0),22.250331,114.15384099999999
159,"SUN MING BLDG,SHAN MING ST|新明大樓,山明街",HA,6235696.0,16849.0,356.0,6270940.0,17109.0,356.0,10052000.0,17950.0,560.0,2.0,4.0,6.0,"['A', 'B', 'C', 'D', 'E', 'F']",7790402.611111111,17455.111111111113,445.8333333333333,7,42,1966/03,55,blank,,False,,,POINT Z (22.2443331 114.1573585 0),22.244333100000002,114.1573585
160,17 HUNG SHING ST|17 洪聖街,HA,,,279.0,,,279.0,,,378.0,3.0,4.0,6.0,"['B', 'C', 'D']",,,317.6666666666667,6,18,1968/03,53,blank,,False,,,POINT Z (22.2444566 114.1559128 0),22.244456600000003,114.1559128
161,"HUNG LAI HSE(Block A,HUNG FUK COURT),TIN WAN NEW ST|鴻褔苑,A座(鴻麗閣),田灣新街",HA,3535650.0,8653.0,405.0,3698055.0,8373.0,405.0,6020430.0,9644.0,645.0,10.0,20.0,29.0,"['1', '10', '2', '3', '4', '5', '6', '7', '8', '9']",4659082.966666666,9075.1,514.6,27,270,1997/11,24,HUNG FUK COURT,鴻褔苑,True,2.0,549.0,POINT Z (22.251137 114.150695 0),22.251137,114.150695
162,"TAI TAK HSE,KA WO ST|大德樓,嘉禾街",HA,,,288.0,2746685.5911339554,6861.0,288.0,,,310.0,2.0,3.0,4.0,"['2', '3', '4', '6']",2746685.5911339554,6861.0,306.75,5,20,1971/03,50,blank,,False,,,POINT Z (22.2498659 114.1483711 0),22.2498659,114.14837109999999
163,"TAI LOK HSE,SHEK PAI WAN RD|大樂樓,石排灣道",HA,,,307.0,,,307.0,,,380.0,3.0,4.0,5.0,"['1', '2', '3', '4', '5']",,,335.6666666666667,3,15,1971/03,50,blank,,False,,,POINT Z (22.2497206 114.1481853 0),22.2497206,114.1481853
164,81 MAIN ST AP LEI CHAU|81 鴨利洲大街,HA,,,495.0,,,495.0,,,495.0,3.0,4.0,5.0,['whole floor'],,,495.0,2,2,1965/11,56,blank,,False,,,POINT Z (22.2439202 114.1552265 0),22.243920199999998,114.15522649999998
165,"LARVOTTO(Block 3),AP LEI CHAU PRAYA RD|南灣3座,鴨利洲海旁道",HA,17443573.332183182,17680.0,764.0,17863876.626273114,18106.0,764.0,39943918.0,25249.0,1582.0,11.0,22.0,31.0,"['A', 'B', 'C']",31847998.779558603,22553.222222222223,1301.6666666666667,26,78,2010/12,11,LARVOTTO,南灣,True,9.0,755.0,POINT Z (22.2401736 114.1596309 0),22.240173600000002,114.15963090000001
166,"LARVOTTO(Block 1),AP LEI CHAU PRAYA RD|南灣1座,鴨利洲海旁道",HA,49950000.0,26640.0,1875.0,52492500.0,27996.0,1875.0,54976875.0,29321.0,2020.0,11.0,22.0,32.0,"['A', 'B']",52473125.0,27985.666666666668,1947.5,27,54,2010/12,11,LARVOTTO,南灣,True,9.0,755.0,POINT Z (22.2401736 114.1596309 0),22.240173600000002,114.15963090000001
167,"LARVOTTO(Block 5),AP LEI CHAU PRAYA RD|南灣5座,鴨利洲海旁道",HA,16035595.999999998,19902.0,764.0,16747644.0,20977.0,764.0,27870378.0,23579.0,1182.0,11.0,22.0,32.0,"['A', 'B', 'C']",22452617.555555556,21752.11111111111,1032.5555555555554,27,81,2010/12,11,LARVOTTO,南灣,True,9.0,755.0,POINT Z (22.2401736 114.1596309 0),22.240173600000002,114.15963090000001
168,"LARVOTTO(Block 6),AP LEI CHAU PRAYA RD|南灣6座,鴨利洲海旁道",HA,16515387.999999998,20262.0,764.0,17291612.0,21344.0,764.0,26357752.0,23549.0,1189.0,11.0,22.0,32.0,"['A', 'B', 'C']",22750384.666666668,21921.44444444444,1042.111111111111,27,81,2010/12,11,LARVOTTO,南灣,True,9.0,755.0,POINT Z (22.2401736 114.1596309 0),22.240173600000002,114.15963090000001
169,"LARVOTTO(Block 7),AP LEI CHAU PRAYA RD|南灣7座,鴨利洲海旁道",HA,16374879.000000002,20913.0,783.0,16694343.0,21321.0,783.0,34521390.0,25070.0,1377.0,11.0,22.0,32.0,"['A', 'B', 'C']",25747196.666666668,22838.44444444444,1116.3333333333333,27,81,2010/12,11,LARVOTTO,南灣,True,9.0,755.0,POINT Z (22.2401736 114.1596309 0),22.240173600000002,114.15963090000001
170,"LARVOTTO(Block 10),AP LEI CHAU PRAYA RD|南灣10座,鴨利洲海旁道",HA,8588118.0,18589.0,462.0,8954420.0,19340.0,462.0,24608367.0,22977.0,1071.0,11.0,22.0,32.0,"['A', 'B', 'C', 'D']",16191190.833333334,20752.083333333332,762.1666666666666,27,108,2010/12,11,LARVOTTO,南灣,True,9.0,755.0,POINT Z (22.2410147 114.1589145 0),22.2410147,114.15891450000001
171,"LARVOTTO(Block 8),AP LEI CHAU PRAYA RD|南灣8座,鴨利洲海旁道",HA,11575512.0,19422.0,596.0,12215020.0,20495.0,596.0,23047216.0,22191.0,1054.0,12.0,22.0,32.0,"['A', 'B', 'C', 'D']",17098390.333333332,20722.583333333332,824.5,28,112,2010/12,11,LARVOTTO,南灣,True,9.0,755.0,POINT Z (22.240702 114.1592396 0),22.240702,114.15923959999999
172,"LARVOTTO(Block 9),AP LEI CHAU PRAYA RD|南灣9座,鴨利洲海旁道",HA,8753478.0,18906.0,463.0,9095635.0,19645.0,463.0,22073100.0,21728.0,1061.0,11.0,22.0,32.0,"['A', 'B', 'C', 'D']",16042508.75,20264.5,793.5,27,108,2010/12,11,LARVOTTO,南灣,True,9.0,755.0,POINT Z (22.240862 114.1590538 0),22.240862,114.1590538
173,"LARVOTTO(Block 2),AP LEI CHAU PRAYA RD|南灣2座,鴨利洲海旁道",HA,,,1875.0,,,1875.0,,,1923.0,11.0,22.0,31.0,"['A', 'B']",,,1899.0,26,52,2010/12,11,LARVOTTO,南灣,True,9.0,755.0,POINT Z (22.2401736 114.1596309 0),22.240173600000002,114.15963090000001
174,"TUNG HING HSE(LEI TUNG EST),LEI TUNG EST RD|利東村(東興樓),利東村道",HA,1855742.0,6409.0,287.0,1923187.0000000002,6638.0,287.0,2151492.0,7318.0,296.0,10.0,19.0,29.0,"['1', '16', '17', '23', '24', '25', '26', '29', '3', '30', '31', '32', '36', '5', '6', '7', '9']",1983496.9607843135,6753.176470588235,293.70588235294116,29,493,1987/06,34,LEI TUNG EST,利東村,True,8.0,2770.0,POINT Z (22.24059 114.155296 0),22.24059,114.15529599999999
175,132 MAIN ST AP LEI CHAU|132 鴨利洲大街,HA,3152386.0928383092,10751.0,277.0,3118079.5936417617,10634.0,277.0,4978877.0,12241.0,443.0,4.0,5.0,6.0,"['A', 'B', 'C', 'E', 'F']",4161511.6453227117,11310.066666666666,364.06666666666666,5,25,1966/06,55,blank,,False,,,POINT Z (22.2439202 114.1552265 0),22.243920199999998,114.15522649999998
176,"TUNG ON HSE(LEI TUNG EST),LEI TUNG EST RD|利東村(東安樓),利東村道",HA,2985516.0,7836.0,381.0,3096768.0,8128.0,381.0,4186560.0,8612.0,490.0,12.0,21.0,30.0,"['10', '13', '14', '15', '18', '19', '2', '22', '4', '5']",3486766.648148149,8231.592592592593,413.7,25,250,1988/06,33,LEI TUNG EST,利東村,True,8.0,2770.0,POINT Z (22.2407409 114.1570547 0),22.2407409,114.1570547
177,"TUNG SING HSE(LEI TUNG EST),LEI TUNG EST RD|利東村(東昇樓),利東村道",HA,2782824.0,7304.0,381.0,2990850.0,7850.0,381.0,4112080.0,8671.0,490.0,9.0,20.0,30.0,"['11', '12', '13', '14', '15', '17', '18', '22', '23', '24', '5', '8', '9']",3289272.5128205125,8106.974358974359,406.15384615384613,32,416,1988/06,33,LEI TUNG EST,利東村,True,8.0,2770.0,POINT Z (22.241485 114.1566154 0),22.241485,114.1566154
178,"MARINELLA(Block 6),WELFARE RD|深灣9號6座,惠福道",HA,56958538.0,33446.0,1703.0,61507250.99999999,35611.0,1703.0,74771195.48139904,38620.0,1858.0,8.0,19.0,29.0,"['A', 'B']",65815971.12191113,35882.0,1780.5,27,54,2012/04,9,MARINELLA,深灣9號,True,7.0,437.0,POINT Z (22.2460193 114.1636832 0),22.2460193,114.1636832
179,"MARINELLA(Block 8),WELFARE RD|深灣9號8座,惠福道",HA,31431050.999999996,28393.0,1107.0,33453540.000000004,30220.0,1107.0,44959611.0,33477.0,1343.0,8.0,19.0,29.0,"['A', 'B', 'C']",38764548.666666664,31202.88888888889,1240.0,27,81,2012/04,9,MARINELLA,深灣9號,True,7.0,437.0,POINT Z (22.2460193 114.1636832 0),22.2460193,114.1636832
180,"MARINELLA(Block 9),WELFARE RD|深灣9號9座,惠福道",HA,21999975.693786494,21616.0,596.0,23263020.190270074,22857.0,596.0,49792615.31521301,30664.0,1534.0,8.0,18.0,28.0,"['A', 'B', 'C']",35876167.72683203,26703.333333333332,1126.3333333333333,26,78,2012/04,9,MARINELLA,深灣9號,True,7.0,437.0,POINT Z (22.2460193 114.1636832 0),22.2460193,114.1636832
181,"MARINELLA(Block 3),WELFARE RD|深灣9號3座,惠福道",HA,31189400.0,27524.0,1100.0,32987900.0,29989.0,1100.0,44228620.0,32257.0,1388.0,8.0,19.0,29.0,"['A', 'B', 'C']",37786280.44444444,30147.44444444444,1252.3333333333333,27,81,2012/04,9,MARINELLA,深灣9號,True,7.0,437.0,POINT Z (22.2460193 114.1636832 0),22.2460193,114.1636832
182,"MARINELLA(Block 1),WELFARE RD|深灣9號1座,惠福道",HA,41069103.14688824,25280.0,1421.0,43454760.31243652,27213.0,1421.0,99658854.91617721,30458.0,2000.0,8.0,18.0,28.0,"['A', 'B']",68212938.10332139,28053.833333333332,1710.5,26,52,2012/04,9,MARINELLA,深灣9號,True,7.0,437.0,POINT Z (22.2460193 114.1636832 0),22.2460193,114.1636832
183,"MARINELLA(Block 2),WELFARE RD|深灣9號2座,惠福道",HA,48579000.67039305,30741.0,1121.0,52254599.880755365,33133.0,1121.0,61305958.85736828,38266.0,1317.0,8.0,19.0,29.0,"['A', 'B', 'C']",54196729.52758347,34136.88888888888,1232.3333333333333,27,81,2012/04,9,MARINELLA,深灣9號,True,7.0,437.0,POINT Z (22.2460193 114.1636832 0),22.2460193,114.1636832
184,174-176 ABERDEEN MAIN RD|174-176 香港仔大道,HA,3096647.161624961,8291.0,283.0,3108330.3617123533,8220.0,283.0,3720637.978658281,10449.0,350.0,2.0,3.0,4.0,"['A', 'B', 'D']",3401998.9595654663,9337.333333333334,326.0,5,15,1968/01,53,blank,,False,,,POINT Z (22.2485078 114.155716 0),22.248507800000002,114.155716
185,"TUNG PING HSE(LEI TUNG EST),LEI TUNG EST RD|利東村(東平樓),利東村道",HA,2755773.0,7233.0,381.0,2887980.0,7580.0,381.0,4242420.0,8658.0,490.0,9.0,19.0,28.0,"['1', '13', '15', '23', '4', '5', '6']",3451438.285714286,8029.666666666667,427.7142857142857,27,189,1987/10,34,LEI TUNG EST,利東村,True,8.0,2770.0,POINT Z (22.2419349 114.1576372 0),22.2419349,114.1576372
186,"TUNG YAT HSE(LEI TUNG EST),LEI TUNG EST RD|利東村(東逸樓),利東村道",HA,2806446.0,7366.0,381.0,3186303.0,8363.0,381.0,4419800.0,9020.0,490.0,9.0,18.0,26.0,"['1', '15', '18', '19', '23', '3', '4', '5', '6', '7', '9']",3385315.96969697,8434.78787878788,400.8181818181818,25,275,1988/07,33,LEI TUNG EST,利東村,True,8.0,2770.0,POINT Z (22.2406848 114.157823 0),22.2406848,114.157823
187,"TUNG CHEONG HSE(LEI TUNG EST),LEI TUNG EST RD|利東村(東昌樓),利東村道",HA,2874264.0,7537.0,381.0,3014853.0,7913.0,381.0,4145400.0000000005,8460.0,490.0,9.0,19.0,29.0,"['1', '11', '12', '13', '17', '19', '21', '22', '24', '6']",3305542.3666666667,7987.5,413.7,29,290,1987/01,34,LEI TUNG EST,利東村,True,8.0,2770.0,POINT Z (22.2416169 114.1540655 0),22.2416169,114.1540655
188,"TUNG YIP HSE(LEI TUNG EST),LEI TUNG EST RD|利東村(東業樓),利東村道",HA,2702814.0,7094.0,381.0,2852166.0,7486.0,381.0,4262020.0,8927.0,490.0,10.0,20.0,30.0,"['1', '10', '14', '16', '18', '19', '21', '22', '24', '4', '7', '8', '9']",3207311.282051282,8054.307692307692,397.7692307692308,28,364,1987/01,34,LEI TUNG EST,利東村,True,8.0,2770.0,POINT Z (22.2411576 114.1543615 0),22.2411576,114.1543615
189,"MARINELLA,WELFARE RD|深灣9號,惠福道",HA,126210825.0,48015.0,2565.0,126210825.0,48015.0,2565.0,218499402.80733836,57003.0,3622.0,0.0,0.0,0.0,"['1', '10', '11', '12', '16', '18', '2', '3', '6', '8']",162578205.6791307,52659.555555555555,2944.1,1,10,2012/04,9,MARINELLA,深灣9號,True,7.0,437.0,POINT Z (22.2460193 114.1636832 0),22.2460193,114.1636832
190,"TUNG MAU HSE(LEI TUNG EST),LEI TUNG EST RD|利東村(東茂樓),利東村道",HA,1768494.0,6111.0,287.0,1828477.0,6371.0,287.0,2275266.0,7739.0,296.0,9.0,19.0,29.0,"['11', '13', '14', '15', '18', '19', '2', '20', '22', '24', '26', '3', '32', '34', '5', '7', '9']",2054663.9607843135,7053.411764705882,291.29411764705884,29,493,1987/06,34,LEI TUNG EST,利東村,True,8.0,2770.0,POINT Z (22.241631 114.1556865 0),22.241630999999998,114.1556865
191,"H. BONAIRE,MAIN ST AP LEI CHAU|倚南,鴨利洲大街",HA,7084800.0,20664.0,320.0,7561600.0,21965.0,320.0,16032437.999999998,26257.0,674.0,8.0,19.0,29.0,"['A', 'B', 'C', 'D']",11716108.083333334,23349.333333333332,502.75,27,108,2016/10,5,blank,,False,,,POINT Z (22.2442365 114.1556764 0),22.2442365,114.15567639999999
192,58 MAIN ST AP LEI CHAU|58 鴨利洲大街,HA,,,377.0,,,377.0,,,377.0,3.0,3.0,3.0,['whole floor'],,,377.0,1,1,1976/04,45,blank,,False,,,POINT Z (22.2439202 114.1552265 0),22.243920199999998,114.15522649999998
193,26 MAIN ST AP LEI CHAU|26 鴨利洲大街,HA,6424872.0,20204.0,318.0,6453174.0,20293.0,318.0,6511368.0,20476.0,318.0,2.0,3.0,4.0,['whole floor'],6463138.0,20324.333333333332,318.0,3,3,1964/10,57,blank,,False,,,POINT Z (22.2439202 114.1552265 0),22.243920199999998,114.15522649999998
194,31 TUNG SING RD|31 東勝道,HA,,,429.0,,,429.0,,,498.0,4.0,6.0,6.0,"['1', '3', '4', '5', '6']",,,468.0,4,20,1962/03,59,blank,,False,,,POINT Z (22.2488412 114.1552623 0),22.248841199999998,114.15526229999999
195,"SOUTH COAST,TANG FUNG ST|登峰南岸,登豐街",HA,4777764.0,19264.0,214.0,,,214.0,,,606.0,22.0,68.0,102.0,"['A', 'B', 'BC', 'C', 'D', 'E', 'EF', 'F']",8018825.946323767,21208.125,377.625,96,768,2016/11,5,blank,,False,,,POINT Z (22.2493987 114.1495351 0),22.2493987,114.14953510000001
196,210-210A ABERDEEN MAIN RD|210-210A 香港仔大道,HA,,,354.0,,,354.0,,,354.0,2.0,2.0,3.0,['B'],,,354.0,2,2,1971/10,50,blank,,False,,,POINT Z (22.2485078 114.155716 0),22.248507800000002,114.155716
197,4 TANG FUNG ST|4 登豐街,HA,,,564.0,,,564.0,,,564.0,4.0,4.0,4.0,['whole floor'],,,564.0,1,1,1958/04,63,blank,,False,,,POINT Z (22.2494513 114.1491161 0),22.2494513,114.14911609999999
198,"MARINA SOUTH(Block 1),AP LEI CHAU DR|南區．左岸1座,鴨利洲徑",HA,,,1787.0,,,1787.0,,,3657.0,21.0,67.0,102.0,"['A', 'AB', 'B']",,,2438.0,97,291,2016/06,5,MARINA SOUTH,南區．左岸,True,2.0,375.0,POINT Z (22.2430567 114.1589563 0),22.243056699999997,114.15895630000001
199,"MARINA SOUTH(Block 2),AP LEI CHAU DR|南區．左岸2座,鴨利洲徑",HA,59744403.0,27275.0,1787.0,73871459.0,28975.0,1787.0,139112059.2720567,41605.0,3694.0,8.0,18.0,28.0,"['A', 'AB', 'B']",95336968.03832114,33916.166666666664,2462.6666666666665,28,84,2016/06,5,MARINA SOUTH,南區．左岸,True,2.0,375.0,POINT Z (22.2430567 114.1589563 0),22.243056699999997,114.15895630000001
200,11 TUNG SING RD|11 東勝道,HA,,,598.0,,,598.0,,,598.0,2.0,2.0,2.0,['whole floor'],,,598.0,1,1,1953/07,68,blank,,False,,,POINT Z (22.2488412 114.1552623 0),22.248841199999998,114.15526229999999
201,18 WU PAK ST|18 湖北街,HA,8289276.508865691,13161.0,595.0,8308171.600064383,13191.0,595.0,8351000.473448082,13259.0,595.0,3.0,4.0,5.0,['whole floor'],8316149.527459386,13203.666666666666,595.0,3,3,1966/05,55,blank,,False,,,POINT Z (22.2481534 114.1548009 0),22.2481534,114.15480090000001
202,9 TUNG SING RD|9 東勝道,HA,,,598.0,,,598.0,,,598.0,2.0,2.0,3.0,['whole floor'],,,598.0,2,2,1953/07,68,blank,,False,,,POINT Z (22.2488412 114.1552623 0),22.248841199999998,114.15526229999999
203,69 MAIN ST AP LEI CHAU|69 鴨利洲大街,HA,,,821.0,,,821.0,,,821.0,5.0,5.0,5.0,['whole floor'],,,821.0,1,1,1963/04,58,blank,,False,,,POINT Z (22.2439202 114.1552265 0),22.243920199999998,114.15522649999998
204,16 WU PAK ST|16 湖北街,HA,,,595.0,,,595.0,,,595.0,5.0,5.0,5.0,['whole floor'],,,595.0,1,1,1966/05,55,blank,,False,,,POINT Z (22.2481534 114.1548009 0),22.2481534,114.15480090000001
205,106 ABERDEEN MAIN RD|106 香港仔大道,HA,,,377.0,,,377.0,,,377.0,3.0,4.0,4.0,['whole floor'],,,377.0,4,4,1985/03,36,blank,,False,,,POINT Z (22.2485078 114.155716 0),22.248507800000002,114.155716
206,"SOUTH WALK．AURA,TIN WAN ST|南津．迎岸,田灣街",HA,3646566.0,19294.0,183.0,3854780.0000000005,19870.0,183.0,6475010.0,27930.0,265.0,7.0,16.0,24.0,"['A', 'B', 'C', 'D', 'E', 'F']",5043853.166666667,23590.277777777777,214.05555555555557,23,138,2019/06,2,blank,,False,,,POINT Z (22.2495096 114.1492778 0),22.249509600000003,114.1492778
207,32 MAIN ST AP LEI CHAU|32 鴨利洲大街,HA,,,494.0,,,494.0,,,494.0,4.0,4.0,4.0,['whole floor'],,,494.0,1,1,1964/12,57,blank,,False,,,POINT Z (22.2439202 114.1552265 0),22.243920199999998,114.15522649999998
208,30 MAIN ST AP LEI CHAU|30 鴨利洲大街,HA,,,1943.0,,,1943.0,,,970.0,2.0,2.0,4.0,['whole floor'],,,1618.6666666666667,4,4,1964/12,57,blank,,False,,,POINT Z (22.2439202 114.1552265 0),22.243920199999998,114.15522649999998
209,124 MAIN ST AP LEI CHAU|124 鴨利洲大街,HA,,,513.0,,,513.0,,,513.0,5.0,5.0,5.0,['whole floor'],,,513.0,1,1,1975/08,46,blank,,False,,,POINT Z (22.2439202 114.1552265 0),22.243920199999998,114.15522649999998
210,126 MAIN ST AP LEI CHAU|126 鴨利洲大街,HA,,,513.0,,,513.0,,,513.0,1.0,2.0,3.0,['whole floor'],,,513.0,3,3,1975/08,46,blank,,False,,,POINT Z (22.2439202 114.1552265 0),22.243920199999998,114.15522649999998
211,120 MAIN ST AP LEI CHAU|120 鴨利洲大街,HA,,,512.0,,,512.0,,,512.0,2.0,2.0,2.0,['whole floor'],,,512.0,1,1,1967/04,54,blank,,False,,,POINT Z (22.2439202 114.1552265 0),22.243920199999998,114.15522649999998
