,final_address,district,lowZone_value,lowZone_npsf_min,lowZone_nfa_min,midZone_value,midZone_npsf_min,midZone_nfa_min,highZone_value,highZone_npsf_max,highZone_nfa_max,oneSixth_floor,middle_floor,fifthSixth_floor,unit_list,value_avg,npsf_avg,unitSize_avg,noStorey,noFlat,op_date,bldgAge,est_name_en,est_name_ch,est_orNot,est_bldgNo,est_flatNo,final_coords,lat,long
0,"ABBA HSE(Block B),ABERDEEN MAIN RD|福群大樓B座,香港仔大道",HA,4653690,14244,305,4866885,14837,305,7610850,16913,450,10,19,28,"['1', '2', '3', '4', '5', '6', '7', '8']",5781782.5,15783.54167,366.875,29,231,1983/03,38,ABBA HSE,福群大樓,TRUE,1,232,POINT Z (22.2483297 114.1525978 0),22.2483297,114.1525978
1,"YEE TSUI COURT(Block 16,Phase 2,SOUTH HORIZONS),16 SOUTH HORIZON DR|海怡半島,2期,16座(怡翠閣),16 海怡路",HA,8759375,14015,625,8838750,14142,625,16810078,18973,897,8,20,33,"['A', 'B', 'C', 'D', 'E', 'F', 'G', 'H']",12279537.67,15946.70833,760.875,40,320,1993/00,28,SOUTH HORIZONS,海怡半島,TRUE,0,0,POINT Z (22.2431304 114.1465931 0),22.2431304,114.1465931
2,"COBLE COURT,MAIN ST AP LEI CHAU|高寶閣,鴨利洲大街",HA,4282135,13981,265,4337785,14489,265,5889055,16754,395,6,13,20,"['A', 'B', 'C', 'D', 'E', 'F', 'G', 'H']",5261304.667,15180.625,348.875,23,184,1987/02,34,blank,,FALSE,,,POINT Z (22.2434521 114.1545021 0),22.2434521,114.1545021
3,"MEI WAH COURT(Block 22,Phase 3,SOUTH HORIZONS),22 SOUTH HORIZON DR|海怡半島,3期,22座(美華閣),22 海怡路",HA,8306610,14079,589,9331440,15816,589,17005184,18979,896,7,18,30,"['A', 'B', 'C', 'D', 'E', 'F', 'G', 'H']",12515941.83,16766.41667,739.75,36,288,1994/08,27,SOUTH HORIZONS,海怡半島,TRUE,0,0,POINT Z (22.2429446 114.1475257 0),22.2429446,114.1475257
4,"YEE FAI COURT(Block 13A,Phase 2,SOUTH HORIZONS),13A SOUTH HORIZON DR|海怡半島,2期,13A座(怡暉閣),13A 海怡路",HA,9603984,15187,624,9759486,15297,624,18681819,20827,897,8,20,33,"['A', 'B', 'C', 'D', 'E', 'F', 'G', 'H']",13785963.04,17846.08333,760.375,40,320,1993/07,28,SOUTH HORIZONS,海怡半島,TRUE,0,0,POINT Z (22.2432615 114.1457236 0),22.2432615,114.1457236
5,"CAMBRIDGE COURT(Block 33A,Phase 4,SOUTH HORIZONS),33A YI NAM RD|海怡半島,4期,33A座(御翠居),33A 怡南路",HA,7717472,14672,526,8194554,15203,526,10629080,16660,656,10,18,26,"['A', 'B', 'C', 'D', 'E', 'F', 'G', 'H']",9391379.924,15681.90476,591.25,25,200,1995/03,26,SOUTH HORIZONS,海怡半島,TRUE,0,0,POINT Z (22.2429142 114.1491839 0),22.2429142,114.1491839
6,"KIN FAI BLDG,ABERDEEN MAIN RD|建輝大廈,香港仔大道",HA,4285960,14203,280,4240600,14334,280,5104260,16204,315,7,13,19,"['A', 'B', 'C', 'D', 'E', 'F']",4573086.778,15397.26667,291.6666667,19,114,1979/11,42,blank,,FALSE,,,POINT Z (22.2478893 114.1587287 0),22.2478893,114.1587287
7,"YEE KING COURT(Block 8,Phase 2,SOUTH HORIZONS),8 SOUTH HORIZON DR|海怡半島,2期,8座(怡景閣),8 海怡路",HA,10083513,15537,648,10512504,16223,648,32956583,21869,1507,8,21,34,"['A', 'AB', 'B', 'C', 'D', 'E', 'F', 'G', 'H']",14490926.41,17443.7037,813.8888889,41,369,1992/10,29,SOUTH HORIZONS,海怡半島,TRUE,0,0,POINT Z (22.2443926 114.1450302 0),22.2443926,114.1450302
8,"YEE LOK COURT(Block 13,Phase 2,SOUTH HORIZONS),13 SOUTH HORIZON DR|海怡半島,2期,13座(怡樂閣),13 海怡路",HA,8741958,13638,631,8938745,13945,631,13255859,17419,763,6,17,28,"['A', 'B', 'C', 'D', 'E', 'F', 'G', 'H']",10491286.13,15644.79167,668.625,33,264,1992/10,29,SOUTH HORIZONS,海怡半島,TRUE,0,0,POINT Z (22.2436581 114.1456689 0),22.2436581,114.1456689
9,"ABBA HSE(Block A),ABERDEEN MAIN RD|福群大樓A座,香港仔大道",HA,4719265,13839,305,4914160,14747,305,7053695,16988,450,10,19,28,"['1', '2', '3', '4', '5', '6', '7', '8']",5960745,15631.5,383.125,29,232,1983/03,38,ABBA HSE,福群大樓,TRUE,1,232,POINT Z (22.2482423 114.1528764 0),22.2482423,114.1528764
10,"ALBERT HSE,CHENGTU RD|添喜大廈,成都道",HA,3436064.689,4552,390,3944831.736,5226,390,5220094.77,12890,780,7,15,22,"['A', 'AC', 'B', 'C', 'D']",4250325.961,7334.833333,468,21,105,1973/08,48,blank,,FALSE,,,POINT Z (22.248646 114.154863 0),22.248646,114.154863
11,"MEI HIN COURT(Block 23,Phase 3,SOUTH HORIZONS),23 SOUTH HORIZON DR|海怡半島,3期,23座(美軒閣),23 海怡路",HA,8928062,15158,589,9161520,15528,589,14878710,18810,791,7,20,33,"['A', 'B', 'C', 'D', 'E', 'F', 'G', 'H']",11388816.96,16451.5,687.875,39,312,1994/08,27,SOUTH HORIZONS,海怡半島,TRUE,0,0,POINT Z (22.2420243 114.1486033 0),22.2420243,114.1486033
12,"KONG FU COURT(Block E,ABERDEEN CTR),NAM NING ST|香港仔中心,E座(港富閣),南寧街",HA,5846402,12682,450,6261750,13895,450,8062187,14719,553,6,15,24,"['1', '2', '3', '4', '5', '6']",6814607.056,13956.33333,488,27,162,1982/01,39,ABERDEEN CTR,香港仔中心,TRUE,0,0,POINT Z (22.249187 114.154169 0),22.249187,114.154169
13,"WAI KING COURT(Block 30,Phase 4,SOUTH HORIZONS),30 YI NAM RD|海怡半島,4期,30座(慧景閣),30 怡南路",HA,7461696,14025,528,7747344,14581,528,10853128,15963,7254,8,17,26,"['A', 'A-H', 'B', 'C', 'D', 'E', 'F', 'G', 'H']",9081315.458,15018.04167,1343.333333,27,243,1994/12,27,SOUTH HORIZONS,海怡半島,TRUE,0,0,POINT Z (22.243881 114.149743 0),22.243881,114.149743
14,"SHUN FUNG COURT,KA WO ST|順豐大廈,嘉禾街",HA,,,327,4443061.686,13085,327,4491278.328,13227,327,5,12,21,"['A', 'B']",4467170.007,13156,327,21,42,1994/11,27,blank,,FALSE,,,POINT Z (22.2497168 114.1486429 0),22.2497168,114.1486429
15,"ON FAI BLDG,OLD MAIN ST ABERDEEN|安輝大廈,香港仔舊大街",HA,4149801.411,12983,301,4136986.63,13201,301,6318510,14230,467,7,12,16,"['A', 'B', 'C', 'D', 'E', 'F']",5641109.52,13416.22222,419.1666667,16,96,1977/04,44,blank,,FALSE,,,POINT Z (22.2482727 114.1561509 0),22.2482727,114.1561509
16,"HOI YAT COURT(Block 6,Phase 1,SOUTH HORIZONS),6 SOUTH HORIZON DR|海怡半島,1期,6座(海逸閣),6 海怡路",HA,8331682,13726,600,8775399,14457,600,12729892,16684,763,7,18,29,"['A', 'B', 'C', 'D', 'E', 'F', 'G', 'H']",10313943.63,15287.625,674,35,280,1992/03,29,SOUTH HORIZONS,海怡半島,TRUE,0,0,POINT Z (22.2446038 114.1462959 0),22.2446038,114.1462959
17,"FENTON COURT(Block 27,Phase 4,SOUTH HORIZONS),27 YI NAM RD|海怡半島,4期,27座(御雅居),27 怡南路",HA,7205144,13672,526,7521344,14272,526,20461896,19432,1053,7,18,29,"['A', 'A & B', 'B', 'C', 'D', 'E', 'F', 'G', 'H']",11290712.52,16262.2963,682.3333333,35,315,1995/07,26,SOUTH HORIZONS,海怡半島,TRUE,0,0,POINT Z (22.2429245 114.1500896 0),22.2429245,114.1500896
18,"KONG HING COURT(Block J,ABERDEEN CTR),NAM NING ST|香港仔中心,J座(港興閣),南寧街",HA,6117300,13547,450,6277050,13949,450,8456476,15292,553,6,15,24,"['1', '2', '3', '4', '5', '6']",6991683.778,14299.38889,488,27,162,1981/12,40,ABERDEEN CTR,香港仔中心,TRUE,0,0,POINT Z (22.2491936 114.1537589 0),22.2491936,114.1537589
19,"MAY COURT,OLD MAIN ST ABERDEEN|美倫閣,香港仔舊大街",HA,4559256,14613,312,4680000,15000,312,5192928,16644,312,7,15,22,"['A', 'B']",4904536,15719.66667,312,23,46,1996/11,25,blank,,FALSE,,,POINT Z (22.2475454 114.1561441 0),22.2475454,114.1561441
20,"GRANDVIEW GARDEN(Block 1),NAM LONG SHAN RD|金寶花園1座,南朗山道",HA,4756215,14545,307,5137010,15193,307,5845630,17775,370,6,14,21,"['A', 'B', 'C', 'D', 'E', 'F']",5296472,16073.05556,330.5,24,144,1985/03,36,GRANDVIEW GARDEN,金寶花園,TRUE,0,0,POINT Z (22.244926 114.16684 0),22.244926,114.16684
21,"KONG KAI BLDG,ABERDEEN MAIN RD|港基大廈,香港仔大道",HA,4813090,13558,355,4914620,13844,355,5172350,14570,355,6,13,20,"['A', 'B']",4986921.667,14047.66667,355,21,42,1990/01,31,blank,,FALSE,,,POINT Z (22.2496212 114.1554774 0),22.2496212,114.1554774
22,"EVER SECURE MANSION,KA WO ST|永穩大廈,嘉禾街",HA,4109286.515,11992,330,4199751.128,12256,330,4310775.88,12580,330,6,11,16,"['A', 'B']",4209460.082,12284.33333,330,15,30,1986/01,35,blank,,FALSE,,,POINT Z (22.2498077 114.148464 0),22.2498077,114.148464
23,"YEE WAN COURT(Block 15,Phase 2,SOUTH HORIZONS),15 SOUTH HORIZON DR|海怡半島,2期,15座(怡韻閣),15 海怡路",HA,8954375,14293,625,9308750,14894,625,18165147,20251,897,8,20,33,"['A', 'B', 'C', 'D', 'E', 'F', 'G', 'H']",13054051.67,16882.04167,759.5,40,320,1993/07,28,SOUTH HORIZONS,海怡半島,TRUE,0,0,POINT Z (22.243179 114.146127 0),22.243179,114.146127
24,"PAK KING COURT(Block 31,Phase 4,SOUTH HORIZONS),31 YI NAM RD|海怡半島,4期,31座(柏景閣),31 怡南路",HA,7593332,14043,523,7941956,14527,523,10969924,16156,688,8,16,25,"['A', 'B', 'C', 'D', 'E', 'F', 'G', 'H']",9124522.083,15200.45833,600.125,26,208,1994/12,27,SOUTH HORIZONS,海怡半島,TRUE,0,0,POINT Z (22.243803 114.150128 0),22.243803,114.150128
25,"MARINA HABITAT(Block 2),YUET HOI ST|悅海華庭2座,悅海街",HA,6211418,14141,422,6410978,14983,422,9958905,16461,605,10,24,37,"['A', 'B', 'C', 'D', 'E', 'F', 'G', 'H']",7659149.417,15482.45833,495.25,42,336,1998/05,23,MARINA HABITAT,悅海華庭,TRUE,0,0,POINT Z (22.244175 114.154286 0),22.244175,114.154286
26,"MEI CHUN COURT(Block 21,Phase 3,SOUTH HORIZONS),21 SOUTH HORIZON DR|海怡半島,3期,21座(美浚閣),21 海怡路",HA,9339608,15592,589,9440000,16000,589,16907538,19083,896,7,18,30,"['A', 'B', 'C', 'D', 'E', 'F', 'G', 'H']",12738615.33,17052.875,740.375,36,288,1993/12,28,SOUTH HORIZONS,海怡半島,TRUE,0,0,POINT Z (22.2420248 114.1477673 0),22.2420248,114.1477673
27,"YEE MEI COURT(Block 7,Phase 2,SOUTH HORIZONS),7 SOUTH HORIZON DR|海怡半島,2期,7座(怡美閣),7 海怡路",HA,9501576,13908,644,9687046,14602,644,12738360,16872,760,8,22,35,"['A', 'B', 'C', 'D', 'E', 'F', 'G', 'H']",11262357.17,15447.70833,728.625,42,336,1992/10,29,SOUTH HORIZONS,海怡半島,TRUE,0,0,POINT Z (22.2446716 114.145352 0),22.2446716,114.145352
28,"EATON COURT(Block 26,Phase 4,SOUTH HORIZONS),26 YI NAM RD|海怡半島,4期,26座(御盈居),26 怡南路",HA,7505534,14242,526,7887082,14966,526,13316644,17803,748,7,18,29,"['A', 'B', 'C', 'D', 'E', 'F', 'G', 'H']",10190555,15931.625,636,35,280,1995/03,26,SOUTH HORIZONS,海怡半島,TRUE,0,0,POINT Z (22.2427306 114.1496813 0),22.2427306,114.1496813
29,"MARINA HABITAT(Block 3),YUET HOI ST|悅海華庭3座,悅海街",HA,6405538,13290,422,6549440,14009,422,9552950,17179,605,10,23,36,"['A', 'B', 'C', 'D', 'E', 'F', 'G', 'H']",7624745.708,15505.95833,495.25,41,328,1998/05,23,MARINA HABITAT,悅海華庭,TRUE,0,0,POINT Z (22.2442833 114.1546303 0),22.2442833,114.1546303
30,"DOVER COURT(Block 25,Phase 4,SOUTH HORIZONS),25 YI NAM RD|海怡半島,4期,25座(御柳居),25 怡南路",HA,7827004,14852,526,8157734,15509,526,12786312,17094,748,7,18,29,"['A', 'B', 'C', 'D', 'E', 'F', 'G', 'H']",10121895.08,15897.95833,635.25,35,280,1995/03,26,SOUTH HORIZONS,海怡半島,TRUE,0,0,POINT Z (22.2425571 114.1494557 0),22.2425571,114.1494557
31,"SILVER MANSION,SHEK PAI WAN RD|兆暉大廈,石排灣道",HA,5092827.507,12354,397,5298123.614,12852,397,5658838,14254,397,6,15,24,"['A', 'B']",5371471.525,13283.5,397,27,54,1997/02,24,blank,,FALSE,,,POINT Z (22.2493714 114.1487427 0),22.2493714,114.1487427
32,"YEE MOON COURT(Block 12,Phase 2,SOUTH HORIZONS),12 SOUTH HORIZON DR|海怡半島,2期,12座(怡滿閣),12 海怡路",HA,9057374,14354,631,9648621,15145,631,12671725,16400,781,6,17,28,"['A', 'B', 'C', 'D', 'E', 'F', 'G', 'H']",10398167.67,15484.33333,671,33,264,1992/10,29,SOUTH HORIZONS,海怡半島,TRUE,0,0,POINT Z (22.243179 114.146127 0),22.243179,114.146127
33,"YEE LAI COURT(Block 10,Phase 2,SOUTH HORIZONS),10 SOUTH HORIZON DR|海怡半島,2期,10座(怡麗閣),10 海怡路",HA,9649981,14869,648,10222399,15751,648,17078904,19233,893,8,22,35,"['A', 'B', 'C', 'D', 'E', 'F', 'G', 'H']",13662537.38,17061,796.25,42,336,1992/10,29,SOUTH HORIZONS,海怡半島,TRUE,0,0,POINT Z (22.243875 114.144527 0),22.243875,114.144527
34,"MARINA HABITAT(Block 1),YUET HOI ST|悅海華庭1座,悅海街",HA,6522010,14140,422,5967502,13355,422,9675765,15993,605,10,23,36,"['A', 'B', 'C', 'D', 'E', 'F', 'G', 'H']",7553164.375,15288.20833,495.25,41,328,1998/05,23,MARINA HABITAT,悅海華庭,TRUE,0,0,POINT Z (22.2440158 114.1538286 0),22.2440158,114.1538286
35,"HOI NGAR COURT(Block 3,Phase 1,SOUTH HORIZONS),3 SOUTH HORIZON DR|海怡半島,1期,3座(海雅閣),3 海怡路",HA,8796037,14421,600,9171721,15011,600,22132631,18097,1223,7,18,29,"['A', 'B', 'C', 'D', 'E', 'EF', 'F', 'G', 'H']",11631191.93,15659.74074,735,35,315,1991/11,30,SOUTH HORIZONS,海怡半島,TRUE,0,0,POINT Z (22.2447503 114.1473493 0),22.2447503,114.1473493
36,"HOI FAI COURT(Block 2,Phase 1,SOUTH HORIZONS),2 SOUTH HORIZON DR|海怡半島,1期,2座(海暉閣),2 海怡路",HA,7090006,13154,526,7415562,13758,526,10756044,16832,652,8,20,33,"['A', 'B', 'C', 'D', 'E', 'F', 'G', 'H']",8530641.833,15269.33333,559,40,320,1991/11,30,SOUTH HORIZONS,海怡半島,TRUE,0,0,POINT Z (22.244541 114.147874 0),22.244541,114.147874
37,"FULL JADE MANSION,SHEK PAI WAN RD|富澤大廈,石排灣道",HA,3974994,15693,243,4036473,16202,243,4451904,17929,262,5,12,20,"['A', 'B', 'C', 'D']",4189696.5,16794.58333,249.6666667,24,96,1992/06,29,blank,,FALSE,,,POINT Z (22.2495028 114.1479066 0),22.2495028,114.1479066
38,"MEI KA COURT(Block 23A,Phase 3,SOUTH HORIZONS),23A SOUTH HORIZON DR|海怡半島,3期,23A座(美家閣),23A 海怡路",HA,8533432,14488,589,8993754,15141,589,14362167,18220,791,7,20,33,"['A', 'B', 'C', 'D', 'E', 'F', 'G', 'H']",11211183.08,16207.29167,687.875,39,312,1994/02,27,SOUTH HORIZONS,海怡半島,TRUE,0,0,POINT Z (22.2421636 114.1488258 0),22.2421636,114.1488258
39,"GRANDVIEW GARDEN(Block 2),NAM LONG SHAN RD|金寶花園2座,南朗山道",HA,5335046,15576,307,5486090,15959,307,6316382,18542,373,6,14,22,"['A', 'B', 'C', 'D', 'E', 'F']",5753408.167,17195.27778,335.5,25,150,1985/03,36,GRANDVIEW GARDEN,金寶花園,TRUE,0,0,POINT Z (22.244926 114.16684 0),22.244926,114.16684
40,"YEE ON BLDG,MAIN ST AP LEI CHAU|怡安大廈,鴨利洲大街",HA,4724920,12434,380,4916440,12938,380,5143300,13535,380,7,12,18,"['A', 'B']",4977493.333,13098.66667,380,18,36,1984/09,37,blank,,FALSE,,,POINT Z (22.2433801 114.1535731 0),22.2433801,114.1535731
41,"HOI LEE BLDG,MAIN ST AP LEI CHAU|海利大廈,鴨利洲大街",HA,4307832,16035,268,4481764,16171,268,5178516,17832,300,5,12,19,"['A', 'B', 'C', 'D']",4800484.5,17004.41667,282.5,23,92,1991/09,30,blank,,FALSE,,,POINT Z (22.2440977 114.1562206 0),22.2440977,114.1562206
42,"HOI NING COURT(Block 5,Phase 1,SOUTH HORIZONS),5 SOUTH HORIZON DR|海怡半島,1期,5座(海寧閣),5 海怡路",HA,8739600,13984,600,9287400,14672,600,11441640,16849,742,7,18,29,"['A', 'B', 'C', 'D', 'E', 'F', 'G', 'H']",10161905.04,15272.75,666.75,35,280,1991/11,30,SOUTH HORIZONS,海怡半島,TRUE,0,0,POINT Z (22.244734 114.146632 0),22.244734,114.146632
43,"MEI HAY COURT(Block 18,Phase 3,SOUTH HORIZONS),18 SOUTH HORIZON DR|海怡半島,3期,18座(美晞閣),18 海怡路",HA,8302544,14096,589,8655300,14670,589,16585162,18469,1263,8,20,33,"['A', 'B', 'C', 'D', 'E', 'E & F', 'F', 'G', 'H']",10718485.42,15721.79167,739.8888889,40,360,1993/12,28,SOUTH HORIZONS,海怡半島,TRUE,0,0,POINT Z (22.2427771 114.1478342 0),22.2427771,114.1478342
44,"MEI FAI COURT(Block Q,ABERDEEN CTR),NAM NING ST|香港仔中心,Q座(美輝閣),南寧街",HA,7835960,12952,605,8128175,13435,605,10323360,14338,720,7,15,22,"['1', '2', '3', '4']",9048881.25,13642.25,662.5,23,92,1981/05,40,ABERDEEN CTR,香港仔中心,TRUE,0,0,POINT Z (22.2482784 114.1532016 0),22.2482784,114.1532016
45,"ABERDEEN HARBOUR MANSION,ABERDEEN MAIN RD|雙喜大廈,香港仔大道",HA,4725414,12148,369,4878180,12364,369,11592994.47,14401,788,7,12,18,"['A', 'AB', 'B', 'C', 'D', 'E', 'E & F', 'F', 'G', 'H', 'I', 'J', 'K']",6285885.924,13135.6047,466.8205128,17,221,1972/10,49,blank,,FALSE,,,POINT Z (22.2475013 114.1577301 0),22.2475013,114.1577301
46,"PORT CTR,CHENGTU RD|利港中心,成都道",HA,5808252,14132,411,5993202,14391,411,7171056,15875,456,9,16,22,"['A', 'B', 'C', 'D', 'E', 'F', 'G', 'H']",6542730.625,15094.79167,433.5,22,176,1989/07,32,blank,,FALSE,,,POINT Z (22.2490583 114.1550362 0),22.2490583,114.1550362
47,"YEE NGAR COURT(Block 9,Phase 2,SOUTH HORIZONS),9 SOUTH HORIZON DR|海怡半島,2期,9座(怡雅閣),9 海怡路",HA,9636408,14871,648,10151658,15642,648,13577920,17994,755,8,22,35,"['A', 'B', 'C', 'D', 'E', 'F', 'G', 'H']",12028583.5,16481.54167,728.7083333,42,336,1992/10,29,SOUTH HORIZONS,海怡半島,TRUE,0,0,POINT Z (22.2440632 114.1447667 0),22.2440632,114.1447667
48,"HUNG FOOK COURT,HUNG SHING ST|鴻福閣,洪聖街",HA,5159932,17671,292,5108540,17495,292,5112044,17507,292,6,12,19,"['A', 'B']",5114185.333,17514.33333,292,22,44,1992/03,29,blank,,FALSE,,,POINT Z (22.2444612 114.1561277 0),22.2444612,114.1561277
49,"KONG SHING COURT(Block F,ABERDEEN CTR),NAM NING ST|香港仔中心,F座(港盛閣),南寧街",HA,5529120,11519,450,5634240,11738,450,7042560,14672,480,6,15,24,"['1', '2', '3', '4', '5', '6']",6241942.889,13470.72222,463.6666667,27,162,1982/01,39,ABERDEEN CTR,香港仔中心,TRUE,0,0,POINT Z (22.2493679 114.1540376 0),22.2493679,114.1540376
50,"PAT LEUNG BLDG,LEE MAN RD|百良大廈,利民道",HA,5107480,13804,370,5373792,14292,370,5790400,15412,376,5,13,21,"['A', 'B', 'C', 'D']",5458798.167,14655.16667,372.5,25,100,1986/08,35,blank,,FALSE,,,POINT Z (22.2435479 114.1525049 0),22.2435479,114.1525049
51,"BILLION COURT,MAIN ST AP LEI CHAU|利豐大廈,鴨利洲大街",HA,5254078,13911,373,5412230,14123,373,6224328,15718,413,5,12,20,"['A', 'B', 'C', 'D', 'E', 'F']",5821432.167,14783.94444,394,24,144,1990/10,31,blank,,FALSE,,,POINT Z (22.243282 114.1540055 0),22.243282,114.1540055
52,"HIP SING MANSION,OLD MAIN ST ABERDEEN|協勝大廈,香港仔舊大街",HA,5245540.538,12535,403,5515178.458,12986,403,5841443.987,13959,403,5,12,20,"['A', 'B']",5545608.33,13219.83333,404,24,48,1990/03,31,blank,,FALSE,,,POINT Z (22.2477477 114.1560929 0),22.2477477,114.1560929
53,"PELENE MANSION,YUE KO ST|碧麗大廈,漁歌街",HA,3883588,14167,268,3976316,14707,268,4351116,15708,290,6,14,21,"['A', 'B', 'C', 'D', 'E', 'F']",4117003.333,14790.33333,278.5,24,144,1979/09,42,blank,,FALSE,,,POINT Z (22.2490628 114.1483479 0),22.2490628,114.1483479
54,"COMFORT CTR,OLD MAIN ST ABERDEEN|港暉中心,香港仔舊大街",HA,5612980,13992,380,5868720,14485,380,7785255,16051,515,6,15,24,"['A', 'B', 'C', 'D', 'E', 'F']",6433962.722,15049.27778,429,29,174,1992/08,29,blank,,FALSE,,,POINT Z (22.2486215 114.1561509 0),22.2486215,114.1561509
55,"KAM FUNG BLDG,ABERDEEN MAIN RD|金豐大廈,香港仔大道",HA,5709970,13142,430,6024730,13897,430,8764214,15172,578,6,17,28,"['A', 'B', 'C', 'D', 'E', 'F', 'G', 'H']",6876912.417,14173.83333,485.2083333,33,264,1986/04,35,blank,,FALSE,,,POINT Z (22.2483749 114.1555007 0),22.2483749,114.1555007
56,"SOUTH VIEW GARDEN,SHEK PAI WAN RD|南景花園,石排灣道",HA,4154337,13834,261,4319289,14172,261,6317360,17451,406,9,18,27,"['A', 'B', 'C', 'D', 'E', 'F']",5246746.833,15565.55556,340.3333333,25,150,1995/06,26,blank,,FALSE,,,POINT Z (22.2491127 114.1485465 0),22.2491127,114.1485465
57,"GROSVENOR COURT(Block 28,Phase 4,SOUTH HORIZONS),28 YI NAM RD|海怡半島,4期,28座(御意居),28 怡南路",HA,7799013,15027,519,7652890,14042,519,12849824,17459,1485,6,16,25,"['A', 'B', 'C', 'D', 'E', 'EF', 'F', 'G', 'H']",10247146.79,16040.625,729.3333333,30,270,1995/03,26,SOUTH HORIZONS,海怡半島,TRUE,0,0,POINT Z (22.243154 114.150396 0),22.243154,114.150396
58,"JUMBO BLDG,ABERDEEN MAIN RD|珍寶大廈,香港仔大道",HA,4679856,14016,314,4807026,14394,314,5906718,15924,398,8,15,22,"['A', 'B', 'C', 'D']",5277109,14884,356,23,92,1988/05,33,blank,,FALSE,,,POINT Z (22.2494217 114.1549433 0),22.2494217,114.1549433
59,"MEI HONG COURT(Block 19,Phase 3,SOUTH HORIZONS),19 SOUTH HORIZON DR|海怡半島,3期,19座(美康閣),19 海怡路",HA,8421070,14273,589,8618248,14632,589,14662544,16414,898,8,20,33,"['A', 'B', 'C', 'D', 'E', 'F', 'G', 'H']",10511859.63,15496.33333,674.5,40,320,1994/02,27,SOUTH HORIZONS,海怡半島,TRUE,0,0,POINT Z (22.242928 114.148272 0),22.242928,114.148272
60,"KONG CHEUNG COURT(Block G,ABERDEEN CTR),NAM NING ST|香港仔中心,G座(港昌閣),南寧街",HA,5859310,12710,450,6090300,13216,450,7612598,14008,553,6,15,24,"['1', '2', '3', '4', '5', '6']",6569508.722,13462.66667,488,27,162,1982/01,39,ABERDEEN CTR,香港仔中心,TRUE,0,0,POINT Z (22.2487869 114.1538679 0),22.2487869,114.1538679
61,"MANLY HSE,MAIN ST AP LEI CHAU|文麗大樓,鴨利洲大街",HA,3237423.731,5411,295,3237994.706,5478,295,3866443.753,5811,360,6,9,12,"['A', 'B', 'C', 'D', 'E']",3552886.011,5606.8,328,9,45,1980/01,41,blank,,FALSE,,,POINT Z (22.243704 114.154861 0),22.243704,114.154861
62,"AP LEI CHAU CTR(Block B),LEE CHI RD|鴨利洲中心B座,利枝道",HA,4624640,14175,320,4774080,14641,320,7137984,15903,452,7,16,25,"['1', '2', '3', '4', '5', '6', '7', '8']",5525652,15051.5,366.7916667,27,216,1983/12,38,AP LEI CHAU CTR,鴨利洲中心,TRUE,0,0,POINT Z (22.243399 114.1532905 0),22.243399,114.1532905
63,"YEE FUNG COURT(Block 11,Phase 2,SOUTH HORIZONS),11 SOUTH HORIZON DR|海怡半島,2期,11座(怡豐閣),11 海怡路",HA,8981338,13903,631,9004488,14146,631,23800392,18711,1272,6,17,28,"['A', 'B', 'C', 'D', 'E', 'EF', 'F', 'G', 'H']",11609491.7,15436.62963,740,33,297,1992/10,29,SOUTH HORIZONS,海怡半島,TRUE,0,0,POINT Z (22.244399 114.145846 0),22.244399,114.145846
64,"HOI WAN COURT(Block 4,Phase 1,SOUTH HORIZONS),4 SOUTH HORIZON DR|海怡半島,1期,4座(海韻閣),4 海怡路",HA,8907725,14675,600,9250680,14997,600,11703566,16696,742,7,18,29,"['A', 'B', 'C', 'D', 'E', 'F', 'G', 'H']",10394764.54,15604.16667,666.75,35,280,1991/11,30,SOUTH HORIZONS,海怡半島,TRUE,0,0,POINT Z (22.244454 114.146952 0),22.244454,114.146952
65,"HAPPY VIEW BLDG,MAIN ST AP LEI CHAU|樂景大廈,鴨利洲大街",HA,5072234,15508,326,5221542,15933,326,5599525,16879,335,6,12,19,"['A', 'B', 'C', 'D']",5356859.333,16209.41667,330.5,20,80,1981/10,40,blank,,FALSE,,,POINT Z (22.2436381 114.153457 0),22.2436381,114.153457
66,"SHUN KING COURT,MAIN ST AP LEI CHAU|順景閣,鴨利洲大街",HA,4206840,15935,264,4358904,16511,264,4921000,17575,280,7,15,22,"['A', 'B', 'C']",4595048,16725.22222,274.6666667,21,63,1995/11,26,blank,,FALSE,,,POINT Z (22.2442864 114.1566851 0),22.2442864,114.1566851
67,"MEI CHEUNG COURT(Block 20,Phase 3,SOUTH HORIZONS),20 SOUTH HORIZON DR|海怡半島,3期,20座(美祥閣),20 海怡路",HA,8429768,14312,589,8892133,15097,589,11008690,17255,640,8,20,33,"['A', 'B', 'C', 'D', 'E', 'F', 'G', 'H']",9557564,15609.04167,612,40,320,1994/00,27,SOUTH HORIZONS,海怡半島,TRUE,0,0,POINT Z (22.2426274 114.1486498 0),22.2426274,114.1486498
68,"JING HUI GARDEN(Block 1),ABERDEEN MAIN RD|景惠花園1座,香港仔大道",HA,5097735,12587,405,5157675,12735,405,6603760,13616,485,5,12,20,"['A', 'B', 'C', 'D']",5794352.917,13013.25,445,24,96,1989/02,32,JING HUI GARDEN,景惠花園,TRUE,0,0,POINT Z (22.248027 114.1592396 0),22.248027,114.1592396
69,"MEI FAI COURT(Block 17,Phase 3,SOUTH HORIZONS),17 SOUTH HORIZON DR|海怡半島,3期,17座(美暉閣),17 海怡路",HA,8923125,14277,625,9454375,15127,625,16987466,18917,898,8,20,33,"['A', 'B', 'C', 'D', 'E', 'F', 'G', 'H']",12862283.92,16700.75,760.875,40,320,1993/12,28,SOUTH HORIZONS,海怡半島,TRUE,0,0,POINT Z (22.2429446 114.1475257 0),22.2429446,114.1475257
70,"HOI SING COURT(Block 1,Phase 1,SOUTH HORIZONS),1 SOUTH HORIZON DR|海怡半島,1期,1座(海昇閣),1 海怡路",HA,7915774,14358,526,8376858,14636,526,23784867,18743,1269,8,20,33,"['A', 'AB', 'B', 'C', 'D', 'E', 'F', 'G', 'H']",10821776.93,16131.74074,660.2222222,40,360,1991/11,30,SOUTH HORIZONS,海怡半島,TRUE,0,0,POINT Z (22.2450552 114.1479066 0),22.2450552,114.1479066
71,"AP LEI CHAU CTR(Block A),LEE CHI RD|鴨利洲中心A座,利枝道",HA,4942080,15261,320,4755520,14861,320,7305676,16789,452,7,14,21,"['1', '2', '3', '4', '5', '6', '7', '8']",5755363,15862.20833,363,23,184,1983/12,38,AP LEI CHAU CTR,鴨利洲中心,TRUE,0,0,POINT Z (22.243318 114.152938 0),22.243318,114.152938
72,"HOI FAI MANSION,ABERDEEN MAIN RD|海暉大廈,香港仔大道",HA,6743183.661,13614,477,6981924.261,14096,477,7270196.105,14678,477,5,13,21,"['A', 'B']",7002149.519,14136.83333,477,25,50,1992/09,29,blank,,FALSE,,,POINT Z (22.2473433 114.1575559 0),22.2473433,114.1575559
73,"KA NING MANSION,ABERDEEN MAIN RD|嘉寧大廈,香港仔大道",HA,7251841.508,10998,635,7466139.425,11323,635,10450968.04,12627,830,6,13,20,"['A', 'B', 'C', 'D']",8945750.371,11760,732.5,23,92,1979/12,42,blank,,FALSE,,,POINT Z (22.2472655 114.1571495 0),22.2472655,114.1571495
74,"NGAN FUNG BLDG,ABERDEEN MAIN RD|銀輝大廈,香港仔大道",HA,5055270.986,12483,390,5196606.368,12832,390,5592600,14340,390,5,12,20,"['A', 'B']",5313695.413,13378.16667,390,24,48,1988/07,33,blank,,FALSE,,,POINT Z (22.2472004 114.1567315 0),22.2472004,114.1567315
75,"KA WO BLDG(Block B),KA WO ST|嘉和大廈B座,嘉禾街",HA,4267560,12385,330,4431900,12771,330,6315440,14273,445,6,14,21,"['1', '2', '3', '4', '5', '6', '7', '8']",4668073.542,13212.375,353.3333333,23,184,1978/05,43,KA WO BLDG,嘉和大廈,TRUE,0,0,POINT Z (22.2499491 114.1488123 0),22.2499491,114.1488123
76,"ALBANY COURT(Block 32,Phase 4,SOUTH HORIZONS),32 YI NAM RD|海怡半島,4期,32座(御泉居),32 怡南路",HA,7854540,14369,526,8052008,14634,526,11063273,16057,689,10,18,26,"['A', 'B', 'C', 'D', 'E', 'F', 'G', 'H']",9160986.833,15257.45833,600,25,200,1995/03,26,SOUTH HORIZONS,海怡半島,TRUE,0,0,POINT Z (22.2435972 114.1492768 0),22.2435972,114.1492768
77,"BERKELEY COURT(Block 33,Phase 4,SOUTH HORIZONS),33 YI NAM RD|海怡半島,4期,33座(御林居),33 怡南路",HA,7497604,14254,526,7772176,14776,526,11588291,16819,689,10,18,26,"['A', 'B', 'C', 'D', 'E', 'F', 'G', 'H']",9352855.167,15542.20833,600,25,200,1995/03,26,SOUTH HORIZONS,海怡半島,TRUE,0,0,POINT Z (22.2425571 114.1494557 0),22.2425571,114.1494557
78,"NING FUNG MANSION,MAIN ST AP LEI CHAU|年豐大廈,鴨利洲大街",HA,4225206,14983,271,4405404,15622,271,4800936,16945,287,6,12,19,"['A', 'B', 'C', 'D', 'E', 'F']",4550467.056,16254,280,20,120,1981/08,40,blank,,FALSE,,,POINT Z (22.2442317 114.1568941 0),22.2442317,114.1568941
79,"OCEAN HSE,OLD MAIN ST ABERDEEN|海洋大廈,香港仔舊大街",HA,4636735.083,12543,356,4753549.903,12859,356,5263690.572,14239,356,5,10,15,"['A', 'B', 'C', 'D']",5034090.581,13403.16667,361.8333333,15,60,1983/08,38,blank,,FALSE,,,POINT Z (22.2478548 114.1561741 0),22.2478548,114.1561741
80,"KONG TAI COURT(Block H,ABERDEEN CTR),NAM NING ST|香港仔中心,H座(港泰閣),南寧街",HA,5483700,12186,450,5716350,12703,450,7466606,13673,553,6,15,24,"['1', '2', '3', '4', '5', '6']",6285407,12873.77778,488,27,162,1981/12,40,ABERDEEN CTR,香港仔中心,TRUE,0,0,POINT Z (22.24953 114.153739 0),22.24953,114.153739
81,"JUMBO COURT,WELFARE RD|珍寶閣,惠福道",HA,5614668,12963,391,5712786,12970,391,7754248,16335,1133,8,12,17,"['A', 'B', 'C', 'D', 'E', 'F', 'G', 'H', 'I', 'J', 'J & K & L', 'K', 'L']",6350211.972,15004.5,478.8461538,14,182,1979/05,42,blank,,FALSE,,,POINT Z (22.245874 114.164656 0),22.245874,114.164656
82,"SIU KWAN MANSION,OLD MAIN ST ABERDEEN|兆群大廈,香港仔舊大街",HA,4822275.803,15004,307,5074142.702,15662,307,7716448.738,18203,440,6,13,20,"['A', 'B', 'C', 'D']",6222296.277,16164.41667,374.75,23,92,1993/10,28,blank,,FALSE,,,POINT Z (22.2488831 114.1561509 0),22.2488831,114.1561509
83,"SEAVIEW COURT,ABERDEEN MAIN RD|海光閣,香港仔大道",HA,4557000,15190,300,4715100,15717,300,4938600,16462,300,6,14,21,"['A', 'B']",4738100,15793.66667,300,24,48,1992/07,29,blank,,FALSE,,,POINT Z (22.247766 114.1584036 0),22.247766,114.1584036
84,74-76 OLD MAIN ST ABERDEEN|74-76 香港仔舊大街,HA,4482800,16010,280,4499880,16071,280,5788216,20168,287,2,3,4,"['A', 'B', 'C', 'D']",4920739.25,17353.16667,283.5,5,20,1971/07,50,blank,,FALSE,,,POINT Z (22.2481686 114.1560401 0),22.2481686,114.1560401
85,"WAI KING MANSION,ABERDEEN MAIN RD|偉景大廈,香港仔大道",HA,5995785.214,11736,492,6098984.653,11938,492,6652276.694,13021,492,7,15,22,"['A', 'B']",6349319.925,12428,492,23,46,1994/07,27,blank,,FALSE,,,POINT Z (22.2478004 114.1585313 0),22.2478004,114.1585313
86,"JING HUI GARDEN(Block 2),ABERDEEN MAIN RD|景惠花園2座,香港仔大道",HA,4904955,11734,405,5101785,12395,405,6372415,13423,485,5,12,20,"['E', 'F', 'G', 'H']",5599085.833,12595.83333,445,24,96,1989/02,32,JING HUI GARDEN,景惠花園,TRUE,0,0,POINT Z (22.2481503 114.1595647 0),22.2481503,114.1595647
87,"HUNG SHING BLDG,HUNG SHING ST|鴻勝大廈,洪聖街",HA,3835552,16501,224,3751776,16642,224,4164979.571,17488,234,4,6,9,"['A', 'B', 'C']",3934327.806,16875.88889,227.3333333,10,30,1986/04,35,blank,,FALSE,,,POINT Z (22.2446502 114.1560348 0),22.2446502,114.1560348
88,"MEI KWONG COURT(Block P,ABERDEEN CTR),NAM NING ST|香港仔中心,P座(美光閣),南寧街",HA,7569030,13279,570,7872270,13811,570,8639400,14399,600,7,15,23,"['1', '2', '3', '4', '5', '6']",8171955,13850,590,25,150,1981/05,40,ABERDEEN CTR,香港仔中心,TRUE,0,0,POINT Z (22.248508 114.1532394 0),22.248508,114.1532394
89,"KA FOOK COURT,KA WO ST|嘉福閣,嘉禾街",HA,6716564.901,3326,656,6896292.585,3415,656,8228707.724,12080,666,7,13,19,"['A', 'B', 'C']",7457030.101,7592.666667,662.6666667,19,57,1981/07,40,blank,,FALSE,,,POINT Z (22.2496907 114.1489952 0),22.2496907,114.1489952
90,"YEN CHING BLDG,MAIN ST AP LEI CHAU|仁正大廈,鴨利洲大街",HA,4329778.433,13899,260,4003500.444,13726,260,6845591.846,15173,450,4,10,17,"['A', 'B', 'C', 'D']",4612651.107,14378.44444,293.75,19,76,1985/03,36,blank,,FALSE,,,POINT Z (22.243637 114.1551291 0),22.243637,114.1551291
91,"ON TAI BLDG,WU NAM ST|安泰大廈,湖南街",HA,4444720,15874,275,4171440,14898,275,4945950,17055,290,8,13,18,"['A', 'B', 'C']",4560416.667,16186.44444,281.6666667,17,51,1984/02,37,blank,,FALSE,,,POINT Z (22.2478262 114.1555239 0),22.2478262,114.1555239
92,"FORTUNE MANSION,MAIN ST AP LEI CHAU|利是大廈,鴨利洲大街",HA,5388575,13087,409,5531725,13432,409,6200031,15159,442,5,12,19,"['A', 'B', 'C', 'D', 'E', 'F']",5792843.444,13691.61111,423.3333333,23,138,1987/03,34,blank,,FALSE,,,POINT Z (22.2439544 114.1559535 0),22.2439544,114.1559535
93,"TSUNG MAN COURT,TSUNG MAN ST|崇文閣,崇文街",HA,3189113.507,4993,328,3241062.567,5353,328,3414201.216,8114,330,3,4,5,"['A', 'B', 'C']",3289371.74,6498.555556,329.1111111,5,15,1976/01,45,blank,,FALSE,,,POINT Z (22.249956 114.1547343 0),22.249956,114.1547343
94,"COMMAND TOWER,MAIN ST AP LEI CHAU|僑民大廈,鴨利洲大街",HA,4584987,12773,319,4689619,13115,319,5865105,15325,435,6,12,19,"['1', '2', '3', '4']",5149201.75,14125.91667,367,20,80,1986/08,35,blank,,FALSE,,,POINT Z (22.243347 114.1542002 0),22.243347,114.1542002
95,"TUNG NAM BLDG,MAIN ST AP LEI CHAU|東南大廈,鴨利洲大街",HA,4972871.002,10312,396,5043760.455,10459,396,5455041.089,12508,420,4,7,10,"['A', 'B', 'C', 'D']",5221364.044,11087.55556,404.75,9,36,1980/12,41,blank,,FALSE,,,POINT Z (22.243859 114.1546879 0),22.243859,114.1546879
96,"ROUSSEAU HEIGHTS,MAIN ST AP LEI CHAU|亨利閣,鴨利洲大街",HA,4255089.054,12726,322,4310258.761,12891,322,4535600,13340,340,5,8,10,"['A', 'B']",4397539.61,13040.66667,331,8,16,1973/09,48,blank,,FALSE,,,POINT Z (22.2444894 114.1573353 0),22.2444894,114.1573353
97,"WAH LEE BLDG,TSUNG MAN ST|華利大廈,崇文街",HA,4650745.053,9687,400,4776598.027,9948,400,4783053.081,11970,380,6,12,17,"['A', 'B']",4749678.48,10773,393.3333333,18,36,1978/12,43,blank,,FALSE,,,POINT Z (22.2497883 114.1555239 0),22.2497883,114.1555239
98,"SZE HEI BLDG,SHEK PAI WAN RD|四喜大廈,石排灣道",HA,3679102,11606,315,3773251,11903,315,4200525,13335,317,7,12,18,"['A', 'B', 'C']",4013665.889,12716.55556,315.6666667,18,54,1975/05,46,blank,,FALSE,,,POINT Z (22.2488626 114.1489285 0),22.2488626,114.1489285
99,"YEE HING BLDG,MAIN ST AP LEI CHAU|怡慶大廈,鴨利洲大街",HA,4828480,14009,320,4948160,14079,320,5425920,16956,349,6,12,19,"['A', 'B', 'C', 'D']",5112695.105,15178,334.5,22,88,1985/05,36,blank,,FALSE,,,POINT Z (22.2435543 114.1538518 0),22.2435543,114.1538518
100,"KAM TSEUK MANSION,KA WO ST|金爵大廈,嘉禾街",HA,3912921.608,13905,271,3695218.065,11197,271,4282404.965,15218,271,5,7,9,"['A', 'B']",4009872.048,13602,271,7,14,1980/11,41,blank,,FALSE,,,POINT Z (22.2494804 114.148882 0),22.2494804,114.148882
101,"KONG WING COURT(Block I,ABERDEEN CTR),NAM NING ST|香港仔中心,I座(港榮閣),南寧街",HA,5784588.971,12084,450,5806609.088,12130,450,6583232.007,13915,480,6,15,24,"['1', '2', '3', '4', '5', '6']",6116062.406,12951.11111,463.6666667,27,162,1981/12,40,ABERDEEN CTR,香港仔中心,TRUE,0,0,POINT Z (22.2493534 114.1538518 0),22.2493534,114.1538518
102,"KAM FAT BLDG,LEE CHI RD|金發大廈,利枝道",HA,5930118,15363,386,6272886,15940,386,7631654,16780,458,6,14,23,"['A', 'B', 'C', 'D', 'E', 'F']",6682092.833,16133.72222,414.3333333,28,168,1986/08,35,blank,,FALSE,,,POINT Z (22.2436059 114.1526907 0),22.2436059,114.1526907
103,"HOI CHUN COURT(Block A,Phase 4,ABERDEEN CTR),4 NAM NING ST|香港仔中心,4期,A座(海珍閣),4 南寧街",HA,6203120,13740,440,6062320,13778,440,8963820,15726,570,6,14,23,"['1', '2', '3', '4', '5', '6']",7096318.889,14675.44444,483.3333333,26,156,1979/12,42,ABERDEEN CTR,香港仔中心,TRUE,0,0,POINT Z (22.2482557 114.1544556 0),22.2482557,114.1544556
104,"MEI FUNG COURT(Block R,ABERDEEN CTR),NAM NING ST|香港仔中心,R座(美豐閣),南寧街",HA,8921096.376,11022,685,10017464.42,11425,685,11330914.02,12923,720,7,15,23,"['1', '2', '3', '4']",10243864.57,12172.41667,700,25,100,1981/05,40,ABERDEEN CTR,香港仔中心,TRUE,0,0,POINT Z (22.2481257 114.1533409 0),22.2481257,114.1533409
105,"KWUN HOI COURT(Block S,Phase 3,ABERDEEN CTR),5 NAM NING ST|香港仔中心,3期,S座(觀海閣),5 南寧街",HA,9619715.373,12519,715,10021593.41,13042,715,10948902.42,14747,750,7,16,24,"['1', '2', '3']",10317339.25,13668.88889,727.2222222,25,75,1981/06,40,ABERDEEN CTR,香港仔中心,TRUE,0,0,POINT Z (22.2479071 114.1541769 0),22.2479071,114.1541769
106,"HOI LUNG COURT(Block N,Phase 5,ABERDEEN CTR),6 NAM NING ST|香港仔中心,5期,N座(海龍閣),6 南寧街",HA,5999400,13230,440,6199600,13741,440,8279820,15486,570,6,14,23,"['1', '2', '3', '4', '5', '6']",6896690,14309.72222,483.3333333,26,156,1979/12,42,ABERDEEN CTR,香港仔中心,TRUE,0,0,POINT Z (22.2483157 114.1537136 0),22.2483157,114.1537136
107,"YEE TIAM BLDG,KA WO ST|益添大廈,嘉禾街",HA,4084865,11620,305,4170875,12185,305,4757000,13951,355,8,13,18,"['A', 'B', 'C']",4405038.663,12898.11111,338.3333333,16,48,1979/04,42,blank,,FALSE,,,POINT Z (22.2495822 114.1487891 0),22.2495822,114.1487891
108,"HOI WU COURT(Block D,Phase 4,ABERDEEN CTR),14 NAM NING ST|香港仔中心,4期,D座(海湖閣),14 南寧街",HA,5997200,13630,440,6139760,13954,440,8931900,15670,570,6,14,23,"['1', '2', '3', '4', '5', '6']",7030165.556,14504.61111,483.3333333,26,156,1979/12,42,ABERDEEN CTR,香港仔中心,TRUE,0,0,POINT Z (22.2485926 114.1545448 0),22.2485926,114.1545448
109,"HOI TSING COURT(Block K,Phase 5,ABERDEEN CTR),12 NAM NING ST|香港仔中心,5期,K座(海晶閣),12 南寧街",HA,5657520,12858,440,5846280,13287,440,8970575.701,15156,570,6,14,23,"['1', '2', '3', '4', '5', '6']",6921197.975,13815.72222,483.3333333,26,156,1979/12,42,ABERDEEN CTR,香港仔中心,TRUE,0,0,POINT Z (22.2483157 114.1537136 0),22.2483157,114.1537136
110,"KA WO BLDG(Block A),KA WO ST|嘉和大廈A座,嘉禾街",HA,4171200,12601,330,4386690,13293,330,6253140,14599,445,6,13,20,"['1', '2', '3', '4', '5', '6', '7', '8']",4761311.042,13676.54167,348.5416667,22,176,1978/05,43,KA WO BLDG,嘉和大廈,TRUE,0,0,POINT Z (22.249981 114.148647 0),22.249981,114.148647
111,"HOI TIN COURT(Block M,Phase 5,ABERDEEN CTR),8 NAM NING ST|香港仔中心,5期,M座(海天閣),8 南寧街",HA,5804480,13192,440,6021400,13685,440,8623530,15129,570,6,14,23,"['1', '2', '3', '4', '5', '6']",6813076.111,14068.16667,483.3333333,26,156,1979/12,42,ABERDEEN CTR,香港仔中心,TRUE,0,0,POINT Z (22.2483157 114.1537136 0),22.2483157,114.1537136
112,"HOI SHAN COURT(Block C,Phase 4,ABERDEEN CTR),16 NAM NING ST|香港仔中心,4期,C座(海珊閣),16 南寧街",HA,5608240,12746,440,5847160,13289,440,8447400,14820,570,6,14,23,"['1', '2', '3', '4', '5', '6']",6626696.111,13678.38889,483.3333333,26,156,1979/12,42,ABERDEEN CTR,香港仔中心,TRUE,0,0,POINT Z (22.2485899 114.1545485 0),22.2485899,114.1545485
113,"KWUN KING COURT(Block U,Phase 3,ABERDEEN CTR),1 NAM NING ST|香港仔中心,3期,U座(觀景閣),1 南寧街",HA,11700880,15812,740,12181880,16462,740,13069500,17426,750,7,16,24,"['1', '2', '3']",12413860,16625,746.6666667,25,75,1981/06,40,ABERDEEN CTR,香港仔中心,TRUE,0,0,POINT Z (22.247878 114.154547 0),22.247878,114.154547
114,"HOI CHU COURT(Block B,Phase 4,ABERDEEN CTR),2 NAM NING ST|香港仔中心,4期,B座(海珠閣),2 南寧街",HA,5826040,13241,440,6113800,13895,440,8760330,15369,570,6,14,23,"['1', '2', '3', '4', '5', '6']",6975256.667,14411.33333,483.3333333,26,156,1979/12,42,ABERDEEN CTR,香港仔中心,TRUE,0,0,POINT Z (22.248411 114.154576 0),22.248411,114.154576
115,"SHUN LEE BLDG,MAIN ST AP LEI CHAU|順利大廈,鴨利洲大街",HA,4098212.076,11648,321,4087978.734,11694,318,4559325.12,12447,374,3,4,5,"['1', '2', '3', '4', '5']",4377712.771,11925.98333,354.4,5,25,1981/03,40,blank,,FALSE,,,POINT Z (22.2437066 114.1542698 0),22.2437066,114.1542698
116,"HOI YING COURT(Block L,Phase 5,ABERDEEN CTR),10 NAM NING ST|香港仔中心,5期,L座(海瑩閣),10 南寧街",HA,5656200,12855,440,5340720,12138,440,8360190,14667,570,6,14,23,"['1', '2', '3', '4', '5', '6']",6708119.444,13843.05556,483.3333333,26,156,1979/12,42,ABERDEEN CTR,香港仔中心,TRUE,0,0,POINT Z (22.2485544 114.1537173 0),22.2485544,114.1537173
117,"NGAN ON HSE(Block A,YUE ON COURT),YUE ON COURT RD|漁安苑,A座(銀安閣),漁安苑道",HA,5286099,11271,469,5566561,11869,469,6461280,13076,504,7,18,29,"['1', '2', '3', '4', '5', '6', '7', '8']",5814664.625,12020.66667,483.75,35,280,1988/08,33,YUE ON COURT,漁安苑,TRUE,0,0,POINT Z (22.2430112 114.1563367 0),22.2430112,114.1563367
118,"YEN SHING MANSION,SHEK PAI WAN RD|仁勝大廈,石排灣道",HA,3862637.53,12827,290,3938523.135,13079,290,4522893.176,14786,295,4,10,16,"['A', 'B', 'C', 'D']",4182620.414,13905.66667,292.5,19,76,1988/02,33,blank,,FALSE,,,POINT Z (22.2494766 114.1480764 0),22.2494766,114.1480764
119,"PIK ON HSE(Block C,YUE ON COURT),YUE ON COURT RD|漁安苑,C座(碧安閣),漁安苑道",HA,5768700,12101,469,5941292,12585,469,6674472,13429,504,8,18,29,"['1', '2', '3', '4', '5', '6', '7', '8']",6152274.958,12722.58333,483.75,34,272,1988/08,33,YUE ON COURT,漁安苑,TRUE,0,0,POINT Z (22.2427365 114.1569436 0),22.2427365,114.1569436
120,"TSE ON HSE(Block D,YUE ON COURT),YUE ON COURT RD|漁安苑,D座(紫安閣),漁安苑道",HA,5852651,12479,469,6006952,12808,469,6948342,14094,504,7,18,29,"['1', '2', '3', '4', '5', '6', '7', '8']",6352952,13131.625,483.75,33,264,1988//1,33,YUE ON COURT,漁安苑,TRUE,0,0,POINT Z (22.2427365 114.1569436 0),22.2427365,114.1569436
121,"HAR ON HSE(Block E,YUE ON COURT),YUE ON COURT RD|漁安苑,E座(霞安閣),漁安苑道",HA,5877039,12165,469,6049162,12570,469,6725376,13760,504,8,18,29,"['1', '2', '3', '4', '5', '6', '7', '8']",6253564.333,12931.33333,483.75,34,272,1988/10,33,YUE ON COURT,漁安苑,TRUE,0,0,POINT Z (22.2427365 114.1569436 0),22.2427365,114.1569436
122,"CHOI ON HSE(Block B,YUE ON COURT),YUE ON COURT RD|漁安苑,B座(彩安閣),漁安苑道",HA,5681935,12115,469,5917373,12394,469,6478920,13258,504,8,18,29,"['1', '2', '3', '4', '5', '6', '7', '8']",6145212.708,12705.83333,483.75,34,272,1988/00,33,YUE ON COURT,漁安苑,TRUE,0,0,POINT Z (22.243183 114.156574 0),22.243183,114.156574
123,"SHAN ON HSE(Block F,YUE ON COURT),YUE ON COURT RD|漁安苑,F座(珊安閣),漁安苑道",HA,5608771,11959,469,6029464,12691,469,6667920,13729,504,7,18,29,"['1', '2', '3', '4', '5', '6', '7', '8']",6214173,12848.125,483.75,35,280,1988/10,33,YUE ON COURT,漁安苑,TRUE,0,0,POINT Z (22.2429922 114.1573339 0),22.2429922,114.1573339
124,"WU ON HSE(Block G,YUE ON COURT),YUE ON COURT RD|漁安苑,G座(瑚安閣),漁安苑道",HA,5581569,11469,469,6083399,12277,469,6827557,14299,504,7,19,30,"['1', '2', '3', '4', '5', '6', '7', '8']",6170754.25,12764,483.75,33,264,1988//0,33,YUE ON COURT,漁安苑,TRUE,0,0,POINT Z (22.2429797 114.1563056 0),22.2429797,114.1563056
125,122 MAIN ST AP LEI CHAU|122 鴨利洲大街,HA,,,529,,,512,,,490,3,4,5,['whole floor'],,,510.3333333,3,3,1967/04,54,blank,,FALSE,,,POINT Z (22.2439202 114.1552265 0),22.2439202,114.1552265
126,"BAYSHORE APT,ABERDEEN MAIN RD|海峰華軒,香港仔大道",HA,6565510,12599,490,7167720,13347,490,8316112,16120,575,7,20,34,"['50 UNIT', 'A', 'B', 'C', 'D']",7487980.4,14346.86667,523.8,38,190,2000/10,21,blank,,FALSE,,,POINT Z (22.2484356 114.1517849 0),22.2484356,114.1517849
127,"KWUN CHIU COURT(Block T,Phase 3,ABERDEEN CTR),3 NAM NING ST|香港仔中心,3期,T座(觀潮閣),3 南寧街",HA,10549490.56,13552,740,10916343.68,14017,740,11494208.2,14759,750,8,16,24,"['1', '2', '3']",11001780.17,14190,746.6666667,22,66,1981/06,40,ABERDEEN CTR,香港仔中心,TRUE,0,0,POINT Z (22.2477907 114.1543627 0),22.2477907,114.1543627
128,"WATERFRONT SOUTH(Block 2),YUE WOK ST|港麗豪園2座,漁獲街",HA,6815900,13910,490,7078050,14445,490,7622440,15556,635,10,20,30,"['A', 'B', 'C', 'D']",7583478.75,14765.66667,562.5,29,116,1999/06,22,WATERFRONT SOUTH,港麗豪園,TRUE,0,0,POINT Z (22.2490595 114.1479531 0),22.2490595,114.1479531
129,"WATERFRONT SOUTH(Block 1),YUE WOK ST|港麗豪園1座,漁獲街",HA,6843830,12775,490,7058940,13200,490,9521340,15357,620,10,20,31,"['A', 'B', 'C', 'D']",7870926.25,14232.5,554.25,30,120,1999/06,22,WATERFRONT SOUTH,港麗豪園,TRUE,0,0,POINT Z (22.2492631 114.1477673 0),22.2492631,114.1477673
130,"SOUTH WAVE COURT(Block 3),SHUM WAN RD|南濤閣3座,深灣道",HA,4280220,9527,430,4484900,10003,430,6209238,11046,590,7,18,29,"['A', 'B', 'C', 'D', 'E', 'F', 'G', 'H', 'J', 'K']",5471586.167,10229.33333,536.2,30,300,1995/10,26,SOUTH WAVE COURT,南濤閣,TRUE,0,0,POINT Z (22.2448246 114.1660206 0),22.2448246,114.1660206
131,"SOUTH WAVE COURT(Block 1),SHUM WAN RD|南濤閣1座,深灣道",HA,4417390,10114,430,4619920,10442,430,6832400,11600,590,7,18,28,"['A', 'B', 'C', 'D', 'E', 'F', 'G', 'H', 'J', 'K']",5808917.5,10825.4,536.2,34,340,1995/10,26,SOUTH WAVE COURT,南濤閣,TRUE,0,0,POINT Z (22.2444541 114.1658813 0),22.2444541,114.1658813
132,"SOUTH WAVE COURT(Block 2),SHUM WAN RD|南濤閣2座,深灣道",HA,4316340,8919,430,4289156.582,9341,430,6326842.916,11150,590,8,18,29,"['A', 'B', 'C', 'D', 'E', 'F', 'G', 'H', 'J', 'K']",5377082.639,9748.948148,536.2,34,340,1995/10,26,SOUTH WAVE COURT,南濤閣,TRUE,0,0,POINT Z (22.2449078 114.1664619 0),22.2449078,114.1664619
133,"TOHO COURT,PING LAN ST|東寶閣,平瀾街",HA,4733168.367,13328,319,4934171.765,13894,319,5250740,16460,342,7,14,20,"['A', 'B']",4999345.641,14894.5,330.5,20,40,1989/04,32,blank,,FALSE,,,POINT Z (22.2447094 114.1571147 0),22.2447094,114.1571147
134,"FUNG KING COURT(Block 29,Phase 4,SOUTH HORIZONS),29 YI NAM RD|海怡半島,4期,29座(豐景閣),29 怡南路",HA,7650720,14215,528,7917888,14749,528,11347141,16845,689,8,16,25,"['A', 'B', 'C', 'D', 'E', 'F', 'G', 'H']",9329678.25,15386.58333,604.5,26,208,1994/12,27,SOUTH HORIZONS,海怡半島,TRUE,0,0,POINT Z (22.243803 114.150128 0),22.243803,114.150128
135,"YUK FAI HSE(Block A,Phase 1,YUE FAI COURT),45 YUE KWONG RD|漁暉苑,1期,A座(旭暉閣),45 漁光道",HA,4878336,12638,384,5079552,12679,384,5741557,13937,419,5,14,23,"['1', '2', '3', '4', '5', '6', '7', '8']",5276258.125,13147.5,401.5,29,232,1980/04,41,YUE FAI COURT,漁暉苑,TRUE,0,0,POINT Z (22.248283 114.156683 0),22.248283,114.156683
136,"KING FAI HSE(Block E,Phase 1,YUE FAI COURT),45 YUE KWONG RD|漁暉苑,1期,E座(景暉閣),45 漁光道",HA,4947456,12884,384,5309952,13642,384,5935135,14855,419,5,14,23,"['1', '2', '3', '4', '5', '6', '7', '8']",5529560.792,13778.58333,401.5,27,216,1980/08,41,YUE FAI COURT,漁暉苑,TRUE,0,0,POINT Z (22.2499061 114.156947 0),22.2499061,114.156947
137,"YAT FAI HSE(Block B,Phase 1,YUE FAI COURT),45 YUE KWONG RD|漁暉苑,1期,B座(日暉閣),45 漁光道",HA,4630656,12059,384,5123328,12841,384,5767680,15020,419,6,14,23,"['1', '2', '3', '4', '5', '6', '7', '8']",5376636.083,13409.125,401.5,28,224,1980/04,41,YUE FAI COURT,漁暉苑,TRUE,0,0,POINT Z (22.2486357 114.1566154 0),22.2486357,114.1566154
138,"TIN FAI HSE(Block F,Phase 2,YUE FAI COURT),45 YUE KWONG RD|漁暉苑,2期,F座(天暉閣),45 漁光道",HA,5035392,12658,384,5202048,12581,384,5720607,14464,419,5,14,22,"['1', '2', '3', '4', '5', '6', '7', '8']",5392260.25,13444.54167,401.5,28,224,1981/03,40,YUE FAI COURT,漁暉苑,TRUE,0,0,POINT Z (22.2505287 114.1566386 0),22.2505287,114.1566386
139,"BROADVIEW COURT(Block 4),SHUM WAN RD|雅濤閣4座,深灣道",HA,4806580,10610,422,4912924,11266,422,7655814,12999,591,7,20,33,"['A', 'B', 'C', 'D', 'E', 'F', 'G', 'H', 'J', 'K']",6346918.233,12026.63333,527.2,37,370,2001/07,20,BROADVIEW COURT,雅濤閣,TRUE,0,0,POINT Z (22.2423903 114.1659742 0),22.2423903,114.1659742
140,"ON FAI HSE(Block D,Phase 1,YUE FAI COURT),45 YUE KWONG RD|漁暉苑,1期,D座(安暉閣),45 漁光道",HA,4902528,12113,384,5103360,12443,384,5850078,14309,419,6,14,23,"['1', '2', '3', '4', '5', '6', '7', '8']",5297224.792,13210,401.5,26,208,1980/08,41,YUE FAI COURT,漁暉苑,TRUE,0,0,POINT Z (22.2499061 114.156947 0),22.2499061,114.156947
141,"KINGSTON MANSION,HUNG SHING ST|金利豐大廈,洪聖街",HA,7571291,13741,551,7847342,14242,551,8152596,14796,551,8,16,22,"['A', 'B']",7902809.333,14342.66667,551,20,40,9999,-7978,blank,,FALSE,,,POINT Z (22.2439014 114.1563599 0),22.2439014,114.1563599
142,"TIN WAN COURT,TIN WAN ST|田灣畔,田灣街",HA,5316113.736,12058,423,5519481.55,12565,423,7739590.317,13286,561,7,16,23,"['A', 'B', 'C', 'D']",6400851.521,12770.80556,492,24,96,9999,-7978,blank,,FALSE,,,POINT Z (22.2499634 114.1492768 0),22.2499634,114.1492768
143,"SHAM WAN TOWERS(Block 2),AP LEI CHAU DR|深灣軒2座,鴨利洲徑",HA,7671972,15762,476,8127700,16661,476,22278340,22733,980,13,29,45,"['A', 'AB', 'B', 'C', 'D', 'E', 'F', 'G', 'H']",10018949.85,18001.97685,564.7777778,43,387,2004/04,17,SHAM WAN TOWERS,深灣軒,TRUE,0,0,POINT Z (22.2438379 114.1588448 0),22.2438379,114.1588448
144,"SHAM WAN TOWERS(Block 1),AP LEI CHAU DR|深灣軒1座,鴨利洲徑",HA,7075600,14440,483,7721420,15758,483,11186448,19043,591,13,29,45,"['A', 'B', 'C', 'D', 'E', 'F', 'G', 'H']",8585862.792,17131.75,501.125,43,344,2004/04,17,SHAM WAN TOWERS,深灣軒,TRUE,0,0,POINT Z (22.243799 114.1588541 0),22.243799,114.1588541
145,"SHAM WAN TOWERS(Block 3),AP LEI CHAU DR|深灣軒3座,鴨利洲徑",HA,8242014,15942,502,8494992,16368,502,23333604,22676,1029,14,30,46,"['A', 'AB', 'B', 'C', 'D', 'E', 'F', 'G', 'H']",11310212.11,18283.03704,606.3333333,44,396,2004/03,17,SHAM WAN TOWERS,深灣軒,TRUE,0,0,POINT Z (22.243799 114.1588541 0),22.243799,114.1588541
146,"BROADVIEW COURT(Block 1),SHUM WAN RD|雅濤閣1座,深灣道",HA,5238150,11145,422,5166124,11912,422,8286912,14387,591,7,20,32,"['A', 'B', 'C', 'D', 'E', 'F', 'G', 'H', 'J', 'K']",6790579.4,12872.7,527.2,38,380,2001/07,20,BROADVIEW COURT,雅濤閣,TRUE,0,0,POINT Z (22.2431797 114.164697 0),22.2431797,114.164697
147,"MEI FAI HSE(Block C,Phase 1,YUE FAI COURT),45 YUE KWONG RD|漁暉苑,1期,C座(美暉閣),45 漁光道",HA,4839931.563,12138,384,4914895.077,12326,384,5810273,13867,419,5,14,23,"['1', '2', '3', '4', '5', '6', '7', '8']",5236388.664,12703.79167,401.5,27,216,1980/08,41,YUE FAI COURT,漁暉苑,TRUE,0,0,POINT Z (22.2499061 114.156947 0),22.2499061,114.156947
148,"BROADVIEW COURT(Block 3),SHUM WAN RD|雅濤閣3座,深灣道",HA,5141648,10163,422,5349694,10787,422,7671744,13552,591,7,20,33,"['A', 'B', 'C', 'D', 'E', 'F', 'G', 'H', 'J', 'K']",6368976.8,12150.7,527.2,39,390,2001/07,20,BROADVIEW COURT,雅濤閣,TRUE,0,0,POINT Z (22.2427721 114.1656259 0),22.2427721,114.1656259
149,"OCEAN COURT(Block 2),ABERDEEN PRAYA RD|逸港居2座,香港仔海傍道",HA,4557365.676,9622,431,4760551.773,9873,431,7597415.915,12359,592,8,18,27,"['A', 'B', 'C', 'D', 'E']",5926538.665,10800.26667,527.6,25,125,1999/12,22,OCEAN COURT,逸港居,TRUE,0,0,POINT Z (22.2473548 114.1592164 0),22.2473548,114.1592164
150,"LEE FAT MANSION,MAIN ST AP LEI CHAU|利發大廈,鴨利洲大街",HA,5321702.355,12717,401,5422553.992,12958,401,5739585.11,13784,403,5,10,17,"['A', 'B']",5519834.084,13223.83333,402,18,36,1982/06,39,blank,,FALSE,,,POINT Z (22.2440186 114.1550594 0),22.2440186,114.1550594
151,"OCEAN COURT(Block 3),ABERDEEN PRAYA RD|逸港居3座,香港仔海傍道",HA,4749189,10093,431,4956500,10577,431,7180960,12130,592,8,18,27,"['A', 'B', 'C', 'D', 'E', 'F']",6206623.944,11348.5,547.1666667,28,168,1999/12,22,OCEAN COURT,逸港居,TRUE,0,0,POINT Z (22.2474854 114.159495 0),22.2474854,114.159495
152,"OCEAN COURT(Block 1),ABERDEEN PRAYA RD|逸港居1座,香港仔海傍道",HA,4407278.823,8397,431,4588881.595,8743,431,6717590.348,11188,592,8,17,26,"['A', 'B', 'C', 'D', 'E']",5576711.342,9484.733333,516,25,125,1999/12,22,OCEAN COURT,逸港居,TRUE,0,0,POINT Z (22.2472388 114.1588448 0),22.2472388,114.1588448
153,"BROADVIEW COURT(Block 2),SHUM WAN RD|雅濤閣2座,深灣道",HA,5035726,10053,422,5080700,10373,422,7535808,13145,591,7,20,32,"['A', 'B', 'C', 'D', 'E', 'F', 'G', 'H', 'J', 'K']",5990701.967,11425.26667,527.2,37,370,2001/07,20,BROADVIEW COURT,雅濤閣,TRUE,0,0,POINT Z (22.2429469 114.1650685 0),22.2429469,114.1650685
154,8 PING LAN ST|8 平瀾街,HA,5904142,18803,314,5904142,18803,314,6217200,19800,314,2,3,4,['whole floor'],6008494.667,19135.33333,314,5,5,1964/10,57,blank,,FALSE,,,POINT Z (22.2447677 114.1568694 0),22.2447677,114.1568694
155,"HUNG FUK COURT(Block B),TIN WAN NEW ST|鴻褔苑B座,田灣新街",HA,4716283,8266,405,4970069,8225,405,5570865,9396,645,8,19,29,"['1', '10', '2', '3', '4', '5', '6', '8', '9']",5170173.8,8729.533333,509.6666667,31,279,1997/11,24,HUNG FUK COURT,鴻褔苑,TRUE,0,0,POINT Z (22.251137 114.150695 0),22.251137,114.150695
156,"MAN KING BLDG,HING WO ST|萬景樓,興和街",HA,4972933.693,4941,520,5096728.642,5064,520,5224549.443,5805,584,8,13,18,"['A', 'B', 'C']",4892086.004,5167.666667,537.2222222,17,51,1974/06,47,blank,,FALSE,,,POINT Z (22.2498335 114.1478834 0),22.2498335,114.1478834
157,"JADEWATER,ABERDEEN MAIN RD|南灣御園,香港仔大道",HA,7299136,13976,496,7707344,14520,496,11017140,15852,695,12,26,38,"['A', 'B', 'C', 'D', 'E']",8963548,15151.86667,591,36,180,2008/04,13,blank,,FALSE,,,POINT Z (22.2484894 114.1523025 0),22.2484894,114.1523025
158,"LEE FAT MANSION,ABERDEEN MAIN RD|利發大廈,香港仔大道",HA,,,280,,,280,,,354,3,4,5,"['A', 'B', 'C']",,,329.3333333,3,9,1971/05,50,blank,,FALSE,,,POINT Z (22.250331 114.153841 0),22.250331,114.153841
159,"SUN MING BLDG,SHAN MING ST|新明大樓,山明街",HA,6049152,16336,356,6083328,16587,356,9750720,17412,560,2,4,6,"['A', 'B', 'C', 'D', 'E', 'F']",7556417.5,16930.94444,445.8333333,7,42,1966/03,55,blank,,FALSE,,,POINT Z (22.2443331 114.1573585 0),22.2443331,114.1573585
160,17 HUNG SHING ST|17 洪聖街,HA,,,279,,,279,,,378,3,4,6,"['B', 'C', 'D']",,,317.6666667,6,18,1968/03,53,blank,,FALSE,,,POINT Z (22.2444566 114.1559128 0),22.2444566,114.1559128
161,"HUNG LAI HSE(Block A,HUNG FUK COURT),TIN WAN NEW ST|鴻褔苑,A座(鴻麗閣),田灣新街",HA,3429540,8395,405,3587895,8712,405,5868210,9356,645,10,20,29,"['1', '10', '2', '3', '4', '5', '6', '7', '8', '9']",4549318.367,8849.633333,514.6,27,270,1997/11,24,HUNG FUK COURT,鴻褔苑,TRUE,0,0,POINT Z (22.251137 114.150695 0),22.251137,114.150695
162,"TAI TAK HSE,KA WO ST|大德樓,嘉禾街",HA,,,288,2666744.989,7064,288,,,310,2,3,4,"['2', '3', '4', '6']",2666744.989,7064,306.75,5,20,1971/03,50,blank,,FALSE,,,POINT Z (22.2498659 114.1483711 0),22.2498659,114.1483711
163,"TAI LOK HSE,SHEK PAI WAN RD|大樂樓,石排灣道",HA,,,307,,,307,,,380,3,4,5,"['1', '2', '3', '4', '5']",,,335.6666667,3,15,1971/03,50,blank,,FALSE,,,POINT Z (22.2497206 114.1481853 0),22.2497206,114.1481853
164,81 MAIN ST AP LEI CHAU|81 鴨利洲大街,HA,,,495,,,495,,,495,3,4,5,['whole floor'],,,495,2,2,1965/11,56,blank,,FALSE,,,POINT Z (22.2439202 114.1552265 0),22.2439202,114.1552265
165,"LARVOTTO(Block 3),AP LEI CHAU PRAYA RD|南灣3座,鴨利洲海旁道",HA,16919972.34,18186,764,17334923.82,18632,764,38747926,24493,1582,11,22,31,"['A', 'B', 'C']",30895886.92,22237.44444,1301.666667,26,78,2010/12,11,LARVOTTO,南灣,TRUE,0,0,POINT Z (22.2401736 114.1596309 0),22.2401736,114.1596309
166,"LARVOTTO(Block 1),AP LEI CHAU PRAYA RD|南灣1座,鴨利洲海旁道",HA,48476250,25854,1875,50930625,27163,1875,53334375,28445,2020,11,22,32,"['A', 'B']",50913750,27154,1947.5,27,54,2010/12,11,LARVOTTO,南灣,TRUE,0,0,POINT Z (22.2401736 114.1596309 0),22.2401736,114.1596309
167,"LARVOTTO(Block 5),AP LEI CHAU PRAYA RD|南灣5座,鴨利洲海旁道",HA,15555040,19335,764,16243404,20378,764,27031158,22869,1182,11,22,32,"['A', 'B', 'C']",21793743.56,21112,1032.555556,27,81,2010/12,11,LARVOTTO,南灣,TRUE,0,0,POINT Z (22.2401736 114.1596309 0),22.2401736,114.1596309
168,"LARVOTTO(Block 6),AP LEI CHAU PRAYA RD|南灣6座,鴨利洲海旁道",HA,16024900,19340,764,16775912,20253,764,25433536,22843,1189,11,22,32,"['A', 'B', 'C']",21954843.56,21169.88889,1042.111111,27,81,2010/12,11,LARVOTTO,南灣,TRUE,0,0,POINT Z (22.2401736 114.1596309 0),22.2401736,114.1596309
169,"LARVOTTO(Block 7),AP LEI CHAU PRAYA RD|南灣7座,鴨利洲海旁道",HA,15893334,20298,783,16200270,20690,783,33503787,24331,1377,11,22,32,"['A', 'B', 'C']",24984230.33,22161.88889,1116.333333,27,81,2010/12,11,LARVOTTO,南灣,TRUE,0,0,POINT Z (22.2401736 114.1596309 0),22.2401736,114.1596309
170,"LARVOTTO(Block 10),AP LEI CHAU PRAYA RD|南灣10座,鴨利洲海旁道",HA,8335866,18043,462,8683565,18755,462,23874732,22401,1071,11,22,32,"['A', 'B', 'C', 'D']",15768880.58,20192.25,762.1666667,27,108,2010/12,11,LARVOTTO,南灣,TRUE,0,0,POINT Z (22.2410147 114.1589145 0),22.2410147,114.1589145
171,"LARVOTTO(Block 8),AP LEI CHAU PRAYA RD|南灣8座,鴨利洲海旁道",HA,11229832,18842,596,11850864,19884,596,22358156,21527,1054,12,22,32,"['A', 'B', 'C', 'D']",16604694.83,20120.08333,824.5,28,112,2010/12,11,LARVOTTO,南灣,TRUE,0,0,POINT Z (22.240702 114.1592396 0),22.240702,114.1592396
172,"LARVOTTO(Block 9),AP LEI CHAU PRAYA RD|南灣9座,鴨利洲海旁道",HA,8491420,18340,463,8823391,19057,463,21560581,21056,1061,11,22,32,"['A', 'B', 'C', 'D']",15565511,19649.33333,793.5,27,108,2010/12,11,LARVOTTO,南灣,TRUE,0,0,POINT Z (22.240862 114.1590538 0),22.240862,114.1590538
173,"LARVOTTO(Block 2),AP LEI CHAU PRAYA RD|南灣2座,鴨利洲海旁道",HA,55580520.6,28547,1875,,,1875,,,1923,11,22,31,"['A', 'B']",55580520.6,28547,1899,26,52,2010/12,11,LARVOTTO,南灣,TRUE,0,0,POINT Z (22.2401736 114.1596309 0),22.2401736,114.1596309
174,"TUNG HING HSE(LEI TUNG EST),LEI TUNG EST RD|利東村(東興樓),利東村道",HA,1801212,6220,287,1866074,6441,287,2022272,6832,296,10,19,29,"['1', '16', '17', '23', '24', '25', '26', '29', '3', '30', '31', '32', '36', '5', '6', '7', '9']",1916252,6524.313725,293.7058824,29,493,1987/06,34,LEI TUNG EST,利東村,TRUE,0,0,POINT Z (22.24059 114.155296 0),22.24059,114.155296
175,132 MAIN ST AP LEI CHAU|132 鴨利洲大街,HA,3042307.7,10577,277,3024474.375,10515,277,4830472,11878,443,4,5,6,"['A', 'B', 'C', 'E', 'F']",4036499.695,11023.8,364.0666667,5,25,1966/06,55,blank,,FALSE,,,POINT Z (22.2439202 114.1552265 0),22.2439202,114.1552265
176,"TUNG ON HSE(LEI TUNG EST),LEI TUNG EST RD|利東村(東安樓),利東村道",HA,2931033,7693,381,3025521,7941,381,4161080,8838,490,12,21,30,"['10', '13', '14', '15', '18', '19', '2', '22', '4', '5']",3589557.981,8307.703704,413.7,25,250,1988/06,33,LEI TUNG EST,利東村,TRUE,0,0,POINT Z (22.2407409 114.1570547 0),22.2407409,114.1570547
177,"TUNG SING HSE(LEI TUNG EST),LEI TUNG EST RD|利東村(東昇樓),利東村道",HA,2699385,7085,381,2901696,7616,381,3989580,8355,490,9,20,30,"['11', '12', '13', '14', '15', '17', '18', '22', '23', '24', '5', '8', '9']",3190026.026,7862.205128,406.1538462,32,416,1988/06,33,LEI TUNG EST,利東村,TRUE,0,0,POINT Z (22.241485 114.1566154 0),22.241485,114.1566154
178,"MARINELLA(Block 6),WELFARE RD|深灣9號6座,惠福道",HA,55270865,32436,1703,59683338,34848,1703,72577545.21,37618,1858,8,19,29,"['A', 'B']",63528022.59,34980,1780.5,27,54,2012/04,9,MARINELLA,深灣9號,TRUE,0,0,POINT Z (22.2460193 114.1636832 0),22.2460193,114.1636832
179,"MARINELLA(Block 8),WELFARE RD|深灣9號8座,惠福道",HA,30483459,27537,1107,32450598,29314,1107,43617954,32478,1343,8,19,29,"['A', 'B', 'C']",37607508.11,30271.33333,1240,27,81,2012/04,9,MARINELLA,深灣9號,TRUE,0,0,POINT Z (22.2460193 114.1636832 0),22.2460193,114.1636832
180,"MARINELLA(Block 9),WELFARE RD|深灣9號9座,惠福道",HA,21343193.78,18502,596,22569429.59,19565,596,48294880.51,30319,1534,8,18,28,"['A', 'B', 'C']",34802806.77,25382.11111,1126.333333,26,78,2012/04,9,MARINELLA,深灣9號,TRUE,0,0,POINT Z (22.2460193 114.1636832 0),22.2460193,114.1636832
181,"MARINELLA(Block 3),WELFARE RD|深灣9號3座,惠福道",HA,30258800,26686,1100,32016600,29106,1100,42989136,31286,1388,8,19,29,"['A', 'B', 'C']",36758357.67,29319.44444,1252.333333,27,81,2012/04,9,MARINELLA,深灣9號,TRUE,0,0,POINT Z (22.2460193 114.1636832 0),22.2460193,114.1636832
182,"MARINELLA(Block 1),WELFARE RD|深灣9號1座,惠福道",HA,39870929.34,21639,1421,42190499.34,23294,1421,96670771.34,30152,2000,8,18,28,"['A', 'B']",66193208.16,25945.33333,1710.5,26,52,2012/04,9,MARINELLA,深灣9號,TRUE,0,0,POINT Z (22.2460193 114.1636832 0),22.2460193,114.1636832
183,"MARINELLA(Block 2),WELFARE RD|深灣9號2座,惠福道",HA,34296603.1,26234,1121,36757005.9,28116,1121,59423032.66,37051,1317,8,19,29,"['A', 'B', 'C']",45797002.59,31149,1232.333333,27,81,2012/04,9,MARINELLA,深灣9號,TRUE,0,0,POINT Z (22.2460193 114.1636832 0),22.2460193,114.1636832
184,174-176 ABERDEEN MAIN RD|174-176 香港仔大道,HA,3590888.353,8547,283,3556857.47,8466,283,3616936.683,10321,350,2,3,4,"['A', 'B', 'D']",3490900.842,8826,326,5,15,1968/01,53,blank,,FALSE,,,POINT Z (22.2485078 114.155716 0),22.2485078,114.155716
185,"TUNG PING HSE(LEI TUNG EST),LEI TUNG EST RD|利東村(東平樓),利東村道",HA,2672334,7014,381,2800731,7351,381,4116490,8401,490,9,19,28,"['1', '13', '15', '23', '4', '5', '6']",3336622,7765.666667,427.7142857,27,189,1987/10,34,LEI TUNG EST,利東村,TRUE,0,0,POINT Z (22.2419349 114.1576372 0),22.2419349,114.1576372
186,"TUNG YAT HSE(LEI TUNG EST),LEI TUNG EST RD|利東村(東逸樓),利東村道",HA,2758440,7240,381,3040380,7980,381,4288480,8752,490,9,18,26,"['1', '15', '18', '19', '23', '3', '4', '5', '6', '7', '9']",3250750.697,8094.212121,400.8181818,25,275,1988/07,33,LEI TUNG EST,利東村,TRUE,0,0,POINT Z (22.2406848 114.157823 0),22.2406848,114.157823
187,"TUNG CHEONG HSE(LEI TUNG EST),LEI TUNG EST RD|利東村(東昌樓),利東村道",HA,2788539,7312,381,2924937,7677,381,4021920,8208,490,9,19,29,"['1', '11', '12', '13', '17', '19', '21', '22', '24', '6']",3203816.9,7742.866667,413.7,29,290,1987/01,34,LEI TUNG EST,利東村,TRUE,0,0,POINT Z (22.2416169 114.1540655 0),22.2416169,114.1540655
188,"TUNG YIP HSE(LEI TUNG EST),LEI TUNG EST RD|利東村(東業樓),利東村道",HA,2623566,6886,381,2768727,7267,381,4102770,8650,490,10,20,30,"['1', '10', '14', '16', '18', '19', '21', '22', '24', '4', '7', '8', '9']",3109706.538,7810.025641,397.7692308,28,364,1987/01,34,LEI TUNG EST,利東村,TRUE,0,0,POINT Z (22.2411576 114.1543615 0),22.2411576,114.1543615
189,"MARINELLA,WELFARE RD|深灣9號,惠福道",HA,122363325,47465,2565,122363325,47465,2565,212108274.5,56403,3622,0,0,0,"['1', '10', '11', '12', '16', '18', '2', '3', '6', '8']",158726825.1,52010.44444,2944.1,1,10,2012/04,9,MARINELLA,深灣9號,TRUE,0,0,POINT Z (22.2460193 114.1636832 0),22.2460193,114.1636832
190,"TUNG MAU HSE(LEI TUNG EST),LEI TUNG EST RD|利東村(東茂樓),利東村道",HA,1715686,5928,287,1773947,6181,287,2207352,7508,296,9,19,29,"['11', '13', '14', '15', '18', '19', '2', '20', '22', '24', '26', '3', '32', '34', '5', '7', '9']",1993319.922,6842.823529,291.2941176,29,493,1987/06,34,LEI TUNG EST,利東村,TRUE,0,0,POINT Z (22.241631 114.1556865 0),22.241631,114.1556865
191,"H. BONAIRE,MAIN ST AP LEI CHAU|倚南,鴨利洲大街",HA,6869760,20047,320,7229440,21306,320,15542440,25494,674,8,19,29,"['A', 'B', 'C', 'D']",11354303,22620,502.75,27,108,2016/10,5,blank,,FALSE,,,POINT Z (22.2442365 114.1556764 0),22.2442365,114.1556764
192,58 MAIN ST AP LEI CHAU|58 鴨利洲大街,HA,,,377,,,377,,,377,3,3,3,['whole floor'],,,377,1,1,1976/04,45,blank,,FALSE,,,POINT Z (22.2439202 114.1552265 0),22.2439202,114.1552265
193,26 MAIN ST AP LEI CHAU|26 鴨利洲大街,HA,6229938,19591,318,6256968,19676,318,6317070,19865,318,2,3,4,['whole floor'],6267992,19710.66667,318,3,3,1964/10,57,blank,,FALSE,,,POINT Z (22.2439202 114.1552265 0),22.2439202,114.1552265
194,31 TUNG SING RD|31 東勝道,HA,,,429,,,429,,,498,4,6,6,"['1', '3', '4', '5', '6']",,,468,4,20,1962/03,59,blank,,FALSE,,,POINT Z (22.2488412 114.1552623 0),22.2488412,114.1552623
195,"SOUTH COAST,TANG FUNG ST|登峰南岸,登豐街",HA,3998162,18683,214,,,214,,,606,22,68,102,"['A', 'B', 'BC', 'C', 'D', 'E', 'EF', 'F']",7615413.577,20056,377.625,96,768,2016/11,5,blank,,FALSE,,,POINT Z (22.2493987 114.1495351 0),22.2493987,114.1495351
196,210-210A ABERDEEN MAIN RD|210-210A 香港仔大道,HA,,,354,,,354,,,354,2,2,3,['B'],,,354,2,2,1971/10,50,blank,,FALSE,,,POINT Z (22.2485078 114.155716 0),22.2485078,114.155716
197,4 TANG FUNG ST|4 登豐街,HA,,,564,,,564,,,564,4,4,4,['whole floor'],,,564,1,1,1958/04,63,blank,,FALSE,,,POINT Z (22.2494513 114.1491161 0),22.2494513,114.1491161
198,"MARINA SOUTH(Block 1),AP LEI CHAU DR|南區．左岸1座,鴨利洲徑",HA,,,1787,,,1787,,,3657,21,67,102,"['A', 'AB', 'B']",,,2438,97,291,2016/06,5,MARINA SOUTH,南區．左岸,TRUE,0,0,POINT Z (22.2430567 114.1589563 0),22.2430567,114.1589563
199,"MARINA SOUTH(Block 2),AP LEI CHAU DR|南區．左岸2座,鴨利洲徑",HA,57986149,26975,1787,71565896,28655,1787,135013047.8,40306,3694,8,18,28,"['A', 'AB', 'B']",92469178.83,33178.16667,2462.666667,28,84,2016/06,5,MARINA SOUTH,南區．左岸,TRUE,0,0,POINT Z (22.2430567 114.1589563 0),22.2430567,114.1589563
200,11 TUNG SING RD|11 東勝道,HA,,,598,,,598,,,598,2,2,2,['whole floor'],,,598,1,1,1953/07,68,blank,,FALSE,,,POINT Z (22.2488412 114.1552623 0),22.2488412,114.1552623
201,18 WU PAK ST|18 湖北街,HA,8045545.958,13022,595,8056049.281,13039,595,8101151.789,13112,595,3,4,5,['whole floor'],8067582.343,13057.66667,595,3,3,1966/05,55,blank,,FALSE,,,POINT Z (22.2481534 114.1548009 0),22.2481534,114.1548009
202,9 TUNG SING RD|9 東勝道,HA,,,598,,,598,,,598,2,2,3,['whole floor'],,,598,2,2,1953/07,68,blank,,FALSE,,,POINT Z (22.2488412 114.1552623 0),22.2488412,114.1552623
203,69 MAIN ST AP LEI CHAU|69 鴨利洲大街,HA,,,821,,,821,,,821,5,5,5,['whole floor'],,,821,1,1,1963/04,58,blank,,FALSE,,,POINT Z (22.2439202 114.1552265 0),22.2439202,114.1552265
204,16 WU PAK ST|16 湖北街,HA,,,595,,,595,,,595,5,5,5,['whole floor'],,,595,1,1,1966/05,55,blank,,FALSE,,,POINT Z (22.2481534 114.1548009 0),22.2481534,114.1548009
205,106 ABERDEEN MAIN RD|106 香港仔大道,HA,,,377,,,377,,,377,3,4,4,['whole floor'],,,377,4,4,1985/03,36,blank,,FALSE,,,POINT Z (22.2485078 114.155716 0),22.2485078,114.155716
206,"SOUTH WALK．AURA,TIN WAN ST|南津．迎岸,田灣街",HA,3537891,18719,183,3739738,19277,183,6269900,27096,265,7,16,24,"['A', 'B', 'C', 'D', 'E', 'F']",4892807.667,22884.44444,214.0555556,23,138,2019/06,2,blank,,FALSE,,,POINT Z (22.2495096 114.1492778 0),22.2495096,114.1492778
207,32 MAIN ST AP LEI CHAU|32 鴨利洲大街,HA,,,494,,,494,,,494,4,4,4,['whole floor'],,,494,1,1,1964/12,57,blank,,FALSE,,,POINT Z (22.2439202 114.1552265 0),22.2439202,114.1552265
208,30 MAIN ST AP LEI CHAU|30 鴨利洲大街,HA,,,1943,,,1943,,,970,2,2,4,['whole floor'],,,1618.666667,4,4,1964/12,57,blank,,FALSE,,,POINT Z (22.2439202 114.1552265 0),22.2439202,114.1552265
209,124 MAIN ST AP LEI CHAU|124 鴨利洲大街,HA,,,513,,,513,,,513,5,5,5,['whole floor'],,,513,1,1,1975/08,46,blank,,FALSE,,,POINT Z (22.2439202 114.1552265 0),22.2439202,114.1552265
210,126 MAIN ST AP LEI CHAU|126 鴨利洲大街,HA,,,513,,,513,,,513,1,2,3,['whole floor'],,,513,3,3,1975/08,46,blank,,FALSE,,,POINT Z (22.2439202 114.1552265 0),22.2439202,114.1552265
211,120 MAIN ST AP LEI CHAU|120 鴨利洲大街,HA,,,512,,,512,,,512,2,2,2,['whole floor'],,,512,1,1,1967/04,54,blank,,FALSE,,,POINT Z (22.2439202 114.1552265 0),22.2439202,114.1552265
