,final_address,district,lowZone_value,lowZone_npsf_min,lowZone_nfa_min,midZone_value,midZone_npsf_min,midZone_nfa_min,highZone_value,highZone_npsf_max,highZone_nfa_max,oneSixth_floor,middle_floor,fifthSixth_floor,unit_list,value_avg,npsf_avg,unitSize_avg,noStorey,noFlat,op_date,bldgAge,est_name_en,est_name_ch,est_orNot,est_bldgNo,est_flatNo,final_coords,lat,long
0,"ABBA HSE(Block B),ABERDEEN MAIN RD|福群大樓B座,香港仔大道",HA,4652775.0,14240.0,305.0,4865665.0,14832.0,305.0,7609950.0,16911.0,450.0,10.0,19.0,28.0,"['1', '2', '3', '4', '5', '6', '7', '8']",5779909.583333333,15778.208333333334,366.875,29,232,1983/03,38,ABBA HSE,福群大樓,True,2.0,464.0,POINT Z (22.2483297 114.1525978 0),22.2483297,114.1525978
1,"YEE TSUI COURT(Block 16,Phase 2,SOUTH HORIZONS),16 SOUTH HORIZON DR|海怡半島,2期,16座(怡翠閣),16 海怡路",HA,8757500.0,14012.0,625.0,8836875.0,14139.0,625.0,16806534.0,18969.0,897.0,8.0,20.0,33.0,"['A', 'B', 'C', 'D', 'E', 'F', 'G', 'H']",12276023.125,15942.041666666666,760.875,40,320,1993/00,28,SOUTH HORIZONS,海怡半島,True,34.0,9921.0,POINT Z (22.2431304 114.1465931 0),22.2431304,114.14659309999999
2,"COBLE COURT,MAIN ST AP LEI CHAU|高寶閣,鴨利洲大街",HA,4281075.0,13932.0,265.0,4336725.0,14485.0,265.0,5887870.0,16747.0,395.0,6.0,13.0,20.0,"['A', 'B', 'C', 'D', 'E', 'F', 'G', 'H']",5258917.958333333,15173.916666666666,348.875,23,184,1987/02,34,blank,,False,,,POINT Z (22.2434521 114.1545021 0),22.243452100000003,114.1545021
3,"MEI WAH COURT(Block 22,Phase 3,SOUTH HORIZONS),22 SOUTH HORIZON DR|海怡半島,3期,22座(美華閣),22 海怡路",HA,8304840.0,14076.0,589.0,9330260.0,15814.0,589.0,17017728.0,18993.0,896.0,7.0,18.0,30.0,"['A', 'B', 'C', 'D', 'E', 'F', 'G', 'H']",12518502.416666666,16768.791666666668,739.75,36,288,1994/08,27,SOUTH HORIZONS,海怡半島,True,34.0,9921.0,POINT Z (22.2429446 114.1475257 0),22.2429446,114.1475257
4,"YEE FAI COURT(Block 13A,Phase 2,SOUTH HORIZONS),13A SOUTH HORIZON DR|海怡半島,2期,13A座(怡暉閣),13A 海怡路",HA,9600864.0,15175.0,624.0,9758848.0,15296.0,624.0,18677334.0,20822.0,897.0,8.0,20.0,33.0,"['A', 'B', 'C', 'D', 'E', 'F', 'G', 'H']",13782180.416666666,17840.791666666668,760.375,40,320,1993/07,28,SOUTH HORIZONS,海怡半島,True,34.0,9921.0,POINT Z (22.2432615 114.1457236 0),22.2432615,114.1457236
5,"CAMBRIDGE COURT(Block 33A,Phase 4,SOUTH HORIZONS),33A YI NAM RD|海怡半島,4期,33A座(御翠居),33A 怡南路",HA,7716420.0,14670.0,526.0,8192449.999999999,15199.0,526.0,10627166.0,16657.0,656.0,10.0,18.0,26.0,"['A', 'B', 'C', 'D', 'E', 'F', 'G', 'H']",9389186.419047618,15678.285714285716,591.25,25,200,1995/03,26,SOUTH HORIZONS,海怡半島,True,34.0,9921.0,POINT Z (22.2429142 114.1491839 0),22.242914199999998,114.14918390000001
6,"KIN FAI BLDG,ABERDEEN MAIN RD|建輝大廈,香港仔大道",HA,4285120.0,14200.0,280.0,4239760.0,14332.0,280.0,5103000.0,16200.0,315.0,7.0,13.0,19.0,"['A', 'B', 'C', 'D', 'E', 'F']",4572118.444444444,15394.022222222222,291.6666666666667,19,114,1979/11,42,blank,,False,,,POINT Z (22.2478893 114.1587287 0),22.2478893,114.1587287
7,"YEE KING COURT(Block 8,Phase 2,SOUTH HORIZONS),8 SOUTH HORIZON DR|海怡半島,2期,8座(怡景閣),8 海怡路",HA,10079619.0,15531.0,648.0,10502784.0,16208.0,648.0,32949048.0,21864.0,1507.0,8.0,21.0,34.0,"['A', 'AB', 'B', 'C', 'D', 'E', 'F', 'G', 'H']",14486268.481481483,17437.703703703704,813.888888888889,41,369,1992/10,29,SOUTH HORIZONS,海怡半島,True,34.0,9921.0,POINT Z (22.2443926 114.1450302 0),22.2443926,114.14503020000001
8,"YEE LOK COURT(Block 13,Phase 2,SOUTH HORIZONS),13 SOUTH HORIZON DR|海怡半島,2期,13座(怡樂閣),13 海怡路",HA,8740035.0,13635.0,631.0,8936822.0,13942.0,631.0,13251293.0,17413.0,763.0,6.0,17.0,28.0,"['A', 'B', 'C', 'D', 'E', 'F', 'G', 'H']",10489151.25,15641.666666666666,668.625,33,264,1992/10,29,SOUTH HORIZONS,海怡半島,True,34.0,9921.0,POINT Z (22.2436581 114.1456689 0),22.2436581,114.1456689
9,"ABBA HSE(Block A),ABERDEEN MAIN RD|福群大樓A座,香港仔大道",HA,4718045.0,13834.0,305.0,4912940.0,14742.0,305.0,7051915.0,16986.0,450.0,10.0,19.0,28.0,"['1', '2', '3', '4', '5', '6', '7', '8']",5959362.083333333,15627.916666666666,383.125,29,232,1983/03,38,ABBA HSE,福群大樓,True,2.0,464.0,POINT Z (22.2482423 114.1528764 0),22.2482423,114.1528764
10,"ALBERT HSE,CHENGTU RD|添喜大廈,成都道",HA,3435005.710317854,4549.0,390.0,3953767.8389149886,5236.0,390.0,5218698.25842548,12886.0,780.0,7.0,15.0,22.0,"['A', 'AC', 'B', 'C', 'D']",4251354.374166335,7334.666666666667,468.0,21,105,1973/08,48,blank,,False,,,POINT Z (22.248646 114.154863 0),22.248646,114.15486299999999
11,"MEI HIN COURT(Block 23,Phase 3,SOUTH HORIZONS),23 SOUTH HORIZON DR|海怡半島,3期,23座(美軒閣),23 海怡路",HA,8926295.0,15155.0,589.0,9160340.0,15526.0,589.0,14877919.0,18809.0,791.0,7.0,20.0,33.0,"['A', 'B', 'C', 'D', 'E', 'F', 'G', 'H']",11387310.833333334,16449.25,687.875,39,312,1994/08,27,SOUTH HORIZONS,海怡半島,True,34.0,9921.0,POINT Z (22.2420243 114.1486033 0),22.2420243,114.1486033
12,"KONG FU COURT(Block E,ABERDEEN CTR),NAM NING ST|香港仔中心,E座(港富閣),南寧街",HA,5844558.0,12678.0,450.0,6259950.0,13892.0,450.0,8060527.999999999,14716.0,553.0,6.0,15.0,24.0,"['1', '2', '3', '4', '5', '6']",6812968.944444444,13953.0,488.0,27,162,1982/01,39,ABERDEEN CTR,香港仔中心,True,20.0,2778.0,POINT Z (22.249187 114.154169 0),22.249187,114.154169
13,"WAI KING COURT(Block 30,Phase 4,SOUTH HORIZONS),30 YI NAM RD|海怡半島,4期,30座(慧景閣),30 怡南路",HA,7460112.0,14013.0,528.0,7745760.0,14569.0,528.0,10850372.0,15959.0,7254.0,8.0,17.0,26.0,"['A', 'A-H', 'B', 'C', 'D', 'E', 'F', 'G', 'H']",9078514.5,15013.583333333334,1343.3333333333333,27,243,1994/12,27,SOUTH HORIZONS,海怡半島,True,34.0,9921.0,POINT Z (22.243881 114.149743 0),22.243881,114.14974299999999
14,"SHUN FUNG COURT,KA WO ST|順豐大廈,嘉禾街",HA,,,327.0,4442572.735665946,13083.0,327.0,4481283.527675876,13197.0,327.0,5.0,12.0,21.0,"['A', 'B']",4461928.131670911,13140.0,327.0,21,42,1994/11,27,blank,,False,,,POINT Z (22.2497168 114.1486429 0),22.2497168,114.1486429
15,"ON FAI BLDG,OLD MAIN ST ABERDEEN|安輝大廈,香港仔舊大街",HA,4149041.337922747,12979.0,301.0,4136851.145653726,13197.0,301.0,6316642.0,14227.0,467.0,7.0,12.0,16.0,"['A', 'B', 'C', 'D', 'E', 'F']",5639707.815462428,13412.88888888889,419.1666666666667,16,96,1977/04,44,blank,,False,,,POINT Z (22.2482727 114.1561509 0),22.248272699999998,114.15615090000001
16,"HOI YAT COURT(Block 6,Phase 1,SOUTH HORIZONS),6 SOUTH HORIZON DR|海怡半島,1期,6座(海逸閣),6 海怡路",HA,8329861.0,13723.0,600.0,8773578.0,14454.0,600.0,12727603.0,16681.0,763.0,7.0,18.0,29.0,"['A', 'B', 'C', 'D', 'E', 'F', 'G', 'H']",10311530.375,15283.916666666666,674.0,35,280,1992/03,29,SOUTH HORIZONS,海怡半島,True,34.0,9921.0,POINT Z (22.2446038 114.1462959 0),22.2446038,114.1462959
17,"FENTON COURT(Block 27,Phase 4,SOUTH HORIZONS),27 YI NAM RD|海怡半島,4期,27座(御雅居),27 怡南路",HA,7203563.0,13669.0,526.0,7519763.0,14269.0,526.0,20457684.0,19428.0,1053.0,7.0,18.0,29.0,"['A', 'A & B', 'B', 'C', 'D', 'E', 'F', 'G', 'H']",11288672.518518517,16259.555555555555,682.3333333333334,35,315,1995/07,26,SOUTH HORIZONS,海怡半島,True,34.0,9921.0,POINT Z (22.2429245 114.1500896 0),22.2429245,114.1500896
18,"KONG HING COURT(Block J,ABERDEEN CTR),NAM NING ST|香港仔中心,J座(港興閣),南寧街",HA,6116850.0,13546.0,450.0,6275700.0,13946.0,450.0,8455370.0,15290.0,553.0,6.0,15.0,24.0,"['1', '2', '3', '4', '5', '6']",6990958.111111112,14297.888888888889,488.0,27,162,1981/12,40,ABERDEEN CTR,香港仔中心,True,20.0,2778.0,POINT Z (22.2491936 114.1537589 0),22.2491936,114.15375890000001
19,"MAY COURT,OLD MAIN ST ABERDEEN|美倫閣,香港仔舊大街",HA,4562376.0,14623.0,312.0,4684680.0,15015.0,312.0,5192304.0,16642.0,312.0,7.0,15.0,22.0,"['A', 'B']",4905264.0,15722.0,312.0,23,46,1996/11,25,blank,,False,,,POINT Z (22.2475454 114.1561441 0),22.2475454,114.15614409999999
20,"GRANDVIEW GARDEN(Block 1),NAM LONG SHAN RD|金寶花園1座,南朗山道",HA,4755234.0,14542.0,307.0,5136080.0,15189.0,307.0,5844520.0,17770.0,370.0,6.0,14.0,21.0,"['A', 'B', 'C', 'D', 'E', 'F']",5296673.888888889,16073.77777777778,330.5,24,144,1985/03,36,GRANDVIEW GARDEN,金寶花園,True,2.0,294.0,POINT Z (22.244926 114.16684 0),22.244926,114.16684
21,"KONG KAI BLDG,ABERDEEN MAIN RD|港基大廈,香港仔大道",HA,4820190.0,13578.0,355.0,4918525.0,13855.0,355.0,5176610.0,14582.0,355.0,6.0,13.0,20.0,"['A', 'B']",4993193.333333333,14065.333333333334,355.0,21,42,1990/01,31,blank,,False,,,POINT Z (22.2496212 114.1554774 0),22.2496212,114.1554774
22,"EVER SECURE MANSION,KA WO ST|永穩大廈,嘉禾街",HA,4108091.6793541657,11988.0,330.0,4198560.164785388,12252.0,330.0,4293826.221413721,12530.0,330.0,6.0,11.0,16.0,"['A', 'B']",4200730.494612653,12258.333333333334,330.0,15,30,1986/01,35,blank,,False,,,POINT Z (22.2498077 114.148464 0),22.249807699999998,114.14846399999999
23,"YEE WAN COURT(Block 15,Phase 2,SOUTH HORIZONS),15 SOUTH HORIZON DR|海怡半島,2期,15座(怡韻閣),15 海怡路",HA,8953125.0,14279.0,625.0,9307500.0,14892.0,625.0,18162456.0,20248.0,897.0,8.0,20.0,33.0,"['A', 'B', 'C', 'D', 'E', 'F', 'G', 'H']",13050492.875,16877.333333333332,759.5,40,320,1993/07,28,SOUTH HORIZONS,海怡半島,True,34.0,9921.0,POINT Z (22.243179 114.146127 0),22.243179,114.146127
24,"PAK KING COURT(Block 31,Phase 4,SOUTH HORIZONS),31 YI NAM RD|海怡半島,4期,31座(柏景閣),31 怡南路",HA,7592256.0,14040.0,523.0,7940342.0,14524.0,523.0,10966529.0,16151.0,688.0,8.0,16.0,25.0,"['A', 'B', 'C', 'D', 'E', 'F', 'G', 'H']",9122303.125,15196.708333333334,600.125,26,208,1994/12,27,SOUTH HORIZONS,海怡半島,True,34.0,9921.0,POINT Z (22.243803 114.150128 0),22.243803,114.15012800000001
25,"MARINA HABITAT(Block 2),YUET HOI ST|悅海華庭2座,悅海街",HA,6209308.0,14137.0,422.0,6409697.0,14979.0,422.0,9957090.0,16458.0,605.0,10.0,24.0,37.0,"['A', 'B', 'C', 'D', 'E', 'F', 'G', 'H']",7657434.625,15479.083333333334,495.25,42,336,1998/05,23,MARINA HABITAT,悅海華庭,True,3.0,992.0,POINT Z (22.244175 114.154286 0),22.244175,114.15428600000001
26,"MEI CHUN COURT(Block 21,Phase 3,SOUTH HORIZONS),21 SOUTH HORIZON DR|海怡半島,3期,21座(美浚閣),21 海怡路",HA,9337212.0,15588.0,589.0,9438230.0,15997.0,589.0,16904880.0,19080.0,896.0,7.0,18.0,30.0,"['A', 'B', 'C', 'D', 'E', 'F', 'G', 'H']",12736989.416666666,17050.375,740.375,36,288,1993/12,28,SOUTH HORIZONS,海怡半島,True,34.0,9921.0,POINT Z (22.2420248 114.1477673 0),22.242024800000003,114.1477673
27,"YEE MEI COURT(Block 7,Phase 2,SOUTH HORIZONS),7 SOUTH HORIZON DR|海怡半島,2期,7座(怡美閣),7 海怡路",HA,9499000.0,13897.0,644.0,9685060.0,14599.0,644.0,12736095.0,16869.0,760.0,8.0,22.0,35.0,"['A', 'B', 'C', 'D', 'E', 'F', 'G', 'H']",11258122.458333334,15441.958333333334,728.625,42,336,1992/10,29,SOUTH HORIZONS,海怡半島,True,34.0,9921.0,POINT Z (22.2446716 114.145352 0),22.2446716,114.145352
28,"EATON COURT(Block 26,Phase 4,SOUTH HORIZONS),26 YI NAM RD|海怡半島,4期,26座(御盈居),26 怡南路",HA,7503426.0,14238.0,526.0,7884974.0,14962.0,526.0,13314400.0,17800.0,748.0,7.0,18.0,29.0,"['A', 'B', 'C', 'D', 'E', 'F', 'G', 'H']",10188041.916666666,15927.458333333334,636.0,35,280,1995/03,26,SOUTH HORIZONS,海怡半島,True,34.0,9921.0,POINT Z (22.2427306 114.1496813 0),22.2427306,114.14968130000001
29,"MARINA HABITAT(Block 3),YUET HOI ST|悅海華庭3座,悅海街",HA,6403850.0,13287.0,422.0,6548174.0,14006.0,422.0,9550530.0,17175.0,605.0,10.0,23.0,36.0,"['A', 'B', 'C', 'D', 'E', 'F', 'G', 'H']",7623533.25,15503.625,495.25,41,328,1998/05,23,MARINA HABITAT,悅海華庭,True,3.0,992.0,POINT Z (22.2442833 114.1546303 0),22.244283300000003,114.15463030000001
30,"DOVER COURT(Block 25,Phase 4,SOUTH HORIZONS),25 YI NAM RD|海怡半島,4期,25座(御柳居),25 怡南路",HA,7824896.0,14848.0,526.0,8155630.000000001,15505.0,526.0,12782572.0,17089.0,748.0,7.0,18.0,29.0,"['A', 'B', 'C', 'D', 'E', 'F', 'G', 'H']",10119726.291666666,15894.5,635.25,35,280,1995/03,26,SOUTH HORIZONS,海怡半島,True,34.0,9921.0,POINT Z (22.2425571 114.1494557 0),22.242557100000003,114.1494557
31,"SILVER MANSION,SHEK PAI WAN RD|兆暉大廈,石排灣道",HA,5079853.224988069,12322.0,397.0,5282684.566222783,12814.0,397.0,5658044.0,14252.0,397.0,6.0,15.0,24.0,"['A', 'B']",5363563.653699568,13264.0,397.0,27,54,1997/02,24,blank,,False,,,POINT Z (22.2493714 114.1487427 0),22.249371399999998,114.14874270000001
32,"YEE MOON COURT(Block 12,Phase 2,SOUTH HORIZONS),12 SOUTH HORIZON DR|海怡半島,2期,12座(怡滿閣),12 海怡路",HA,9054850.0,14350.0,631.0,9647359.0,15143.0,631.0,12669382.0,16399.0,781.0,6.0,17.0,28.0,"['A', 'B', 'C', 'D', 'E', 'F', 'G', 'H']",10396642.5,15482.083333333334,671.0,33,264,1992/10,29,SOUTH HORIZONS,海怡半島,True,34.0,9921.0,POINT Z (22.243179 114.146127 0),22.243179,114.146127
33,"YEE LAI COURT(Block 10,Phase 2,SOUTH HORIZONS),10 SOUTH HORIZON DR|海怡半島,2期,10座(怡麗閣),10 海怡路",HA,9646736.0,14864.0,648.0,10219803.0,15747.0,648.0,17075352.0,19229.0,893.0,8.0,22.0,35.0,"['A', 'B', 'C', 'D', 'E', 'F', 'G', 'H']",13659129.958333334,17056.708333333332,796.25,42,336,1992/10,29,SOUTH HORIZONS,海怡半島,True,34.0,9921.0,POINT Z (22.243875 114.144527 0),22.243875,114.144527
34,"MARINA HABITAT(Block 1),YUET HOI ST|悅海華庭1座,悅海街",HA,6520322.0,14136.0,422.0,5966658.0,13341.0,422.0,9673950.0,15990.0,605.0,10.0,23.0,36.0,"['A', 'B', 'C', 'D', 'E', 'F', 'G', 'H']",7551354.333333333,15284.583333333334,495.25,41,328,1998/05,23,MARINA HABITAT,悅海華庭,True,3.0,992.0,POINT Z (22.2440158 114.1538286 0),22.2440158,114.15382859999998
35,"HOI NGAR COURT(Block 3,Phase 1,SOUTH HORIZONS),3 SOUTH HORIZON DR|海怡半島,1期,3座(海雅閣),3 海怡路",HA,8793002.0,14414.0,600.0,9170499.0,15009.0,600.0,22125293.0,18091.0,1223.0,7.0,18.0,29.0,"['A', 'B', 'C', 'D', 'E', 'EF', 'F', 'G', 'H']",11627768.666666666,15655.296296296297,735.0,35,315,1991/11,30,SOUTH HORIZONS,海怡半島,True,34.0,9921.0,POINT Z (22.2447503 114.1473493 0),22.2447503,114.1473493
36,"HOI FAI COURT(Block 2,Phase 1,SOUTH HORIZONS),2 SOUTH HORIZON DR|海怡半島,1期,2座(海暉閣),2 海怡路",HA,7088389.0,13151.0,526.0,7412867.0,13753.0,526.0,10752132.0,16827.0,652.0,8.0,20.0,33.0,"['A', 'B', 'C', 'D', 'E', 'F', 'G', 'H']",8528281.5,15265.125,559.0,40,320,1991/11,30,SOUTH HORIZONS,海怡半島,True,34.0,9921.0,POINT Z (22.244541 114.147874 0),22.244541,114.147874
37,"FULL JADE MANSION,SHEK PAI WAN RD|富澤大廈,石排灣道",HA,3973778.9999999995,15689.0,243.0,4035744.0,16198.0,243.0,4450856.0,17926.0,262.0,5.0,12.0,20.0,"['A', 'B', 'C', 'D']",4188475.0833333335,16789.666666666668,249.66666666666666,24,96,1992/06,29,blank,,False,,,POINT Z (22.2495028 114.1479066 0),22.249502800000002,114.14790659999998
38,"MEI KA COURT(Block 23A,Phase 3,SOUTH HORIZONS),23A SOUTH HORIZON DR|海怡半島,3期,23A座(美家閣),23A 海怡路",HA,8527542.0,14478.0,589.0,8997318.0,15147.0,589.0,14359011.0,18217.0,791.0,7.0,20.0,33.0,"['A', 'B', 'C', 'D', 'E', 'F', 'G', 'H']",11209741.083333334,16204.958333333334,687.875,39,312,1994/02,27,SOUTH HORIZONS,海怡半島,True,34.0,9921.0,POINT Z (22.2421636 114.1488258 0),22.2421636,114.1488258
39,"GRANDVIEW GARDEN(Block 2),NAM LONG SHAN RD|金寶花園2座,南朗山道",HA,5334432.0,15573.0,307.0,5485169.0,15957.0,307.0,6315263.0,18539.0,373.0,6.0,14.0,22.0,"['A', 'B', 'C', 'D', 'E', 'F']",5752421.0,17192.333333333332,335.5,25,150,1985/03,36,GRANDVIEW GARDEN,金寶花園,True,2.0,294.0,POINT Z (22.244926 114.16684 0),22.244926,114.16684
40,"YEE ON BLDG,MAIN ST AP LEI CHAU|怡安大廈,鴨利洲大街",HA,4723400.0,12430.0,380.0,4900860.0,12897.0,380.0,5142160.0,13532.0,380.0,7.0,12.0,18.0,"['A', 'B']",4973756.666666667,13088.833333333334,380.0,18,36,1984/09,37,blank,,False,,,POINT Z (22.2433801 114.1535731 0),22.2433801,114.15357309999999
41,"HOI LEE BLDG,MAIN ST AP LEI CHAU|海利大廈,鴨利洲大街",HA,4306760.0,16028.0,268.0,4480424.0,16166.0,268.0,5177928.0,17827.0,300.0,5.0,12.0,19.0,"['A', 'B', 'C', 'D']",4799141.333333333,16999.666666666668,282.5,23,92,1991/09,30,blank,,False,,,POINT Z (22.2440977 114.1562206 0),22.244097699999998,114.1562206
42,"HOI NING COURT(Block 5,Phase 1,SOUTH HORIZONS),5 SOUTH HORIZON DR|海怡半島,1期,5座(海寧閣),5 海怡路",HA,8737800.0,13980.0,600.0,9285600.0,14668.0,600.0,11438672.0,16848.0,742.0,7.0,18.0,29.0,"['A', 'B', 'C', 'D', 'E', 'F', 'G', 'H']",10159892.541666666,15269.791666666666,666.75,35,280,1991/11,30,SOUTH HORIZONS,海怡半島,True,34.0,9921.0,POINT Z (22.244734 114.146632 0),22.244734,114.14663200000001
43,"MEI HAY COURT(Block 18,Phase 3,SOUTH HORIZONS),18 SOUTH HORIZON DR|海怡半島,3期,18座(美晞閣),18 海怡路",HA,8300777.000000001,14093.0,589.0,8654120.0,14668.0,589.0,16582468.0,18466.0,1263.0,8.0,20.0,33.0,"['A', 'B', 'C', 'D', 'E', 'E & F', 'F', 'G', 'H']",10716462.833333334,15718.791666666666,739.888888888889,40,360,1993/12,28,SOUTH HORIZONS,海怡半島,True,34.0,9921.0,POINT Z (22.2427771 114.1478342 0),22.2427771,114.14783419999999
44,"MEI FAI COURT(Block Q,ABERDEEN CTR),NAM NING ST|香港仔中心,Q座(美輝閣),南寧街",HA,7834750.0,12950.0,605.0,8126965.0,13433.0,605.0,10321920.0,14336.0,720.0,7.0,15.0,22.0,"['1', '2', '3', '4']",9047499.583333334,13640.166666666666,662.5,23,92,1981/05,40,ABERDEEN CTR,香港仔中心,True,20.0,2778.0,POINT Z (22.2482784 114.1532016 0),22.2482784,114.15320159999999
45,"ABERDEEN HARBOUR MANSION,ABERDEEN MAIN RD|雙喜大廈,香港仔大道",HA,4721724.0,12133.0,369.0,4881132.0,12350.0,369.0,11590217.568715546,14401.0,788.0,7.0,12.0,18.0,"['A', 'AB', 'B', 'C', 'D', 'E', 'E & F', 'F', 'G', 'H', 'I', 'J', 'K']",6284802.071812547,13133.570512820514,466.8205128205129,17,221,1972/10,49,blank,,False,,,POINT Z (22.2475013 114.1577301 0),22.2475013,114.1577301
46,"PORT CTR,CHENGTU RD|利港中心,成都道",HA,5807019.0,14129.0,411.0,5991558.0,14390.0,411.0,7170144.0,15873.0,456.0,9.0,16.0,22.0,"['A', 'B', 'C', 'D', 'E', 'F', 'G', 'H']",6542106.875,15093.333333333334,433.5,22,176,1989/07,32,blank,,False,,,POINT Z (22.2490583 114.1550362 0),22.2490583,114.1550362
47,"YEE NGAR COURT(Block 9,Phase 2,SOUTH HORIZONS),9 SOUTH HORIZON DR|海怡半島,2期,9座(怡雅閣),9 海怡路",HA,9633816.0,14867.0,648.0,10147764.0,15636.0,648.0,13576410.0,17992.0,755.0,8.0,22.0,35.0,"['A', 'B', 'C', 'D', 'E', 'F', 'G', 'H']",12025222.666666666,16477.041666666668,728.7083333333334,42,336,1992/10,29,SOUTH HORIZONS,海怡半島,True,34.0,9921.0,POINT Z (22.2440632 114.1447667 0),22.2440632,114.14476670000002
48,"HUNG FOOK COURT,HUNG SHING ST|鴻福閣,洪聖街",HA,5158764.0,17667.0,292.0,5107372.0,17491.0,292.0,5110876.0,17503.0,292.0,6.0,12.0,19.0,"['A', 'B']",5113066.0,17510.5,292.0,22,44,1992/03,29,blank,,False,,,POINT Z (22.2444612 114.1561277 0),22.2444612,114.1561277
49,"KONG SHING COURT(Block F,ABERDEEN CTR),NAM NING ST|香港仔中心,F座(港盛閣),南寧街",HA,5532000.0,11525.0,450.0,5639520.0,11749.0,450.0,7042080.0,14671.0,480.0,6.0,15.0,24.0,"['1', '2', '3', '4', '5', '6']",6242412.111111111,13471.666666666666,463.6666666666667,27,162,1982/01,39,ABERDEEN CTR,香港仔中心,True,20.0,2778.0,POINT Z (22.2493679 114.1540376 0),22.249367899999996,114.1540376
50,"PAT LEUNG BLDG,LEE MAN RD|百良大廈,利民道",HA,5106370.0,13801.0,370.0,5373792.0,14292.0,370.0,5789648.0,15411.0,376.0,5.0,13.0,21.0,"['A', 'B', 'C', 'D']",5458085.0,14653.25,372.5,25,100,1986/08,35,blank,,False,,,POINT Z (22.2435479 114.1525049 0),22.2435479,114.15250490000001
51,"BILLION COURT,MAIN ST AP LEI CHAU|利豐大廈,鴨利洲大街",HA,5252959.0,13908.0,373.0,5410738.0,14119.0,373.0,6218388.0,15703.0,413.0,5.0,12.0,20.0,"['A', 'B', 'C', 'D', 'E', 'F']",5819567.833333333,14779.222222222224,394.0,24,144,1990/10,31,blank,,False,,,POINT Z (22.243282 114.1540055 0),22.243282,114.1540055
52,"HIP SING MANSION,OLD MAIN ST ABERDEEN|協勝大廈,香港仔舊大街",HA,5240324.712484141,12522.0,403.0,5514140.377164929,12983.0,403.0,5840438.563123197,13956.0,403.0,5.0,12.0,20.0,"['A', 'B']",5543959.393640129,13215.333333333334,404.0,24,48,1990/03,31,blank,,False,,,POINT Z (22.2477477 114.1560929 0),22.247747699999998,114.1560929
53,"PELENE MANSION,YUE KO ST|碧麗大廈,漁歌街",HA,3880640.0,14163.0,268.0,3972296.0,14703.0,268.0,4350008.0,15704.0,290.0,6.0,14.0,21.0,"['A', 'B', 'C', 'D', 'E', 'F']",4114917.6666666665,14782.77777777778,278.5,24,144,1979/09,42,blank,,False,,,POINT Z (22.2490628 114.1483479 0),22.2490628,114.1483479
54,"COMFORT CTR,OLD MAIN ST ABERDEEN|港暉中心,香港仔舊大街",HA,5611840.0,13990.0,380.0,5867960.0,14482.0,380.0,7783710.0,16048.0,515.0,6.0,15.0,24.0,"['A', 'B', 'C', 'D', 'E', 'F']",6432854.777777777,15046.72222222222,429.0,29,174,1992/08,29,blank,,False,,,POINT Z (22.2486215 114.1561509 0),22.2486215,114.15615090000001
55,"KAM FUNG BLDG,ABERDEEN MAIN RD|金豐大廈,香港仔大道",HA,5709110.0,13139.0,430.0,6023870.0,13895.0,430.0,8763058.0,15172.0,578.0,6.0,17.0,28.0,"['A', 'B', 'C', 'D', 'E', 'F', 'G', 'H']",6876016.125,14172.0,485.2083333333333,33,264,1986/04,35,blank,,False,,,POINT Z (22.2483749 114.1555007 0),22.248374899999998,114.1555007
56,"SOUTH VIEW GARDEN,SHEK PAI WAN RD|南景花園,石排灣道",HA,4153032.0,13832.0,261.0,4317984.0,14170.0,261.0,6315330.0,17448.0,406.0,9.0,18.0,27.0,"['A', 'B', 'C', 'D', 'E', 'F']",5245485.777777778,15561.833333333334,340.3333333333333,25,150,1995/06,26,blank,,False,,,POINT Z (22.2491127 114.1485465 0),22.249112699999998,114.14854650000001
57,"GROSVENOR COURT(Block 28,Phase 4,SOUTH HORIZONS),28 YI NAM RD|海怡半島,4期,28座(御意居),28 怡南路",HA,7797456.0,15024.0,519.0,7645805.0,14029.0,519.0,12846144.0,17454.0,1485.0,6.0,16.0,25.0,"['A', 'B', 'C', 'D', 'E', 'EF', 'F', 'G', 'H']",10242722.041666666,16033.25,729.3333333333334,30,270,1995/03,26,SOUTH HORIZONS,海怡半島,True,34.0,9921.0,POINT Z (22.243154 114.150396 0),22.243154,114.150396
58,"JUMBO BLDG,ABERDEEN MAIN RD|珍寶大廈,香港仔大道",HA,4677344.0,14011.0,314.0,4804200.0,14389.0,314.0,5904728.0,15918.0,398.0,8.0,15.0,22.0,"['A', 'B', 'C', 'D']",5275043.0,14878.0,356.0,23,92,1988/05,33,blank,,False,,,POINT Z (22.2494217 114.1549433 0),22.2494217,114.1549433
59,"MEI HONG COURT(Block 19,Phase 3,SOUTH HORIZONS),19 SOUTH HORIZON DR|海怡半島,3期,19座(美康閣),19 海怡路",HA,8418710.0,14269.0,589.0,8615303.0,14627.0,589.0,14658952.0,16399.0,898.0,8.0,20.0,33.0,"['A', 'B', 'C', 'D', 'E', 'F', 'G', 'H']",10503282.416666666,15485.583333333334,674.5,40,320,1994/02,27,SOUTH HORIZONS,海怡半島,True,34.0,9921.0,POINT Z (22.242928 114.148272 0),22.242928,114.14827199999999
60,"KONG CHEUNG COURT(Block G,ABERDEEN CTR),NAM NING ST|香港仔中心,G座(港昌閣),南寧街",HA,5857466.0,12706.0,450.0,6091193.0,13213.0,450.0,7610939.0,14004.0,553.0,6.0,15.0,24.0,"['1', '2', '3', '4', '5', '6']",6568712.166666667,13461.166666666666,488.0,27,162,1982/01,39,ABERDEEN CTR,香港仔中心,True,20.0,2778.0,POINT Z (22.2487869 114.1538679 0),22.2487869,114.1538679
61,"MANLY HSE,MAIN ST AP LEI CHAU|文麗大樓,鴨利洲大街",HA,3236846.825343145,5408.0,295.0,3237418.000007931,5475.0,295.0,3865710.131272703,5808.0,360.0,6.0,9.0,12.0,"['A', 'B', 'C', 'D', 'E']",3552785.798567368,5604.866666666666,328.0,9,45,1980/01,41,blank,,False,,,POINT Z (22.243704 114.154861 0),22.243704,114.15486100000001
62,"AP LEI CHAU CTR(Block B),LEE CHI RD|鴨利洲中心B座,利枝道",HA,4628800.0,14171.0,320.0,4772800.0,14637.0,320.0,7136628.0,15899.0,452.0,7.0,16.0,25.0,"['1', '2', '3', '4', '5', '6', '7', '8']",5524985.166666667,15049.875,366.7916666666667,27,216,1983/12,38,AP LEI CHAU CTR,鴨利洲中心,True,2.0,400.0,POINT Z (22.243399 114.1532905 0),22.243399,114.1532905
63,"YEE FUNG COURT(Block 11,Phase 2,SOUTH HORIZONS),11 SOUTH HORIZON DR|海怡半島,2期,11座(怡豐閣),11 海怡路",HA,8980046.0,13901.0,631.0,9002580.0,14144.0,631.0,23797848.0,18709.0,1272.0,6.0,17.0,28.0,"['A', 'B', 'C', 'D', 'E', 'EF', 'F', 'G', 'H']",11607591.592592591,15433.962962962964,740.0,33,297,1992/10,29,SOUTH HORIZONS,海怡半島,True,34.0,9921.0,POINT Z (22.244399 114.145846 0),22.244398999999998,114.14584599999999
64,"HOI WAN COURT(Block 4,Phase 1,SOUTH HORIZONS),4 SOUTH HORIZON DR|海怡半島,1期,4座(海韻閣),4 海怡路",HA,8905904.0,14672.0,600.0,9248252.0,14995.0,600.0,11702082.0,16694.0,742.0,7.0,18.0,29.0,"['A', 'B', 'C', 'D', 'E', 'F', 'G', 'H']",10392671.666666666,15601.041666666666,666.75,35,280,1991/11,30,SOUTH HORIZONS,海怡半島,True,34.0,9921.0,POINT Z (22.244454 114.146952 0),22.244454,114.146952
65,"HAPPY VIEW BLDG,MAIN ST AP LEI CHAU|樂景大廈,鴨利洲大街",HA,5067344.0,15504.0,326.0,5216652.0,15929.0,326.0,5598520.0,16867.0,335.0,6.0,12.0,19.0,"['A', 'B', 'C', 'D']",5353904.333333333,16200.416666666666,330.5,20,80,1981/10,40,blank,,False,,,POINT Z (22.2436381 114.153457 0),22.243638100000002,114.153457
66,"SHUN KING COURT,MAIN ST AP LEI CHAU|順景閣,鴨利洲大街",HA,4206048.0,15932.0,264.0,4358112.0,16508.0,264.0,4919600.0,17570.0,280.0,7.0,15.0,22.0,"['A', 'B', 'C']",4594161.777777777,16722.0,274.6666666666667,21,63,1995/11,26,blank,,False,,,POINT Z (22.2442864 114.1566851 0),22.244286399999996,114.1566851
67,"MEI CHEUNG COURT(Block 20,Phase 3,SOUTH HORIZONS),20 SOUTH HORIZON DR|海怡半島,3期,20座(美祥閣),20 海怡路",HA,8428001.0,14309.0,589.0,8890955.0,15095.0,589.0,11007414.0,17253.0,640.0,8.0,20.0,33.0,"['A', 'B', 'C', 'D', 'E', 'F', 'G', 'H']",9555986.5,15606.458333333334,612.0,40,320,1994/00,27,SOUTH HORIZONS,海怡半島,True,34.0,9921.0,POINT Z (22.2426274 114.1486498 0),22.242627399999996,114.14864979999999
68,"JING HUI GARDEN(Block 1),ABERDEEN MAIN RD|景惠花園1座,香港仔大道",HA,5096520.0,12584.0,405.0,5156865.0,12733.0,405.0,6603275.0,13615.0,485.0,5.0,12.0,20.0,"['A', 'B', 'C', 'D']",5793435.833333333,13011.166666666666,445.0,24,96,1989/02,32,JING HUI GARDEN,景惠花園,True,2.0,192.0,POINT Z (22.248027 114.1592396 0),22.248027,114.15923959999999
69,"MEI FAI COURT(Block 17,Phase 3,SOUTH HORIZONS),17 SOUTH HORIZON DR|海怡半島,3期,17座(美暉閣),17 海怡路",HA,8922500.0,14276.0,625.0,9452500.0,15124.0,625.0,16983874.0,18913.0,898.0,8.0,20.0,33.0,"['A', 'B', 'C', 'D', 'E', 'F', 'G', 'H']",12841885.708333334,16677.791666666668,760.875,40,320,1993/12,28,SOUTH HORIZONS,海怡半島,True,34.0,9921.0,POINT Z (22.2429446 114.1475257 0),22.2429446,114.1475257
70,"HOI SING COURT(Block 1,Phase 1,SOUTH HORIZONS),1 SOUTH HORIZON DR|海怡半島,1期,1座(海昇閣),1 海怡路",HA,7914722.0,14358.0,526.0,8374722.0,14633.0,526.0,23779791.0,18739.0,1269.0,8.0,20.0,33.0,"['A', 'AB', 'B', 'C', 'D', 'E', 'F', 'G', 'H']",10819958.370370371,16128.962962962964,660.2222222222222,40,360,1991/11,30,SOUTH HORIZONS,海怡半島,True,34.0,9921.0,POINT Z (22.2450552 114.1479066 0),22.2450552,114.14790659999998
71,"AP LEI CHAU CTR(Block A),LEE CHI RD|鴨利洲中心A座,利枝道",HA,4941440.0,15246.0,320.0,4755200.0,14860.0,320.0,7301156.0,16786.0,452.0,7.0,14.0,21.0,"['1', '2', '3', '4', '5', '6', '7', '8']",5752705.958333333,15855.25,363.0,23,184,1983/12,38,AP LEI CHAU CTR,鴨利洲中心,True,2.0,400.0,POINT Z (22.243318 114.152938 0),22.243318,114.15293799999999
72,"HOI FAI MANSION,ABERDEEN MAIN RD|海暉大廈,香港仔大道",HA,6742976.971620615,13613.0,477.0,6981232.45706464,14094.0,477.0,7276946.645858991,14691.0,477.0,5.0,13.0,21.0,"['A', 'B']",7004925.916635823,14141.833333333334,477.0,25,50,1992/09,29,blank,,False,,,POINT Z (22.2473433 114.1575559 0),22.2473433,114.1575559
73,"KA NING MANSION,ABERDEEN MAIN RD|嘉寧大廈,香港仔大道",HA,7244898.454888166,10987.0,635.0,7459864.951319724,11313.0,635.0,10443658.281854978,12619.0,830.0,6.0,13.0,20.0,"['A', 'B', 'C', 'D']",8939160.636611393,11750.833333333334,732.5,23,92,1979/12,42,blank,,False,,,POINT Z (22.2472655 114.1571495 0),22.2472655,114.15714950000002
74,"NGAN FUNG BLDG,ABERDEEN MAIN RD|銀輝大廈,香港仔大道",HA,5054272.409215426,12480.0,390.0,5195613.84117185,12829.0,390.0,5591820.0,14338.0,390.0,5.0,12.0,20.0,"['A', 'B']",5312809.320053657,13375.666666666666,390.0,24,48,1988/07,33,blank,,False,,,POINT Z (22.2472004 114.1567315 0),22.247200399999997,114.15673149999999
75,"KA WO BLDG(Block B),KA WO ST|嘉和大廈B座,嘉禾街",HA,4271850.0,12392.0,330.0,4435530.0,12777.0,330.0,6318555.0,14271.0,445.0,6.0,14.0,21.0,"['1', '2', '3', '4', '5', '6', '7', '8']",4670423.125,13219.083333333334,353.3333333333333,23,184,1978/05,43,KA WO BLDG,嘉和大廈,True,2.0,360.0,POINT Z (22.2499491 114.1488123 0),22.249949100000002,114.14881229999999
76,"ALBANY COURT(Block 32,Phase 4,SOUTH HORIZONS),32 YI NAM RD|海怡半島,4期,32座(御泉居),32 怡南路",HA,7853450.0,14362.0,526.0,8050430.0,14631.0,526.0,11059828.0,16052.0,689.0,10.0,18.0,26.0,"['A', 'B', 'C', 'D', 'E', 'F', 'G', 'H']",9156770.875,15250.416666666666,600.0,25,200,1995/03,26,SOUTH HORIZONS,海怡半島,True,34.0,9921.0,POINT Z (22.2435972 114.1492768 0),22.243597199999996,114.1492768
77,"BERKELEY COURT(Block 33,Phase 4,SOUTH HORIZONS),33 YI NAM RD|海怡半島,4期,33座(御林居),33 怡南路",HA,7494974.0,14249.0,526.0,7769546.0,14771.0,526.0,11585535.0,16815.0,689.0,10.0,18.0,26.0,"['A', 'B', 'C', 'D', 'E', 'F', 'G', 'H']",9350669.541666666,15538.541666666666,600.0,25,200,1995/03,26,SOUTH HORIZONS,海怡半島,True,34.0,9921.0,POINT Z (22.2425571 114.1494557 0),22.242557100000003,114.1494557
78,"NING FUNG MANSION,MAIN ST AP LEI CHAU|年豐大廈,鴨利洲大街",HA,4228026.0,14993.0,271.0,4409352.0,15636.0,271.0,4799788.0,16943.0,287.0,6.0,12.0,19.0,"['A', 'B', 'C', 'D', 'E', 'F']",4550298.722222223,16253.38888888889,280.0,20,120,1981/08,40,blank,,False,,,POINT Z (22.2442317 114.1568941 0),22.244231699999997,114.15689409999999
79,"OCEAN HSE,OLD MAIN ST ABERDEEN|海洋大廈,香港仔舊大街",HA,4632867.0472334055,12532.0,356.0,4749686.867447717,12848.0,356.0,5262437.154274459,14235.0,356.0,5.0,10.0,15.0,"['A', 'B', 'C', 'D']",5032537.611737954,13398.416666666666,361.8333333333333,15,60,1983/08,38,blank,,False,,,POINT Z (22.2478548 114.1561741 0),22.247854800000002,114.15617409999999
80,"KONG TAI COURT(Block H,ABERDEEN CTR),NAM NING ST|香港仔中心,H座(港泰閣),南寧街",HA,5482350.0,12183.0,450.0,5715000.0,12700.0,450.0,7464394.0,13669.0,553.0,6.0,15.0,24.0,"['1', '2', '3', '4', '5', '6']",6283611.944444444,12870.111111111111,488.0,27,162,1981/12,40,ABERDEEN CTR,香港仔中心,True,20.0,2778.0,POINT Z (22.24953 114.153739 0),22.24953,114.15373899999999
81,"JUMBO COURT,WELFARE RD|珍寶閣,惠福道",HA,5619222.0,12967.0,391.0,5717340.0,12976.0,391.0,7753745.0,16333.0,1133.0,8.0,12.0,17.0,"['A', 'B', 'C', 'D', 'E', 'F', 'G', 'H', 'I', 'J', 'J & K & L', 'K', 'L']",6350415.75,15004.88888888889,478.84615384615387,14,182,1979/05,42,blank,,False,,,POINT Z (22.245874 114.164656 0),22.245874,114.16465600000001
82,"SIU KWAN MANSION,OLD MAIN ST ABERDEEN|兆群大廈,香港仔舊大街",HA,4820888.223876518,15000.0,307.0,5072739.943018328,15657.0,307.0,7714951.39649595,18199.0,440.0,6.0,13.0,20.0,"['A', 'B', 'C', 'D']",6221050.632414147,16160.666666666666,374.75,23,92,1993/10,28,blank,,False,,,POINT Z (22.2488831 114.1561509 0),22.2488831,114.15615090000001
83,"SEAVIEW COURT,ABERDEEN MAIN RD|海光閣,香港仔大道",HA,4556100.0,15187.0,300.0,4713900.0,15713.0,300.0,4937700.0,16459.0,300.0,6.0,14.0,21.0,"['A', 'B']",4737100.0,15790.333333333334,300.0,24,48,1992/07,29,blank,,False,,,POINT Z (22.247766 114.1584036 0),22.247766,114.15840359999999
84,74-76 OLD MAIN ST ABERDEEN|74-76 香港仔舊大街,HA,4482520.0,16009.0,280.0,4499880.0,16071.0,280.0,5787929.0,20167.0,287.0,2.0,3.0,4.0,"['A', 'B', 'C', 'D']",4920620.833333333,17352.75,283.5,5,20,1971/07,50,blank,,False,,,POINT Z (22.2481686 114.1560401 0),22.248168600000003,114.15604009999998
85,"WAI KING MANSION,ABERDEEN MAIN RD|偉景大廈,香港仔大道",HA,5981225.470616579,11707.0,492.0,6079320.225067625,11899.0,492.0,6625483.206880994,12968.0,492.0,7.0,15.0,22.0,"['A', 'B']",6326685.903609539,12383.166666666666,492.0,23,46,1994/07,27,blank,,False,,,POINT Z (22.2478004 114.1585313 0),22.2478004,114.1585313
86,"JING HUI GARDEN(Block 2),ABERDEEN MAIN RD|景惠花園2座,香港仔大道",HA,4903335.0,11733.0,405.0,5099355.0,12393.0,405.0,6370475.0,13419.0,485.0,5.0,12.0,20.0,"['E', 'F', 'G', 'H']",5598810.416666667,12595.416666666666,445.0,24,96,1989/02,32,JING HUI GARDEN,景惠花園,True,2.0,192.0,POINT Z (22.2481503 114.1595647 0),22.2481503,114.15956470000002
87,"HUNG SHING BLDG,HUNG SHING ST|鴻勝大廈,洪聖街",HA,3835104.0,16500.0,224.0,3751104.0,16641.0,224.0,4164671.8664203454,17486.0,234.0,4.0,6.0,9.0,"['A', 'B', 'C']",3933693.6800423027,16872.666666666668,227.33333333333334,10,30,1986/04,35,blank,,False,,,POINT Z (22.2446502 114.1560348 0),22.2446502,114.1560348
88,"MEI KWONG COURT(Block P,ABERDEEN CTR),NAM NING ST|香港仔中心,P座(美光閣),南寧街",HA,7566180.0,13274.0,570.0,7869420.0,13806.0,570.0,8636400.0,14394.0,600.0,7.0,15.0,23.0,"['1', '2', '3', '4', '5', '6']",8169305.0,13845.5,590.0,25,150,1981/05,40,ABERDEEN CTR,香港仔中心,True,20.0,2778.0,POINT Z (22.248508 114.1532394 0),22.248507999999998,114.1532394
89,"KA FOOK COURT,KA WO ST|嘉福閣,嘉禾街",HA,6723991.943862012,3331.0,656.0,6903648.288204167,3420.0,656.0,8227016.316008819,12077.0,666.0,7.0,13.0,19.0,"['A', 'B', 'C']",7460080.633458868,7593.666666666667,662.6666666666666,19,57,1981/07,40,blank,,False,,,POINT Z (22.2496907 114.1489952 0),22.249690700000002,114.1489952
90,"YEN CHING BLDG,MAIN ST AP LEI CHAU|仁正大廈,鴨利洲大街",HA,4337128.9744266,13922.0,260.0,4009175.522561797,13722.0,260.0,6852894.312235967,15193.0,450.0,4.0,10.0,17.0,"['A', 'B', 'C', 'D']",4619350.311528762,14399.0,293.75,19,76,1985/03,36,blank,,False,,,POINT Z (22.243637 114.1551291 0),22.243637,114.1551291
91,"ON TAI BLDG,WU NAM ST|安泰大廈,湖南街",HA,4443880.0,15871.0,275.0,4170880.0000000005,14896.0,275.0,4945080.0,17052.0,290.0,8.0,13.0,18.0,"['A', 'B', 'C']",4559694.444444444,16183.88888888889,281.6666666666667,17,51,1984/02,37,blank,,False,,,POINT Z (22.2478262 114.1555239 0),22.2478262,114.1555239
92,"FORTUNE MANSION,MAIN ST AP LEI CHAU|利是大廈,鴨利洲大街",HA,5387348.0,13084.0,409.0,5530498.0,13429.0,409.0,6199622.0,15158.0,442.0,5.0,12.0,19.0,"['A', 'B', 'C', 'D', 'E', 'F']",5790709.444444445,13686.5,423.3333333333333,23,138,1987/03,34,blank,,False,,,POINT Z (22.2439544 114.1559535 0),22.2439544,114.1559535
93,"TSUNG MAN COURT,TSUNG MAN ST|崇文閣,崇文街",HA,3191511.046441559,4995.0,328.0,3240008.3776640296,5358.0,328.0,3418575.2418250563,8113.0,330.0,3.0,4.0,5.0,"['A', 'B', 'C']",3290937.37130357,6500.333333333333,329.1111111111111,5,15,1976/01,45,blank,,False,,,POINT Z (22.249956 114.1547343 0),22.249956,114.15473429999999
94,"COMMAND TOWER,MAIN ST AP LEI CHAU|僑民大廈,鴨利洲大街",HA,4584349.0,12770.0,319.0,4688662.0,13112.0,319.0,5863800.0,15322.0,435.0,6.0,12.0,19.0,"['1', '2', '3', '4']",5148127.333333333,14123.0,367.0,20,80,1986/08,35,blank,,False,,,POINT Z (22.243347 114.1542002 0),22.243347,114.1542002
95,"TUNG NAM BLDG,MAIN ST AP LEI CHAU|東南大廈,鴨利洲大街",HA,4972352.142685884,10313.0,396.0,5042745.181843465,10459.0,396.0,5454402.308278314,12506.0,420.0,4.0,7.0,10.0,"['A', 'B', 'C', 'D']",5220733.439861613,11087.611111111111,404.75,9,36,1980/12,41,blank,,False,,,POINT Z (22.243859 114.1546879 0),22.243859,114.1546879
96,"ROUSSEAU HEIGHTS,MAIN ST AP LEI CHAU|亨利閣,鴨利洲大街",HA,4254268.066179366,12723.0,322.0,4309440.134946135,12888.0,322.0,4534920.0,13338.0,340.0,5.0,8.0,10.0,"['A', 'B']",4396790.1604834655,13038.166666666666,331.0,8,16,1973/09,48,blank,,False,,,POINT Z (22.2444894 114.1573353 0),22.244489399999996,114.15733529999999
97,"WAH LEE BLDG,TSUNG MAN ST|華利大廈,崇文街",HA,4646790.388058266,9687.0,400.0,4772648.749333107,9949.0,400.0,4782552.950624914,11959.0,380.0,6.0,12.0,17.0,"['A', 'B']",4747348.347220953,10768.166666666666,393.3333333333333,18,36,1978/12,43,blank,,False,,,POINT Z (22.2497883 114.1555239 0),22.2497883,114.1555239
98,"SZE HEI BLDG,SHEK PAI WAN RD|四喜大廈,石排灣道",HA,3678151.0,11603.0,315.0,3771983.0,11899.0,315.0,4196115.0,13321.0,317.0,7.0,12.0,18.0,"['A', 'B', 'C']",4011493.6666666665,12709.666666666666,315.6666666666667,18,54,1975/05,46,blank,,False,,,POINT Z (22.2488626 114.1489285 0),22.248862600000002,114.1489285
99,"YEE HING BLDG,MAIN ST AP LEI CHAU|怡慶大廈,鴨利洲大街",HA,4827840.0,14006.0,320.0,4947200.0,14074.0,320.0,5425280.0,16954.0,349.0,6.0,12.0,19.0,"['A', 'B', 'C', 'D']",5111634.308386658,15174.75,334.5,22,88,1985/05,36,blank,,False,,,POINT Z (22.2435543 114.1538518 0),22.2435543,114.1538518
100,"KAM TSEUK MANSION,KA WO ST|金爵大廈,嘉禾街",HA,3911682.022163377,13900.0,271.0,3682925.9190163086,11162.0,271.0,4281744.026418402,15215.0,271.0,5.0,7.0,9.0,"['A', 'B']",4005235.671621514,13588.0,271.0,7,14,1980/11,41,blank,,False,,,POINT Z (22.2494804 114.148882 0),22.249480399999996,114.148882
101,"KONG WING COURT(Block I,ABERDEEN CTR),NAM NING ST|香港仔中心,I座(港榮閣),南寧街",HA,5783879.144763498,12082.0,450.0,5804942.766876525,12126.0,450.0,6583015.355868652,13912.0,480.0,6.0,15.0,24.0,"['1', '2', '3', '4', '5', '6']",6114989.205680728,12948.555555555555,463.6666666666667,27,162,1981/12,40,ABERDEEN CTR,香港仔中心,True,20.0,2778.0,POINT Z (22.2493534 114.1538518 0),22.249353399999997,114.1538518
102,"KAM FAT BLDG,LEE CHI RD|金發大廈,利枝道",HA,5929732.0,15362.0,386.0,6272114.0,15927.0,386.0,7630738.0,16771.0,458.0,6.0,14.0,23.0,"['A', 'B', 'C', 'D', 'E', 'F']",6679825.388888888,16128.166666666666,414.3333333333333,28,168,1986/08,35,blank,,False,,,POINT Z (22.2436059 114.1526907 0),22.2436059,114.15269070000001
103,"HOI CHUN COURT(Block A,Phase 4,ABERDEEN CTR),4 NAM NING ST|香港仔中心,4期,A座(海珍閣),4 南寧街",HA,6201800.0,13743.0,440.0,6066720.0,13788.0,440.0,8962110.0,15723.0,570.0,6.0,14.0,23.0,"['1', '2', '3', '4', '5', '6']",7096096.111111112,14674.888888888889,483.3333333333333,26,156,1979/12,42,ABERDEEN CTR,香港仔中心,True,20.0,2778.0,POINT Z (22.2482557 114.1544556 0),22.2482557,114.15445559999999
104,"MEI FUNG COURT(Block R,ABERDEEN CTR),NAM NING ST|香港仔中心,R座(美豐閣),南寧街",HA,8878798.554631298,10991.0,685.0,9986519.32855753,11392.0,685.0,11328633.18846111,12923.0,720.0,7.0,15.0,23.0,"['1', '2', '3', '4']",10232584.225847788,12160.75,700.0,25,100,1981/05,40,ABERDEEN CTR,香港仔中心,True,20.0,2778.0,POINT Z (22.2481257 114.1533409 0),22.2481257,114.1533409
105,"KWUN HOI COURT(Block S,Phase 3,ABERDEEN CTR),5 NAM NING ST|香港仔中心,3期,S座(觀海閣),5 南寧街",HA,9617053.379558058,12515.0,715.0,10019717.060811628,13039.0,715.0,10945658.686207157,14742.0,750.0,7.0,16.0,24.0,"['1', '2', '3']",10314680.576248394,13664.77777777778,727.2222222222223,25,75,1981/06,40,ABERDEEN CTR,香港仔中心,True,20.0,2778.0,POINT Z (22.2479071 114.1541769 0),22.247907100000003,114.15417690000001
106,"HOI LUNG COURT(Block N,Phase 5,ABERDEEN CTR),6 NAM NING ST|香港仔中心,5期,N座(海龍閣),6 南寧街",HA,5995000.0,13227.0,440.0,6195640.0,13739.0,440.0,8277540.0,15484.0,570.0,6.0,14.0,23.0,"['1', '2', '3', '4', '5', '6']",6893553.333333333,14302.88888888889,483.3333333333333,26,156,1979/12,42,ABERDEEN CTR,香港仔中心,True,20.0,2778.0,POINT Z (22.2483157 114.1537136 0),22.2483157,114.15371359999999
107,"YEE TIAM BLDG,KA WO ST|益添大廈,嘉禾街",HA,4083950.0,11618.0,305.0,4170264.9999999995,12184.0,305.0,4755935.0,13949.0,355.0,8.0,13.0,18.0,"['A', 'B', 'C']",4404384.670725156,12896.0,338.3333333333333,16,48,1979/04,42,blank,,False,,,POINT Z (22.2495822 114.1487891 0),22.2495822,114.14878909999999
108,"HOI WU COURT(Block D,Phase 4,ABERDEEN CTR),14 NAM NING ST|香港仔中心,4期,D座(海湖閣),14 南寧街",HA,6000280.0,13637.0,440.0,6143720.0,13963.0,440.0,8929620.0,15666.0,570.0,6.0,14.0,23.0,"['1', '2', '3', '4', '5', '6']",7030442.777777779,14505.38888888889,483.3333333333333,26,156,1979/12,42,ABERDEEN CTR,香港仔中心,True,20.0,2778.0,POINT Z (22.2485926 114.1545448 0),22.248592600000002,114.15454479999998
109,"HOI TSING COURT(Block K,Phase 5,ABERDEEN CTR),12 NAM NING ST|香港仔中心,5期,K座(海晶閣),12 南寧街",HA,5656640.0,12842.0,440.0,5845400.0,13285.0,440.0,8956753.894407721,15132.0,570.0,6.0,14.0,23.0,"['1', '2', '3', '4', '5', '6']",6912743.904604011,13798.111111111111,483.3333333333333,26,156,1979/12,42,ABERDEEN CTR,香港仔中心,True,20.0,2778.0,POINT Z (22.2483157 114.1537136 0),22.2483157,114.15371359999999
110,"KA WO BLDG(Block A),KA WO ST|嘉和大廈A座,嘉禾街",HA,4170540.0,12599.0,330.0,4385700.0,13290.0,330.0,6250915.0,14595.0,445.0,6.0,13.0,20.0,"['1', '2', '3', '4', '5', '6', '7', '8']",4760058.541666667,13672.916666666666,348.5416666666667,22,176,1978/05,43,KA WO BLDG,嘉和大廈,True,2.0,360.0,POINT Z (22.249981 114.148647 0),22.249981,114.148647
111,"HOI TIN COURT(Block M,Phase 5,ABERDEEN CTR),8 NAM NING ST|香港仔中心,5期,M座(海天閣),8 南寧街",HA,5802280.0,13187.0,440.0,6019200.0,13680.0,440.0,8621820.0,15126.0,570.0,6.0,14.0,23.0,"['1', '2', '3', '4', '5', '6']",6811535.555555555,14064.944444444445,483.3333333333333,26,156,1979/12,42,ABERDEEN CTR,香港仔中心,True,20.0,2778.0,POINT Z (22.2483157 114.1537136 0),22.2483157,114.15371359999999
112,"HOI SHAN COURT(Block C,Phase 4,ABERDEEN CTR),16 NAM NING ST|香港仔中心,4期,C座(海珊閣),16 南寧街",HA,5607360.0,12744.0,440.0,5845840.0,13286.0,440.0,8446260.0,14818.0,570.0,6.0,14.0,23.0,"['1', '2', '3', '4', '5', '6']",6625420.0,13675.833333333334,483.3333333333333,26,156,1979/12,42,ABERDEEN CTR,香港仔中心,True,20.0,2778.0,POINT Z (22.2485899 114.1545485 0),22.2485899,114.1545485
113,"KWUN KING COURT(Block U,Phase 3,ABERDEEN CTR),1 NAM NING ST|香港仔中心,3期,U座(觀景閣),1 南寧街",HA,11698660.0,15809.0,740.0,12179660.0,16459.0,740.0,13068000.0,17424.0,750.0,7.0,16.0,24.0,"['1', '2', '3']",12412203.333333334,16622.777777777777,746.6666666666666,25,75,1981/06,40,ABERDEEN CTR,香港仔中心,True,20.0,2778.0,POINT Z (22.247878 114.154547 0),22.247878,114.154547
114,"HOI CHU COURT(Block B,Phase 4,ABERDEEN CTR),2 NAM NING ST|香港仔中心,4期,B座(海珠閣),2 南寧街",HA,5825160.0,13239.0,440.0,6112480.0,13892.0,440.0,8759190.0,15367.0,570.0,6.0,14.0,23.0,"['1', '2', '3', '4', '5', '6']",6972630.555555556,14406.333333333334,483.3333333333333,26,156,1979/12,42,ABERDEEN CTR,香港仔中心,True,20.0,2778.0,POINT Z (22.248411 114.154576 0),22.248410999999997,114.154576
115,"SHUN LEE BLDG,MAIN ST AP LEI CHAU|順利大廈,鴨利洲大街",HA,4084053.9784730594,11619.0,321.0,4073623.9340783027,11665.0,318.0,4548257.413900471,12401.0,374.0,3.0,4.0,5.0,"['1', '2', '3', '4', '5']",4367022.931317686,11896.0,354.40000000000003,5,25,1981/03,40,blank,,False,,,POINT Z (22.2437066 114.1542698 0),22.243706600000003,114.15426979999998
116,"HOI YING COURT(Block L,Phase 5,ABERDEEN CTR),10 NAM NING ST|香港仔中心,5期,L座(海瑩閣),10 南寧街",HA,5654440.0,12851.0,440.0,6035040.0,13716.0,440.0,8358480.000000001,14664.0,570.0,6.0,14.0,23.0,"['1', '2', '3', '4', '5', '6']",6792971.333333333,13942.422222222222,483.3333333333333,26,156,1979/12,42,ABERDEEN CTR,香港仔中心,True,20.0,2778.0,POINT Z (22.2485544 114.1537173 0),22.2485544,114.1537173
117,"NGAN ON HSE(Block A,YUE ON COURT),YUE ON COURT RD|漁安苑,A座(銀安閣),漁安苑道",HA,5284692.0,11268.0,469.0,5565623.0,11867.0,469.0,6460272.0,13075.0,504.0,7.0,18.0,29.0,"['1', '2', '3', '4', '5', '6', '7', '8']",5813613.5,12018.5,483.75,35,280,1988/08,33,YUE ON COURT,漁安苑,True,7.0,1904.0,POINT Z (22.2430112 114.1563367 0),22.243011199999998,114.15633670000001
118,"YEN SHING MANSION,SHEK PAI WAN RD|仁勝大廈,石排灣道",HA,3861297.1402404783,12822.0,290.0,3937788.28620999,13076.0,290.0,4521861.426398449,14782.0,295.0,4.0,10.0,16.0,"['A', 'B', 'C', 'D']",4181601.7871660194,13901.888888888889,292.5,19,76,1988/02,33,blank,,False,,,POINT Z (22.2494766 114.1480764 0),22.2494766,114.1480764
119,"PIK ON HSE(Block C,YUE ON COURT),YUE ON COURT RD|漁安苑,C座(碧安閣),漁安苑道",HA,5767293.0,12091.0,469.0,5939416.0,12574.0,469.0,6671952.0,13424.0,504.0,8.0,18.0,29.0,"['1', '2', '3', '4', '5', '6', '7', '8']",6149532.833333333,12716.958333333334,483.75,34,272,1988/08,33,YUE ON COURT,漁安苑,True,7.0,1904.0,POINT Z (22.2427365 114.1569436 0),22.2427365,114.1569436
120,"TSE ON HSE(Block D,YUE ON COURT),YUE ON COURT RD|漁安苑,D座(紫安閣),漁安苑道",HA,5851244.0,12476.0,469.0,6005545.0,12805.0,469.0,6940947.0,14079.0,504.0,7.0,18.0,29.0,"['1', '2', '3', '4', '5', '6', '7', '8']",6349439.75,13124.333333333334,483.75,33,264,1988//1,33,YUE ON COURT,漁安苑,True,7.0,1904.0,POINT Z (22.2427365 114.1569436 0),22.2427365,114.1569436
121,"HAR ON HSE(Block E,YUE ON COURT),YUE ON COURT RD|漁安苑,E座(霞安閣),漁安苑道",HA,5876101.0,12163.0,469.0,6047755.0,12567.0,469.0,6723360.0,13757.0,504.0,8.0,18.0,29.0,"['1', '2', '3', '4', '5', '6', '7', '8']",6252031.0,12928.166666666666,483.75,34,272,1988/10,33,YUE ON COURT,漁安苑,True,7.0,1904.0,POINT Z (22.2427365 114.1569436 0),22.2427365,114.1569436
122,"CHOI ON HSE(Block B,YUE ON COURT),YUE ON COURT RD|漁安苑,B座(彩安閣),漁安苑道",HA,5680997.0,12113.0,469.0,5916435.0,12391.0,469.0,6477912.0,13255.0,504.0,8.0,18.0,29.0,"['1', '2', '3', '4', '5', '6', '7', '8']",6144082.958333333,12703.5,483.75,34,272,1988/00,33,YUE ON COURT,漁安苑,True,7.0,1904.0,POINT Z (22.243183 114.156574 0),22.243183,114.15657399999999
123,"SHAN ON HSE(Block F,YUE ON COURT),YUE ON COURT RD|漁安苑,F座(珊安閣),漁安苑道",HA,5607833.0,11957.0,469.0,6028995.0,12689.0,469.0,6666408.0,13725.0,504.0,7.0,18.0,29.0,"['1', '2', '3', '4', '5', '6', '7', '8']",6212261.5,12844.25,483.75,35,280,1988/10,33,YUE ON COURT,漁安苑,True,7.0,1904.0,POINT Z (22.2429922 114.1573339 0),22.2429922,114.15733390000001
124,"WU ON HSE(Block G,YUE ON COURT),YUE ON COURT RD|漁安苑,G座(瑚安閣),漁安苑道",HA,5580631.0,11466.0,469.0,6082461.0,12275.0,469.0,6826078.0,14296.0,504.0,7.0,19.0,30.0,"['1', '2', '3', '4', '5', '6', '7', '8']",6169482.333333333,12761.375,483.75,33,264,1988//0,33,YUE ON COURT,漁安苑,True,7.0,1904.0,POINT Z (22.2429797 114.1563056 0),22.2429797,114.15630559999998
125,122 MAIN ST AP LEI CHAU|122 鴨利洲大街,HA,,,529.0,,,512.0,,,490.0,3.0,4.0,5.0,['whole floor'],,,510.3333333333333,3,3,1967/04,54,blank,,False,,,POINT Z (22.2439202 114.1552265 0),22.243920199999998,114.15522649999998
126,"BAYSHORE APT,ABERDEEN MAIN RD|海峰華軒,香港仔大道",HA,6564530.0,12606.0,490.0,7166740.0,13359.0,490.0,8324148.0,16117.0,575.0,7.0,20.0,34.0,"['50 UNIT', 'A', 'B', 'C', 'D']",7488229.2,14347.066666666666,523.8,38,190,2000/10,21,blank,,False,,,POINT Z (22.2484356 114.1517849 0),22.248435600000004,114.15178490000001
127,"KWUN CHIU COURT(Block T,Phase 3,ABERDEEN CTR),3 NAM NING ST|香港仔中心,3期,T座(觀潮閣),3 南寧街",HA,10548405.252991887,13551.0,740.0,10916032.126412014,14016.0,740.0,11493142.55775272,14757.0,750.0,8.0,16.0,24.0,"['1', '2', '3']",11000701.527466932,14188.0,746.6666666666666,22,66,1981/06,40,ABERDEEN CTR,香港仔中心,True,20.0,2778.0,POINT Z (22.2477907 114.1543627 0),22.2477907,114.15436270000001
128,"WATERFRONT SOUTH(Block 2),YUE WOK ST|港麗豪園2座,漁獲街",HA,6820800.0,13920.0,490.0,7084420.0,14458.0,490.0,7628810.0,15569.0,635.0,10.0,20.0,30.0,"['A', 'B', 'C', 'D']",7588989.583333333,14776.666666666666,562.5,29,116,1999/06,22,WATERFRONT SOUTH,港麗豪園,True,2.0,236.0,POINT Z (22.2490595 114.1479531 0),22.2490595,114.1479531
129,"WATERFRONT SOUTH(Block 1),YUE WOK ST|港麗豪園1座,漁獲街",HA,6842850.0,12761.0,490.0,7056490.0,13186.0,490.0,9515140.0,15347.0,620.0,10.0,20.0,31.0,"['A', 'B', 'C', 'D']",7866476.416666667,14224.833333333334,554.25,30,120,1999/06,22,WATERFRONT SOUTH,港麗豪園,True,2.0,236.0,POINT Z (22.2492631 114.1477673 0),22.249263100000004,114.1477673
130,"SOUTH WAVE COURT(Block 3),SHUM WAN RD|南濤閣3座,深灣道",HA,4279360.0,9525.0,430.0,4484040.0,10001.0,430.0,6208060.0,11044.0,590.0,7.0,18.0,29.0,"['A', 'B', 'C', 'D', 'E', 'F', 'G', 'H', 'J', 'K']",5470413.766666667,10227.166666666666,536.2,30,300,1995/10,26,SOUTH WAVE COURT,南濤閣,True,3.0,980.0,POINT Z (22.2448246 114.1660206 0),22.2448246,114.1660206
131,"SOUTH WAVE COURT(Block 1),SHUM WAN RD|南濤閣1座,深灣道",HA,4416530.0,10113.0,430.0,4619060.0,10440.0,430.0,6831222.0,11598.0,590.0,7.0,18.0,28.0,"['A', 'B', 'C', 'D', 'E', 'F', 'G', 'H', 'J', 'K']",5808118.466666666,10823.9,536.2,34,340,1995/10,26,SOUTH WAVE COURT,南濤閣,True,3.0,980.0,POINT Z (22.2444541 114.1658813 0),22.244454100000002,114.16588130000001
132,"SOUTH WAVE COURT(Block 2),SHUM WAN RD|南濤閣2座,深灣道",HA,4315910.0,8917.0,430.0,4288893.653624485,9339.0,430.0,6325275.70843948,11149.0,590.0,8.0,18.0,29.0,"['A', 'B', 'C', 'D', 'E', 'F', 'G', 'H', 'J', 'K']",5376442.235760918,9747.437037037036,536.2,34,340,1995/10,26,SOUTH WAVE COURT,南濤閣,True,3.0,980.0,POINT Z (22.2449078 114.1664619 0),22.2449078,114.1664619
133,"TOHO COURT,PING LAN ST|東寶閣,平瀾街",HA,4714193.148071693,13274.0,319.0,4919111.744307746,13851.0,319.0,5249145.0,16455.0,342.0,7.0,14.0,20.0,"['A', 'B']",4989247.170934877,14865.5,330.5,20,40,1989/04,32,blank,,False,,,POINT Z (22.2447094 114.1571147 0),22.244709399999998,114.15711470000001
134,"FUNG KING COURT(Block 29,Phase 4,SOUTH HORIZONS),29 YI NAM RD|海怡半島,4期,29座(豐景閣),29 怡南路",HA,7649136.0,14212.0,528.0,7915776.0,14745.0,528.0,11344385.0,16843.0,689.0,8.0,16.0,25.0,"['A', 'B', 'C', 'D', 'E', 'F', 'G', 'H']",9327741.791666666,15383.375,604.5,26,208,1994/12,27,SOUTH HORIZONS,海怡半島,True,34.0,9921.0,POINT Z (22.243803 114.150128 0),22.243803,114.15012800000001
135,"YUK FAI HSE(Block A,Phase 1,YUE FAI COURT),45 YUE KWONG RD|漁暉苑,1期,A座(旭暉閣),45 漁光道",HA,4877568.0,12634.0,384.0,5078400.0,12618.0,384.0,5740300.0,13935.0,419.0,5.0,14.0,23.0,"['1', '2', '3', '4', '5', '6', '7', '8']",5273923.208333333,13141.791666666666,401.5,29,232,1980/04,41,YUE FAI COURT,漁暉苑,True,6.0,1320.0,POINT Z (22.248283 114.156683 0),22.248282999999997,114.156683
136,"KING FAI HSE(Block E,Phase 1,YUE FAI COURT),45 YUE KWONG RD|漁暉苑,1期,E座(景暉閣),45 漁光道",HA,4947072.0,12873.0,384.0,5309184.0,13640.0,384.0,5933878.0,14842.0,419.0,5.0,14.0,23.0,"['1', '2', '3', '4', '5', '6', '7', '8']",5527205.625,13772.708333333334,401.5,27,216,1980/08,41,YUE FAI COURT,漁暉苑,True,6.0,1320.0,POINT Z (22.2499061 114.156947 0),22.2499061,114.156947
137,"YAT FAI HSE(Block B,Phase 1,YUE FAI COURT),45 YUE KWONG RD|漁暉苑,1期,B座(日暉閣),45 漁光道",HA,4628736.0,12054.0,384.0,5122176.0,12830.0,384.0,5761152.0,15003.0,419.0,6.0,14.0,23.0,"['1', '2', '3', '4', '5', '6', '7', '8']",5374276.583333333,13403.208333333334,401.5,28,224,1980/04,41,YUE FAI COURT,漁暉苑,True,6.0,1320.0,POINT Z (22.2486357 114.1566154 0),22.248635699999998,114.1566154
138,"TIN FAI HSE(Block F,Phase 2,YUE FAI COURT),45 YUE KWONG RD|漁暉苑,2期,F座(天暉閣),45 漁光道",HA,5034240.0,12655.0,384.0,5200896.0,12577.0,384.0,5719350.0,14461.0,419.0,5.0,14.0,22.0,"['1', '2', '3', '4', '5', '6', '7', '8']",5390955.375,13441.291666666666,401.5,28,224,1981/03,40,YUE FAI COURT,漁暉苑,True,6.0,1320.0,POINT Z (22.2505287 114.1566386 0),22.250528699999997,114.1566386
139,"BROADVIEW COURT(Block 4),SHUM WAN RD|雅濤閣4座,深灣道",HA,4805736.0,10609.0,422.0,4912080.0,11264.0,422.0,7654632.0,12997.0,591.0,7.0,20.0,33.0,"['A', 'B', 'C', 'D', 'E', 'F', 'G', 'H', 'J', 'K']",6345902.733333333,12024.699999999999,527.2,37,370,2001/07,20,BROADVIEW COURT,雅濤閣,True,4.0,1510.0,POINT Z (22.2423903 114.1659742 0),22.2423903,114.16597420000001
140,"ON FAI HSE(Block D,Phase 1,YUE FAI COURT),45 YUE KWONG RD|漁暉苑,1期,D座(安暉閣),45 漁光道",HA,4900992.0,12111.0,384.0,5102208.0,12440.0,384.0,5848821.0,14306.0,419.0,6.0,14.0,23.0,"['1', '2', '3', '4', '5', '6', '7', '8']",5295223.041666667,13205.083333333334,401.5,26,208,1980/08,41,YUE FAI COURT,漁暉苑,True,6.0,1320.0,POINT Z (22.2499061 114.156947 0),22.2499061,114.156947
141,"KINGSTON MANSION,HUNG SHING ST|金利豐大廈,洪聖街",HA,7571291.0,13741.0,551.0,7847342.0,14242.0,551.0,8150943.0,14793.0,551.0,8.0,16.0,22.0,"['A', 'B']",7902074.666666667,14341.333333333334,551.0,20,40,9999,-7978,blank,,False,,,POINT Z (22.2439014 114.1563599 0),22.2439014,114.15635990000001
142,"TIN WAN COURT,TIN WAN ST|田灣畔,田灣街",HA,5315023.519084343,12054.0,423.0,5517960.780722109,12561.0,423.0,7737591.363430885,13282.0,561.0,7.0,16.0,23.0,"['A', 'B', 'C', 'D']",6399207.268990164,12767.055555555555,492.0,24,96,9999,-7978,blank,,False,,,POINT Z (22.2499634 114.1492768 0),22.2499634,114.1492768
143,"SHAM WAN TOWERS(Block 2),AP LEI CHAU DR|深灣軒2座,鴨利洲徑",HA,7670523.0,15760.0,476.0,8125320.0,16659.0,476.0,22273440.0,22728.0,980.0,13.0,29.0,45.0,"['A', 'AB', 'B', 'C', 'D', 'E', 'F', 'G', 'H']",10015921.388888888,17996.291666666668,564.7777777777778,43,387,2004/04,17,SHAM WAN TOWERS,深灣軒,True,3.0,1127.0,POINT Z (22.2438379 114.1588448 0),22.2438379,114.15884479999998
144,"SHAM WAN TOWERS(Block 1),AP LEI CHAU DR|深灣軒1座,鴨利洲徑",HA,7074130.0,14437.0,483.0,7726810.0,15769.0,483.0,11185266.0,19038.0,591.0,13.0,29.0,45.0,"['A', 'B', 'C', 'D', 'E', 'F', 'G', 'H']",8585812.083333334,17131.708333333332,501.125,43,344,2004/04,17,SHAM WAN TOWERS,深灣軒,True,3.0,1127.0,POINT Z (22.243799 114.1588541 0),22.243799,114.1588541
145,"SHAM WAN TOWERS(Block 3),AP LEI CHAU DR|深灣軒3座,鴨利洲徑",HA,8240463.0,15939.0,502.0,8492916.0,16364.0,502.0,23327430.0,22670.0,1029.0,14.0,30.0,46.0,"['A', 'AB', 'B', 'C', 'D', 'E', 'F', 'G', 'H']",11307045.074074075,18277.74074074074,606.3333333333334,44,396,2004/03,17,SHAM WAN TOWERS,深灣軒,True,3.0,1127.0,POINT Z (22.243799 114.1588541 0),22.243799,114.1588541
146,"BROADVIEW COURT(Block 1),SHUM WAN RD|雅濤閣1座,深灣道",HA,5233920.0,11136.0,422.0,5165280.0,11911.0,422.0,8286336.0,14386.0,591.0,7.0,20.0,32.0,"['A', 'B', 'C', 'D', 'E', 'F', 'G', 'H', 'J', 'K']",6789255.7,12870.066666666666,527.2,38,380,2001/07,20,BROADVIEW COURT,雅濤閣,True,4.0,1510.0,POINT Z (22.2431797 114.164697 0),22.2431797,114.164697
147,"MEI FAI HSE(Block C,Phase 1,YUE FAI COURT),45 YUE KWONG RD|漁暉苑,1期,C座(美暉閣),45 漁光道",HA,4838942.460420449,12135.0,384.0,4913909.1833342565,12323.0,384.0,5809016.0,13864.0,419.0,5.0,14.0,23.0,"['1', '2', '3', '4', '5', '6', '7', '8']",5232672.900480382,12694.25,401.5,27,216,1980/08,41,YUE FAI COURT,漁暉苑,True,6.0,1320.0,POINT Z (22.2499061 114.156947 0),22.2499061,114.156947
148,"BROADVIEW COURT(Block 3),SHUM WAN RD|雅濤閣3座,深灣道",HA,5140382.0,10169.0,422.0,5348428.0,10752.0,422.0,7670016.0,13548.0,591.0,7.0,20.0,33.0,"['A', 'B', 'C', 'D', 'E', 'F', 'G', 'H', 'J', 'K']",6366911.666666667,12146.866666666669,527.2,39,390,2001/07,20,BROADVIEW COURT,雅濤閣,True,4.0,1510.0,POINT Z (22.2427721 114.1656259 0),22.242772100000003,114.16562590000001
149,"OCEAN COURT(Block 2),ABERDEEN PRAYA RD|逸港居2座,香港仔海傍道",HA,4543686.221604004,9618.0,431.0,4746881.015202134,9868.0,431.0,7580528.020668345,12331.0,592.0,8.0,18.0,27.0,"['A', 'B', 'C', 'D', 'E']",5912880.849764238,10773.666666666668,527.6,25,125,1999/12,22,OCEAN COURT,逸港居,True,3.0,418.0,POINT Z (22.2473548 114.1592164 0),22.2473548,114.1592164
150,"LEE FAT MANSION,MAIN ST AP LEI CHAU|利發大廈,鴨利洲大街",HA,5321511.662989007,12716.0,401.0,5421949.1275311075,12956.0,401.0,5738997.970058063,13782.0,403.0,5.0,10.0,17.0,"['A', 'B']",5519305.208321646,13222.0,402.0,18,36,1982/06,39,blank,,False,,,POINT Z (22.2440186 114.1550594 0),22.2440186,114.1550594
151,"OCEAN COURT(Block 3),ABERDEEN PRAYA RD|逸港居3座,香港仔海傍道",HA,4748758.0,10091.0,431.0,4956069.0,10574.0,431.0,7179776.0,12128.0,592.0,8.0,18.0,27.0,"['A', 'B', 'C', 'D', 'E', 'F']",6205846.555555556,11347.111111111111,547.1666666666666,28,168,1999/12,22,OCEAN COURT,逸港居,True,3.0,418.0,POINT Z (22.2474854 114.159495 0),22.2474854,114.15949499999999
152,"OCEAN COURT(Block 1),ABERDEEN PRAYA RD|逸港居1座,香港仔海傍道",HA,4405342.153845369,8395.0,431.0,4586908.370072945,8741.0,431.0,6714796.583175624,11157.0,592.0,8.0,17.0,26.0,"['A', 'B', 'C', 'D', 'E']",5567889.434725071,9470.066666666668,516.0,25,125,1999/12,22,OCEAN COURT,逸港居,True,3.0,418.0,POINT Z (22.2472388 114.1588448 0),22.2472388,114.15884479999998
153,"BROADVIEW COURT(Block 2),SHUM WAN RD|雅濤閣2座,深灣道",HA,5034460.0,10051.0,422.0,5079290.0,10371.0,422.0,7534656.0,13145.0,591.0,7.0,20.0,32.0,"['A', 'B', 'C', 'D', 'E', 'F', 'G', 'H', 'J', 'K']",5989550.866666667,11423.1,527.2,37,370,2001/07,20,BROADVIEW COURT,雅濤閣,True,4.0,1510.0,POINT Z (22.2429469 114.1650685 0),22.2429469,114.1650685
154,8 PING LAN ST|8 平瀾街,HA,5903200.0,18800.0,314.0,5903200.0,18800.0,314.0,6216258.0,19797.0,314.0,2.0,3.0,4.0,['whole floor'],6007552.666666667,19132.333333333332,314.0,5,5,1964/10,57,blank,,False,,,POINT Z (22.2447677 114.1568694 0),22.2447677,114.15686940000002
155,"HUNG FUK COURT(Block B),TIN WAN NEW ST|鴻褔苑B座,田灣新街",HA,4715165.0,8264.0,405.0,4968951.0,8223.0,405.0,5569575.0,9394.0,645.0,8.0,19.0,29.0,"['1', '10', '2', '3', '4', '5', '6', '8', '9']",5168837.933333334,8727.266666666666,509.6666666666667,31,279,1997/11,24,HUNG FUK COURT,鴻褔苑,True,2.0,549.0,POINT Z (22.251137 114.150695 0),22.251137,114.150695
156,"MAN KING BLDG,HING WO ST|萬景樓,興和街",HA,4971659.177123049,4938.0,520.0,5095497.589189905,5061.0,520.0,5224370.083048097,5802.0,584.0,8.0,13.0,18.0,"['A', 'B', 'C']",4891110.641486172,5164.833333333333,537.2222222222222,17,51,1974/06,47,blank,,False,,,POINT Z (22.2498335 114.1478834 0),22.249833499999998,114.1478834
157,"JADEWATER,ABERDEEN MAIN RD|南灣御園,香港仔大道",HA,7297152.0,13972.0,496.0,7705856.0,14516.0,496.0,11014360.0,15848.0,695.0,12.0,26.0,38.0,"['A', 'B', 'C', 'D', 'E']",8961544.733333332,15148.466666666665,591.0,36,180,2008/04,13,blank,,False,,,POINT Z (22.2484894 114.1523025 0),22.248489399999997,114.15230249999999
158,"LEE FAT MANSION,ABERDEEN MAIN RD|利發大廈,香港仔大道",HA,,,280.0,,,280.0,,,354.0,3.0,4.0,5.0,"['A', 'B', 'C']",,,329.3333333333333,3,9,1971/05,50,blank,,False,,,POINT Z (22.250331 114.153841 0),22.250331,114.15384099999999
159,"SUN MING BLDG,SHAN MING ST|新明大樓,山明街",HA,6048084.0,16332.0,356.0,6081904.0,16582.0,356.0,9748480.0,17408.0,560.0,2.0,4.0,6.0,"['A', 'B', 'C', 'D', 'E', 'F']",7554785.833333333,16927.333333333332,445.8333333333333,7,42,1966/03,55,blank,,False,,,POINT Z (22.2443331 114.1573585 0),22.244333100000002,114.1573585
160,17 HUNG SHING ST|17 洪聖街,HA,,,279.0,,,279.0,,,378.0,3.0,4.0,6.0,"['B', 'C', 'D']",,,317.6666666666667,6,18,1968/03,53,blank,,False,,,POINT Z (22.2444566 114.1559128 0),22.244456600000003,114.1559128
161,"HUNG LAI HSE(Block A,HUNG FUK COURT),TIN WAN NEW ST|鴻褔苑,A座(鴻麗閣),田灣新街",HA,3428730.0,8391.0,405.0,3586680.0,8707.0,405.0,5866920.0,9354.0,645.0,10.0,20.0,29.0,"['1', '10', '2', '3', '4', '5', '6', '7', '8', '9']",4547919.233333333,8846.966666666667,514.6,27,270,1997/11,24,HUNG FUK COURT,鴻褔苑,True,2.0,549.0,POINT Z (22.251137 114.150695 0),22.251137,114.150695
162,"TAI TAK HSE,KA WO ST|大德樓,嘉禾街",HA,,,288.0,2667717.9368582037,7068.0,288.0,,,310.0,2.0,3.0,4.0,"['2', '3', '4', '6']",2667717.9368582037,7068.0,306.75,5,20,1971/03,50,blank,,False,,,POINT Z (22.2498659 114.1483711 0),22.2498659,114.14837109999999
163,"TAI LOK HSE,SHEK PAI WAN RD|大樂樓,石排灣道",HA,,,307.0,,,307.0,,,380.0,3.0,4.0,5.0,"['1', '2', '3', '4', '5']",,,335.6666666666667,3,15,1971/03,50,blank,,False,,,POINT Z (22.2497206 114.1481853 0),22.2497206,114.1481853
164,81 MAIN ST AP LEI CHAU|81 鴨利洲大街,HA,,,495.0,,,495.0,,,495.0,3.0,4.0,5.0,['whole floor'],,,495.0,2,2,1965/11,56,blank,,False,,,POINT Z (22.2439202 114.1552265 0),22.243920199999998,114.15522649999998
165,"LARVOTTO(Block 3),AP LEI CHAU PRAYA RD|南灣3座,鴨利洲海旁道",HA,16916566.468304817,18186.0,764.0,17328643.832511295,18629.0,764.0,38740016.0,24488.0,1582.0,11.0,22.0,31.0,"['A', 'B', 'C']",30889200.120072436,22233.666666666668,1301.6666666666667,26,78,2010/12,11,LARVOTTO,南灣,True,9.0,755.0,POINT Z (22.2401736 114.1596309 0),22.240173600000002,114.15963090000001
166,"LARVOTTO(Block 1),AP LEI CHAU PRAYA RD|南灣1座,鴨利洲海旁道",HA,48470625.0,25851.0,1875.0,50925000.0,27160.0,1875.0,53328750.0,28442.0,2020.0,11.0,22.0,32.0,"['A', 'B']",50908125.0,27151.0,1947.5,27,54,2010/12,11,LARVOTTO,南灣,True,9.0,755.0,POINT Z (22.2401736 114.1596309 0),22.240173600000002,114.15963090000001
167,"LARVOTTO(Block 5),AP LEI CHAU PRAYA RD|南灣5座,鴨利洲海旁道",HA,15552748.0,19332.0,764.0,16240348.0,20375.0,764.0,27025248.0,22864.0,1182.0,11.0,22.0,32.0,"['A', 'B', 'C']",21790300.444444444,21108.666666666668,1032.5555555555554,27,81,2010/12,11,LARVOTTO,南灣,True,9.0,755.0,POINT Z (22.2401736 114.1596309 0),22.240173600000002,114.15963090000001
168,"LARVOTTO(Block 6),AP LEI CHAU PRAYA RD|南灣6座,鴨利洲海旁道",HA,16022607.999999998,19336.0,764.0,16773619.999999998,20249.0,764.0,25428840.0,22840.0,1189.0,11.0,22.0,32.0,"['A', 'B', 'C']",21950277.555555556,21165.666666666668,1042.111111111111,27,81,2010/12,11,LARVOTTO,南灣,True,9.0,755.0,POINT Z (22.2401736 114.1596309 0),22.240173600000002,114.15963090000001
169,"LARVOTTO(Block 7),AP LEI CHAU PRAYA RD|南灣7座,鴨利洲海旁道",HA,15892551.0,20297.0,783.0,16200270.0,20690.0,783.0,33474870.0,24310.0,1377.0,11.0,22.0,32.0,"['A', 'B', 'C']",24970505.333333332,22151.333333333332,1116.3333333333333,27,81,2010/12,11,LARVOTTO,南灣,True,9.0,755.0,POINT Z (22.2401736 114.1596309 0),22.240173600000002,114.15963090000001
170,"LARVOTTO(Block 10),AP LEI CHAU PRAYA RD|南灣10座,鴨利洲海旁道",HA,8333556.0,18038.0,462.0,8682176.0,18752.0,462.0,23874732.0,22399.0,1071.0,11.0,22.0,32.0,"['A', 'B', 'C', 'D']",15767566.25,20189.833333333332,762.1666666666666,27,108,2010/12,11,LARVOTTO,南灣,True,9.0,755.0,POINT Z (22.2410147 114.1589145 0),22.2410147,114.15891450000001
171,"LARVOTTO(Block 8),AP LEI CHAU PRAYA RD|南灣8座,鴨利洲海旁道",HA,11226852.0,18837.0,596.0,11847288.0,19878.0,596.0,22352896.0,21524.0,1054.0,12.0,22.0,32.0,"['A', 'B', 'C', 'D']",16600984.666666666,20115.583333333332,824.5,28,112,2010/12,11,LARVOTTO,南灣,True,9.0,755.0,POINT Z (22.240702 114.1592396 0),22.240702,114.15923959999999
172,"LARVOTTO(Block 9),AP LEI CHAU PRAYA RD|南灣9座,鴨利洲海旁道",HA,8490031.0,18337.0,463.0,8822002.0,19054.0,463.0,21555276.0,21111.0,1061.0,11.0,22.0,32.0,"['A', 'B', 'C', 'D']",15565255.916666666,19650.416666666668,793.5,27,108,2010/12,11,LARVOTTO,南灣,True,9.0,755.0,POINT Z (22.240862 114.1590538 0),22.240862,114.1590538
173,"LARVOTTO(Block 2),AP LEI CHAU PRAYA RD|南灣2座,鴨利洲海旁道",HA,55561482.01328718,28536.0,1875.0,,,1875.0,,,1923.0,11.0,22.0,31.0,"['A', 'B']",55561482.01328718,28536.0,1899.0,26,52,2010/12,11,LARVOTTO,南灣,True,9.0,755.0,POINT Z (22.2401736 114.1596309 0),22.240173600000002,114.15963090000001
174,"TUNG HING HSE(LEI TUNG EST),LEI TUNG EST RD|利東村(東興樓),利東村道",HA,1802360.0,6224.0,287.0,1867222.0,6445.0,287.0,2021976.0,6831.0,296.0,10.0,19.0,29.0,"['1', '16', '17', '23', '24', '25', '26', '29', '3', '30', '31', '32', '36', '5', '6', '7', '9']",1917345.5490196077,6528.039215686274,293.70588235294116,29,493,1987/06,34,LEI TUNG EST,利東村,True,8.0,2770.0,POINT Z (22.24059 114.155296 0),22.24059,114.15529599999999
175,132 MAIN ST AP LEI CHAU|132 鴨利洲大街,HA,3041574.98727136,10574.0,277.0,3023453.252431366,10511.0,277.0,4830472.0,11878.0,443.0,4.0,5.0,6.0,"['A', 'B', 'C', 'E', 'F']",4036370.090290045,11023.199999999999,364.06666666666666,5,25,1966/06,55,blank,,False,,,POINT Z (22.2439202 114.1552265 0),22.243920199999998,114.15522649999998
176,"TUNG ON HSE(LEI TUNG EST),LEI TUNG EST RD|利東村(東安樓),利東村道",HA,2930652.0,7692.0,381.0,3025521.0,7941.0,381.0,4160100.0000000005,8837.0,490.0,12.0,21.0,30.0,"['10', '13', '14', '15', '18', '19', '2', '22', '4', '5']",3589084.675925926,8306.62037037037,413.7,25,250,1988/06,33,LEI TUNG EST,利東村,True,8.0,2770.0,POINT Z (22.2407409 114.1570547 0),22.2407409,114.1570547
177,"TUNG SING HSE(LEI TUNG EST),LEI TUNG EST RD|利東村(東昇樓),利東村道",HA,2699385.0,7085.0,381.0,2901315.0,7615.0,381.0,3989089.9999999995,8353.0,490.0,9.0,20.0,30.0,"['11', '12', '13', '14', '15', '17', '18', '22', '23', '24', '5', '8', '9']",3189635.2307692305,7861.2307692307695,406.15384615384613,32,416,1988/06,33,LEI TUNG EST,利東村,True,8.0,2770.0,POINT Z (22.241485 114.1566154 0),22.241485,114.1566154
178,"MARINELLA(Block 6),WELFARE RD|深灣9號6座,惠福道",HA,55264053.0,32432.0,1703.0,59674823.0,34861.0,1703.0,72607663.6970084,37632.0,1858.0,8.0,19.0,29.0,"['A', 'B']",63532888.901079796,34981.5,1780.5,27,54,2012/04,9,MARINELLA,深灣9號,True,7.0,437.0,POINT Z (22.2460193 114.1636832 0),22.2460193,114.1636832
179,"MARINELLA(Block 8),WELFARE RD|深灣9號8座,惠福道",HA,30477924.0,27532.0,1107.0,32445062.999999996,29309.0,1107.0,43609896.0,32472.0,1343.0,8.0,19.0,29.0,"['A', 'B', 'C']",37600612.55555556,30265.777777777777,1240.0,27,81,2012/04,9,MARINELLA,深灣9號,True,7.0,437.0,POINT Z (22.2460193 114.1636832 0),22.2460193,114.1636832
180,"MARINELLA(Block 9),WELFARE RD|深灣9號9座,惠福道",HA,21340301.400781922,18493.0,596.0,22565813.761547096,19555.0,596.0,48418012.72867559,30395.0,1534.0,8.0,18.0,28.0,"['A', 'B', 'C']",34838226.618803166,25401.222222222223,1126.3333333333333,26,78,2012/04,9,MARINELLA,深灣9號,True,7.0,437.0,POINT Z (22.2460193 114.1636832 0),22.2460193,114.1636832
181,"MARINELLA(Block 3),WELFARE RD|深灣9號3座,惠福道",HA,30252200.0,26678.0,1100.0,32012199.999999996,29102.0,1100.0,42978032.0,31280.0,1388.0,8.0,19.0,29.0,"['A', 'B', 'C']",36737575.0,29303.888888888887,1252.3333333333333,27,81,2012/04,9,MARINELLA,深灣9號,True,7.0,437.0,POINT Z (22.2460193 114.1636832 0),22.2460193,114.1636832
182,"MARINELLA(Block 1),WELFARE RD|深灣9號1座,惠福道",HA,39869684.793134585,21618.0,1421.0,42189354.08122102,23272.0,1421.0,96669859.8760786,30149.0,2000.0,8.0,18.0,28.0,"['A', 'B']",66174663.352138735,25935.5,1710.5,26,52,2012/04,9,MARINELLA,深灣9號,True,7.0,437.0,POINT Z (22.2460193 114.1636832 0),22.2460193,114.1636832
183,"MARINELLA(Block 2),WELFARE RD|深灣9號2座,惠福道",HA,34291534.2241599,26229.0,1121.0,36750734.95143295,28110.0,1121.0,59411071.23237324,37051.0,1317.0,8.0,19.0,29.0,"['A', 'B', 'C']",45788023.1288074,31145.833333333332,1232.3333333333333,27,81,2012/04,9,MARINELLA,深灣9號,True,7.0,437.0,POINT Z (22.2460193 114.1636832 0),22.2460193,114.1636832
184,174-176 ABERDEEN MAIN RD|174-176 香港仔大道,HA,3590165.5330626164,8547.0,283.0,3556141.5002817493,8466.0,283.0,3616208.6198825394,10319.0,350.0,2.0,3.0,4.0,"['A', 'B', 'D']",3490223.579896932,8825.666666666666,326.0,5,15,1968/01,53,blank,,False,,,POINT Z (22.2485078 114.155716 0),22.248507800000002,114.155716
185,"TUNG PING HSE(LEI TUNG EST),LEI TUNG EST RD|利東村(東平樓),利東村道",HA,2671572.0,7012.0,381.0,2799969.0,7349.0,381.0,4115510.0,8399.0,490.0,9.0,19.0,28.0,"['1', '13', '15', '23', '4', '5', '6']",3335950.619047619,7764.095238095238,427.7142857142857,27,189,1987/10,34,LEI TUNG EST,利東村,True,8.0,2770.0,POINT Z (22.2419349 114.1576372 0),22.2419349,114.1576372
186,"TUNG YAT HSE(LEI TUNG EST),LEI TUNG EST RD|利東村(東逸樓),利東村道",HA,2758059.0,7239.0,381.0,3039999.0,7979.0,381.0,4287990.0,8751.0,490.0,9.0,18.0,26.0,"['1', '15', '18', '19', '23', '3', '4', '5', '6', '7', '9']",3250465.3333333335,8093.515151515152,400.8181818181818,25,275,1988/07,33,LEI TUNG EST,利東村,True,8.0,2770.0,POINT Z (22.2406848 114.157823 0),22.2406848,114.157823
187,"TUNG CHEONG HSE(LEI TUNG EST),LEI TUNG EST RD|利東村(東昌樓),利東村道",HA,2787777.0,7311.0,381.0,2924175.0,7675.0,381.0,4020940.0,8206.0,490.0,9.0,19.0,29.0,"['1', '11', '12', '13', '17', '19', '21', '22', '24', '6']",3203083.8666666667,7741.066666666667,413.7,29,290,1987/01,34,LEI TUNG EST,利東村,True,8.0,2770.0,POINT Z (22.2416169 114.1540655 0),22.2416169,114.1540655
188,"TUNG YIP HSE(LEI TUNG EST),LEI TUNG EST RD|利東村(東業樓),利東村道",HA,2623185.0,6885.0,381.0,2768346.0,7266.0,381.0,4102280.0,8649.0,490.0,10.0,20.0,30.0,"['1', '10', '14', '16', '18', '19', '21', '22', '24', '4', '7', '8', '9']",3109312.9487179485,7809.051282051281,397.7692307692308,28,364,1987/01,34,LEI TUNG EST,利東村,True,8.0,2770.0,POINT Z (22.2411576 114.1543615 0),22.2411576,114.1543615
189,"MARINELLA,WELFARE RD|深灣9號,惠福道",HA,122345370.0,47452.0,2565.0,122345370.0,47452.0,2565.0,212075980.5540068,56390.0,3622.0,0.0,0.0,0.0,"['1', '10', '11', '12', '16', '18', '2', '3', '6', '8']",158699173.56185684,52000.0,2944.1,1,10,2012/04,9,MARINELLA,深灣9號,True,7.0,437.0,POINT Z (22.2460193 114.1636832 0),22.2460193,114.1636832
190,"TUNG MAU HSE(LEI TUNG EST),LEI TUNG EST RD|利東村(東茂樓),利東村道",HA,1714251.0,5923.0,287.0,1772799.0,6177.0,287.0,2206764.0,7506.0,296.0,9.0,19.0,29.0,"['11', '13', '14', '15', '18', '19', '2', '20', '22', '24', '26', '3', '32', '34', '5', '7', '9']",1992460.4901960783,6839.8823529411775,291.29411764705884,29,493,1987/06,34,LEI TUNG EST,利東村,True,8.0,2770.0,POINT Z (22.241631 114.1556865 0),22.241630999999998,114.1556865
191,"H. BONAIRE,MAIN ST AP LEI CHAU|倚南,鴨利洲大街",HA,6863360.0,20035.0,320.0,7222720.0,21292.0,320.0,15536374.0,25474.0,674.0,8.0,19.0,29.0,"['A', 'B', 'C', 'D']",11348527.666666666,22607.333333333332,502.75,27,108,2016/10,5,blank,,False,,,POINT Z (22.2442365 114.1556764 0),22.2442365,114.15567639999999
192,58 MAIN ST AP LEI CHAU|58 鴨利洲大街,HA,,,377.0,,,377.0,,,377.0,3.0,3.0,3.0,['whole floor'],,,377.0,1,1,1976/04,45,blank,,False,,,POINT Z (22.2439202 114.1552265 0),22.243920199999998,114.15522649999998
193,26 MAIN ST AP LEI CHAU|26 鴨利洲大街,HA,6228984.0,19588.0,318.0,6256014.0,19673.0,318.0,6316116.0,19862.0,318.0,2.0,3.0,4.0,['whole floor'],6267038.0,19707.666666666668,318.0,3,3,1964/10,57,blank,,False,,,POINT Z (22.2439202 114.1552265 0),22.243920199999998,114.15522649999998
194,31 TUNG SING RD|31 東勝道,HA,,,429.0,,,429.0,,,498.0,4.0,6.0,6.0,"['1', '3', '4', '5', '6']",,,468.0,4,20,1962/03,59,blank,,False,,,POINT Z (22.2488412 114.1552623 0),22.248841199999998,114.15526229999999
195,"SOUTH COAST,TANG FUNG ST|登峰南岸,登豐街",HA,3997306.0,18677.0,214.0,,,214.0,,,606.0,22.0,68.0,102.0,"['A', 'B', 'BC', 'C', 'D', 'E', 'EF', 'F']",7616194.748804438,20054.125,377.625,96,768,2016/11,5,blank,,False,,,POINT Z (22.2493987 114.1495351 0),22.2493987,114.14953510000001
196,210-210A ABERDEEN MAIN RD|210-210A 香港仔大道,HA,,,354.0,,,354.0,,,354.0,2.0,2.0,3.0,['B'],,,354.0,2,2,1971/10,50,blank,,False,,,POINT Z (22.2485078 114.155716 0),22.248507800000002,114.155716
197,4 TANG FUNG ST|4 登豐街,HA,,,564.0,,,564.0,,,564.0,4.0,4.0,4.0,['whole floor'],,,564.0,1,1,1958/04,63,blank,,False,,,POINT Z (22.2494513 114.1491161 0),22.2494513,114.14911609999999
198,"MARINA SOUTH(Block 1),AP LEI CHAU DR|南區．左岸1座,鴨利洲徑",HA,,,1787.0,,,1787.0,,,3657.0,21.0,67.0,102.0,"['A', 'AB', 'B']",,,2438.0,97,291,2016/06,5,MARINA SOUTH,南區．左岸,True,2.0,375.0,POINT Z (22.2430567 114.1589563 0),22.243056699999997,114.15895630000001
199,"MARINA SOUTH(Block 2),AP LEI CHAU DR|南區．左岸2座,鴨利洲徑",HA,57980428.0,26971.0,1787.0,71546826.0,28652.0,1787.0,135011155.14346486,40293.0,3694.0,8.0,18.0,28.0,"['A', 'AB', 'B']",92457646.7541498,33172.333333333336,2462.6666666666665,28,84,2016/06,5,MARINA SOUTH,南區．左岸,True,2.0,375.0,POINT Z (22.2430567 114.1589563 0),22.243056699999997,114.15895630000001
200,11 TUNG SING RD|11 東勝道,HA,,,598.0,,,598.0,,,598.0,2.0,2.0,2.0,['whole floor'],,,598.0,1,1,1953/07,68,blank,,False,,,POINT Z (22.2488412 114.1552623 0),22.248841199999998,114.15526229999999
201,18 WU PAK ST|18 湖北街,HA,8018704.11313377,12978.0,595.0,8027354.279383106,12992.0,595.0,8074312.324736641,13068.0,595.0,3.0,4.0,5.0,['whole floor'],8040123.572417839,13012.666666666666,595.0,3,3,1966/05,55,blank,,False,,,POINT Z (22.2481534 114.1548009 0),22.2481534,114.15480090000001
202,9 TUNG SING RD|9 東勝道,HA,,,598.0,,,598.0,,,598.0,2.0,2.0,3.0,['whole floor'],,,598.0,2,2,1953/07,68,blank,,False,,,POINT Z (22.2488412 114.1552623 0),22.248841199999998,114.15526229999999
203,69 MAIN ST AP LEI CHAU|69 鴨利洲大街,HA,,,821.0,,,821.0,,,821.0,5.0,5.0,5.0,['whole floor'],,,821.0,1,1,1963/04,58,blank,,False,,,POINT Z (22.2439202 114.1552265 0),22.243920199999998,114.15522649999998
204,16 WU PAK ST|16 湖北街,HA,,,595.0,,,595.0,,,595.0,5.0,5.0,5.0,['whole floor'],,,595.0,1,1,1966/05,55,blank,,False,,,POINT Z (22.2481534 114.1548009 0),22.2481534,114.15480090000001
205,106 ABERDEEN MAIN RD|106 香港仔大道,HA,,,377.0,,,377.0,,,377.0,3.0,4.0,4.0,['whole floor'],,,377.0,4,4,1985/03,36,blank,,False,,,POINT Z (22.2485078 114.155716 0),22.248507800000002,114.155716
206,"SOUTH WALK．AURA,TIN WAN ST|南津．迎岸,田灣街",HA,3537324.0,18716.0,183.0,3739156.0,19274.0,183.0,6268840.0,27092.0,265.0,7.0,16.0,24.0,"['A', 'B', 'C', 'D', 'E', 'F']",4892046.444444444,22880.88888888889,214.05555555555557,23,138,2019/06,2,blank,,False,,,POINT Z (22.2495096 114.1492778 0),22.249509600000003,114.1492778
207,32 MAIN ST AP LEI CHAU|32 鴨利洲大街,HA,,,494.0,,,494.0,,,494.0,4.0,4.0,4.0,['whole floor'],,,494.0,1,1,1964/12,57,blank,,False,,,POINT Z (22.2439202 114.1552265 0),22.243920199999998,114.15522649999998
208,30 MAIN ST AP LEI CHAU|30 鴨利洲大街,HA,,,1943.0,,,1943.0,,,970.0,2.0,2.0,4.0,['whole floor'],,,1618.6666666666667,4,4,1964/12,57,blank,,False,,,POINT Z (22.2439202 114.1552265 0),22.243920199999998,114.15522649999998
209,124 MAIN ST AP LEI CHAU|124 鴨利洲大街,HA,,,513.0,,,513.0,,,513.0,5.0,5.0,5.0,['whole floor'],,,513.0,1,1,1975/08,46,blank,,False,,,POINT Z (22.2439202 114.1552265 0),22.243920199999998,114.15522649999998
210,126 MAIN ST AP LEI CHAU|126 鴨利洲大街,HA,,,513.0,,,513.0,,,513.0,1.0,2.0,3.0,['whole floor'],,,513.0,3,3,1975/08,46,blank,,False,,,POINT Z (22.2439202 114.1552265 0),22.243920199999998,114.15522649999998
211,120 MAIN ST AP LEI CHAU|120 鴨利洲大街,HA,,,512.0,,,512.0,,,512.0,2.0,2.0,2.0,['whole floor'],,,512.0,1,1,1967/04,54,blank,,False,,,POINT Z (22.2439202 114.1552265 0),22.243920199999998,114.15522649999998
