,final_address,district,lowZone_value,lowZone_npsf_min,lowZone_nfa_min,midZone_value,midZone_npsf_min,midZone_nfa_min,highZone_value,highZone_npsf_max,highZone_nfa_max,oneSixth_floor,middle_floor,fifthSixth_floor,unit_list,value_avg,npsf_avg,unitSize_avg,noStorey,noFlat,op_date,bldgAge,est_name_en,est_name_ch,est_orNot,est_bldgNo,est_flatNo,final_coords,lat,long
0,"ABBA HSE(Block B),ABERDEEN MAIN RD|福群大樓B座,香港仔大道",HA,4653690.0,14244.0,305.0,4866885.0,14837.0,305.0,7610850.0,16913.0,450.0,10.0,19.0,28.0,"['1', '2', '3', '4', '5', '6', '7', '8']",5781782.5,15783.541666666666,366.875,29,232,1983/03,38,ABBA HSE,福群大樓,True,1.0,232.0,POINT Z (22.2483297 114.1525978 0),22.2483297,114.1525978
1,"YEE TSUI COURT(Block 16,Phase 2,SOUTH HORIZONS),16 SOUTH HORIZON DR|海怡半島,2期,16座(怡翠閣),16 海怡路",HA,8759375.0,14015.0,625.0,8838750.0,14142.0,625.0,16810078.0,18973.0,897.0,8.0,20.0,33.0,"['A', 'B', 'C', 'D', 'E', 'F', 'G', 'H']",12279537.666666666,15946.708333333334,760.875,40,320,1993/00,28,SOUTH HORIZONS,海怡半島,True,0.0,0.0,POINT Z (22.2431304 114.1465931 0),22.2431304,114.14659309999999
2,"COBLE COURT,MAIN ST AP LEI CHAU|高寶閣,鴨利洲大街",HA,4282135.0,13981.0,265.0,4337785.0,14489.0,265.0,5889055.0,16754.0,395.0,6.0,13.0,20.0,"['A', 'B', 'C', 'D', 'E', 'F', 'G', 'H']",5261304.666666667,15180.625,348.875,23,184,1987/02,34,blank,,False,,,POINT Z (22.2434521 114.1545021 0),22.243452100000003,114.1545021
3,"MEI WAH COURT(Block 22,Phase 3,SOUTH HORIZONS),22 SOUTH HORIZON DR|海怡半島,3期,22座(美華閣),22 海怡路",HA,8306609.999999999,14079.0,589.0,9331440.0,15816.0,589.0,17005184.0,18979.0,896.0,7.0,18.0,30.0,"['A', 'B', 'C', 'D', 'E', 'F', 'G', 'H']",12515941.833333334,16766.416666666668,739.75,36,288,1994/08,27,SOUTH HORIZONS,海怡半島,True,0.0,0.0,POINT Z (22.2429446 114.1475257 0),22.2429446,114.1475257
4,"YEE FAI COURT(Block 13A,Phase 2,SOUTH HORIZONS),13A SOUTH HORIZON DR|海怡半島,2期,13A座(怡暉閣),13A 海怡路",HA,9603984.0,15187.0,624.0,9759486.0,15297.0,624.0,18681819.0,20827.0,897.0,8.0,20.0,33.0,"['A', 'B', 'C', 'D', 'E', 'F', 'G', 'H']",13785963.041666666,17846.083333333332,760.375,40,320,1993/07,28,SOUTH HORIZONS,海怡半島,True,0.0,0.0,POINT Z (22.2432615 114.1457236 0),22.2432615,114.1457236
5,"CAMBRIDGE COURT(Block 33A,Phase 4,SOUTH HORIZONS),33A YI NAM RD|海怡半島,4期,33A座(御翠居),33A 怡南路",HA,7717472.0,14672.0,526.0,8194554.0,15203.0,526.0,10629080.0,16660.0,656.0,10.0,18.0,26.0,"['A', 'B', 'C', 'D', 'E', 'F', 'G', 'H']",9391379.923809525,15681.904761904763,591.25,25,200,1995/03,26,SOUTH HORIZONS,海怡半島,True,0.0,0.0,POINT Z (22.2429142 114.1491839 0),22.242914199999998,114.14918390000001
6,"KIN FAI BLDG,ABERDEEN MAIN RD|建輝大廈,香港仔大道",HA,4285960.0,14203.0,280.0,4240600.0,14334.0,280.0,5104260.0,16204.0,315.0,7.0,13.0,19.0,"['A', 'B', 'C', 'D', 'E', 'F']",4573086.777777777,15397.266666666668,291.6666666666667,19,114,1979/11,42,blank,,False,,,POINT Z (22.2478893 114.1587287 0),22.2478893,114.1587287
7,"YEE KING COURT(Block 8,Phase 2,SOUTH HORIZONS),8 SOUTH HORIZON DR|海怡半島,2期,8座(怡景閣),8 海怡路",HA,10083513.0,15537.0,648.0,10512504.0,16223.0,648.0,32956583.0,21869.0,1507.0,8.0,21.0,34.0,"['A', 'AB', 'B', 'C', 'D', 'E', 'F', 'G', 'H']",14490926.407407409,17443.703703703704,813.888888888889,41,369,1992/10,29,SOUTH HORIZONS,海怡半島,True,0.0,0.0,POINT Z (22.2443926 114.1450302 0),22.2443926,114.14503020000001
8,"YEE LOK COURT(Block 13,Phase 2,SOUTH HORIZONS),13 SOUTH HORIZON DR|海怡半島,2期,13座(怡樂閣),13 海怡路",HA,8741958.0,13638.0,631.0,8938745.0,13945.0,631.0,13255859.0,17419.0,763.0,6.0,17.0,28.0,"['A', 'B', 'C', 'D', 'E', 'F', 'G', 'H']",10491286.125,15644.791666666666,668.625,33,264,1992/10,29,SOUTH HORIZONS,海怡半島,True,0.0,0.0,POINT Z (22.2436581 114.1456689 0),22.2436581,114.1456689
9,"ABBA HSE(Block A),ABERDEEN MAIN RD|福群大樓A座,香港仔大道",HA,4719265.0,13839.0,305.0,4914160.0,14747.0,305.0,7053695.0,16988.0,450.0,10.0,19.0,28.0,"['1', '2', '3', '4', '5', '6', '7', '8']",5960745.0,15631.5,383.125,29,232,1983/03,38,ABBA HSE,福群大樓,True,1.0,232.0,POINT Z (22.2482423 114.1528764 0),22.2482423,114.1528764
10,"ALBERT HSE,CHENGTU RD|添喜大廈,成都道",HA,3436064.688878565,4552.0,390.0,3944831.7363970517,5226.0,390.0,5220094.769680169,12890.0,780.0,7.0,15.0,22.0,"['A', 'AC', 'B', 'C', 'D']",4250325.960662153,7334.833333333333,468.0,21,105,1973/08,48,blank,,False,,,POINT Z (22.248646 114.154863 0),22.248646,114.15486299999999
11,"MEI HIN COURT(Block 23,Phase 3,SOUTH HORIZONS),23 SOUTH HORIZON DR|海怡半島,3期,23座(美軒閣),23 海怡路",HA,8928062.0,15158.0,589.0,9161520.0,15528.0,589.0,14878710.0,18810.0,791.0,7.0,20.0,33.0,"['A', 'B', 'C', 'D', 'E', 'F', 'G', 'H']",11388816.958333334,16451.5,687.875,39,312,1994/08,27,SOUTH HORIZONS,海怡半島,True,0.0,0.0,POINT Z (22.2420243 114.1486033 0),22.2420243,114.1486033
12,"KONG FU COURT(Block E,ABERDEEN CTR),NAM NING ST|香港仔中心,E座(港富閣),南寧街",HA,5846402.0,12682.0,450.0,6261750.0,13895.0,450.0,8062187.0,14719.0,553.0,6.0,15.0,24.0,"['1', '2', '3', '4', '5', '6']",6814607.055555556,13956.333333333334,488.0,27,162,1982/01,39,ABERDEEN CTR,香港仔中心,True,0.0,0.0,POINT Z (22.249187 114.154169 0),22.249187,114.154169
13,"WAI KING COURT(Block 30,Phase 4,SOUTH HORIZONS),30 YI NAM RD|海怡半島,4期,30座(慧景閣),30 怡南路",HA,7461696.0,14025.0,528.0,7747344.0,14581.0,528.0,10853128.0,15963.0,7254.0,8.0,17.0,26.0,"['A', 'A-H', 'B', 'C', 'D', 'E', 'F', 'G', 'H']",9081315.458333334,15018.041666666666,1343.3333333333333,27,243,1994/12,27,SOUTH HORIZONS,海怡半島,True,0.0,0.0,POINT Z (22.243881 114.149743 0),22.243881,114.14974299999999
14,"SHUN FUNG COURT,KA WO ST|順豐大廈,嘉禾街",HA,,,327.0,4443061.685670398,13085.0,327.0,4491278.327578323,13227.0,327.0,5.0,12.0,21.0,"['A', 'B']",4467170.006624361,13156.0,327.0,21,42,1994/11,27,blank,,False,,,POINT Z (22.2497168 114.1486429 0),22.2497168,114.1486429
15,"ON FAI BLDG,OLD MAIN ST ABERDEEN|安輝大廈,香港仔舊大街",HA,4149801.411424106,12983.0,301.0,4136986.6296309005,13201.0,301.0,6318510.0,14230.0,467.0,7.0,12.0,16.0,"['A', 'B', 'C', 'D', 'E', 'F']",5641109.519933379,13416.22222222222,419.1666666666667,16,96,1977/04,44,blank,,False,,,POINT Z (22.2482727 114.1561509 0),22.248272699999998,114.15615090000001
16,"HOI YAT COURT(Block 6,Phase 1,SOUTH HORIZONS),6 SOUTH HORIZON DR|海怡半島,1期,6座(海逸閣),6 海怡路",HA,8331682.000000001,13726.0,600.0,8775399.0,14457.0,600.0,12729892.0,16684.0,763.0,7.0,18.0,29.0,"['A', 'B', 'C', 'D', 'E', 'F', 'G', 'H']",10313943.625,15287.625,674.0,35,280,1992/03,29,SOUTH HORIZONS,海怡半島,True,0.0,0.0,POINT Z (22.2446038 114.1462959 0),22.2446038,114.1462959
17,"FENTON COURT(Block 27,Phase 4,SOUTH HORIZONS),27 YI NAM RD|海怡半島,4期,27座(御雅居),27 怡南路",HA,7205144.0,13672.0,526.0,7521344.0,14272.0,526.0,20461896.0,19432.0,1053.0,7.0,18.0,29.0,"['A', 'A & B', 'B', 'C', 'D', 'E', 'F', 'G', 'H']",11290712.518518517,16262.296296296297,682.3333333333334,35,315,1995/07,26,SOUTH HORIZONS,海怡半島,True,0.0,0.0,POINT Z (22.2429245 114.1500896 0),22.2429245,114.1500896
18,"KONG HING COURT(Block J,ABERDEEN CTR),NAM NING ST|香港仔中心,J座(港興閣),南寧街",HA,6117300.0,13547.0,450.0,6277050.0,13949.0,450.0,8456476.0,15292.0,553.0,6.0,15.0,24.0,"['1', '2', '3', '4', '5', '6']",6991683.777777779,14299.388888888889,488.0,27,162,1981/12,40,ABERDEEN CTR,香港仔中心,True,0.0,0.0,POINT Z (22.2491936 114.1537589 0),22.2491936,114.15375890000001
19,"MAY COURT,OLD MAIN ST ABERDEEN|美倫閣,香港仔舊大街",HA,4559256.0,14613.0,312.0,4680000.0,15000.0,312.0,5192928.0,16644.0,312.0,7.0,15.0,22.0,"['A', 'B']",4904536.0,15719.666666666666,312.0,23,46,1996/11,25,blank,,False,,,POINT Z (22.2475454 114.1561441 0),22.2475454,114.15614409999999
20,"GRANDVIEW GARDEN(Block 1),NAM LONG SHAN RD|金寶花園1座,南朗山道",HA,4756215.0,14545.0,307.0,5137010.0,15193.0,307.0,5845630.0,17775.0,370.0,6.0,14.0,21.0,"['A', 'B', 'C', 'D', 'E', 'F']",5296472.0,16073.055555555555,330.5,24,144,1985/03,36,GRANDVIEW GARDEN,金寶花園,True,0.0,0.0,POINT Z (22.244926 114.16684 0),22.244926,114.16684
21,"KONG KAI BLDG,ABERDEEN MAIN RD|港基大廈,香港仔大道",HA,4813090.0,13558.0,355.0,4914620.0,13844.0,355.0,5172350.0,14570.0,355.0,6.0,13.0,20.0,"['A', 'B']",4986921.666666667,14047.666666666666,355.0,21,42,1990/01,31,blank,,False,,,POINT Z (22.2496212 114.1554774 0),22.2496212,114.1554774
22,"EVER SECURE MANSION,KA WO ST|永穩大廈,嘉禾街",HA,4109286.5146389594,11992.0,330.0,4199751.127703059,12256.0,330.0,4310775.880099909,12580.0,330.0,6.0,11.0,16.0,"['A', 'B']",4209460.082387969,12284.333333333334,330.0,15,30,1986/01,35,blank,,False,,,POINT Z (22.2498077 114.148464 0),22.249807699999998,114.14846399999999
23,"YEE WAN COURT(Block 15,Phase 2,SOUTH HORIZONS),15 SOUTH HORIZON DR|海怡半島,2期,15座(怡韻閣),15 海怡路",HA,8954375.0,14293.0,625.0,9308750.0,14894.0,625.0,18165147.0,20251.0,897.0,8.0,20.0,33.0,"['A', 'B', 'C', 'D', 'E', 'F', 'G', 'H']",13054051.666666666,16882.041666666668,759.5,40,320,1993/07,28,SOUTH HORIZONS,海怡半島,True,0.0,0.0,POINT Z (22.243179 114.146127 0),22.243179,114.146127
24,"PAK KING COURT(Block 31,Phase 4,SOUTH HORIZONS),31 YI NAM RD|海怡半島,4期,31座(柏景閣),31 怡南路",HA,7593332.0,14043.0,523.0,7941956.0,14527.0,523.0,10969924.0,16156.0,688.0,8.0,16.0,25.0,"['A', 'B', 'C', 'D', 'E', 'F', 'G', 'H']",9124522.083333334,15200.458333333334,600.125,26,208,1994/12,27,SOUTH HORIZONS,海怡半島,True,0.0,0.0,POINT Z (22.243803 114.150128 0),22.243803,114.15012800000001
25,"MARINA HABITAT(Block 2),YUET HOI ST|悅海華庭2座,悅海街",HA,6211418.0,14141.0,422.0,6410978.0,14983.0,422.0,9958905.0,16461.0,605.0,10.0,24.0,37.0,"['A', 'B', 'C', 'D', 'E', 'F', 'G', 'H']",7659149.416666667,15482.458333333334,495.25,42,336,1998/05,23,MARINA HABITAT,悅海華庭,True,0.0,0.0,POINT Z (22.244175 114.154286 0),22.244175,114.15428600000001
26,"MEI CHUN COURT(Block 21,Phase 3,SOUTH HORIZONS),21 SOUTH HORIZON DR|海怡半島,3期,21座(美浚閣),21 海怡路",HA,9339608.0,15592.0,589.0,9440000.0,16000.0,589.0,16907538.0,19083.0,896.0,7.0,18.0,30.0,"['A', 'B', 'C', 'D', 'E', 'F', 'G', 'H']",12738615.333333334,17052.875,740.375,36,288,1993/12,28,SOUTH HORIZONS,海怡半島,True,0.0,0.0,POINT Z (22.2420248 114.1477673 0),22.242024800000003,114.1477673
27,"YEE MEI COURT(Block 7,Phase 2,SOUTH HORIZONS),7 SOUTH HORIZON DR|海怡半島,2期,7座(怡美閣),7 海怡路",HA,9501576.0,13908.0,644.0,9687046.0,14602.0,644.0,12738360.0,16872.0,760.0,8.0,22.0,35.0,"['A', 'B', 'C', 'D', 'E', 'F', 'G', 'H']",11262357.166666666,15447.708333333334,728.625,42,336,1992/10,29,SOUTH HORIZONS,海怡半島,True,0.0,0.0,POINT Z (22.2446716 114.145352 0),22.2446716,114.145352
28,"EATON COURT(Block 26,Phase 4,SOUTH HORIZONS),26 YI NAM RD|海怡半島,4期,26座(御盈居),26 怡南路",HA,7505534.0,14242.0,526.0,7887082.0,14966.0,526.0,13316644.0,17803.0,748.0,7.0,18.0,29.0,"['A', 'B', 'C', 'D', 'E', 'F', 'G', 'H']",10190555.0,15931.625,636.0,35,280,1995/03,26,SOUTH HORIZONS,海怡半島,True,0.0,0.0,POINT Z (22.2427306 114.1496813 0),22.2427306,114.14968130000001
29,"MARINA HABITAT(Block 3),YUET HOI ST|悅海華庭3座,悅海街",HA,6405538.0,13290.0,422.0,6549440.0,14009.0,422.0,9552950.0,17179.0,605.0,10.0,23.0,36.0,"['A', 'B', 'C', 'D', 'E', 'F', 'G', 'H']",7624745.708333333,15505.958333333334,495.25,41,328,1998/05,23,MARINA HABITAT,悅海華庭,True,0.0,0.0,POINT Z (22.2442833 114.1546303 0),22.244283300000003,114.15463030000001
30,"DOVER COURT(Block 25,Phase 4,SOUTH HORIZONS),25 YI NAM RD|海怡半島,4期,25座(御柳居),25 怡南路",HA,7827004.0,14852.0,526.0,8157734.0,15509.0,526.0,12786312.0,17094.0,748.0,7.0,18.0,29.0,"['A', 'B', 'C', 'D', 'E', 'F', 'G', 'H']",10121895.083333334,15897.958333333334,635.25,35,280,1995/03,26,SOUTH HORIZONS,海怡半島,True,0.0,0.0,POINT Z (22.2425571 114.1494557 0),22.242557100000003,114.1494557
31,"SILVER MANSION,SHEK PAI WAN RD|兆暉大廈,石排灣道",HA,5092827.5072104465,12354.0,397.0,5298123.613620581,12852.0,397.0,5658838.0,14254.0,397.0,6.0,15.0,24.0,"['A', 'B']",5371471.525436505,13283.5,397.0,27,54,1997/02,24,blank,,False,,,POINT Z (22.2493714 114.1487427 0),22.249371399999998,114.14874270000001
32,"YEE MOON COURT(Block 12,Phase 2,SOUTH HORIZONS),12 SOUTH HORIZON DR|海怡半島,2期,12座(怡滿閣),12 海怡路",HA,9057374.0,14354.0,631.0,9648621.0,15145.0,631.0,12671725.0,16400.0,781.0,6.0,17.0,28.0,"['A', 'B', 'C', 'D', 'E', 'F', 'G', 'H']",10398167.666666666,15484.333333333334,671.0,33,264,1992/10,29,SOUTH HORIZONS,海怡半島,True,0.0,0.0,POINT Z (22.243179 114.146127 0),22.243179,114.146127
33,"YEE LAI COURT(Block 10,Phase 2,SOUTH HORIZONS),10 SOUTH HORIZON DR|海怡半島,2期,10座(怡麗閣),10 海怡路",HA,9649981.0,14869.0,648.0,10222399.0,15751.0,648.0,17078904.0,19233.0,893.0,8.0,22.0,35.0,"['A', 'B', 'C', 'D', 'E', 'F', 'G', 'H']",13662537.375,17061.0,796.25,42,336,1992/10,29,SOUTH HORIZONS,海怡半島,True,0.0,0.0,POINT Z (22.243875 114.144527 0),22.243875,114.144527
34,"MARINA HABITAT(Block 1),YUET HOI ST|悅海華庭1座,悅海街",HA,6522010.0,14140.0,422.0,5967502.0,13355.0,422.0,9675765.0,15993.0,605.0,10.0,23.0,36.0,"['A', 'B', 'C', 'D', 'E', 'F', 'G', 'H']",7553164.375,15288.208333333334,495.25,41,328,1998/05,23,MARINA HABITAT,悅海華庭,True,0.0,0.0,POINT Z (22.2440158 114.1538286 0),22.2440158,114.15382859999998
35,"HOI NGAR COURT(Block 3,Phase 1,SOUTH HORIZONS),3 SOUTH HORIZON DR|海怡半島,1期,3座(海雅閣),3 海怡路",HA,8796037.0,14421.0,600.0,9171721.0,15011.0,600.0,22132631.0,18097.0,1223.0,7.0,18.0,29.0,"['A', 'B', 'C', 'D', 'E', 'EF', 'F', 'G', 'H']",11631191.925925925,15659.740740740739,735.0,35,315,1991/11,30,SOUTH HORIZONS,海怡半島,True,0.0,0.0,POINT Z (22.2447503 114.1473493 0),22.2447503,114.1473493
36,"HOI FAI COURT(Block 2,Phase 1,SOUTH HORIZONS),2 SOUTH HORIZON DR|海怡半島,1期,2座(海暉閣),2 海怡路",HA,7090006.0,13154.0,526.0,7415562.0,13758.0,526.0,10756044.0,16832.0,652.0,8.0,20.0,33.0,"['A', 'B', 'C', 'D', 'E', 'F', 'G', 'H']",8530641.833333334,15269.333333333334,559.0,40,320,1991/11,30,SOUTH HORIZONS,海怡半島,True,0.0,0.0,POINT Z (22.244541 114.147874 0),22.244541,114.147874
37,"FULL JADE MANSION,SHEK PAI WAN RD|富澤大廈,石排灣道",HA,3974993.9999999995,15693.0,243.0,4036473.0000000005,16202.0,243.0,4451904.0,17929.0,262.0,5.0,12.0,20.0,"['A', 'B', 'C', 'D']",4189696.5,16794.583333333332,249.66666666666666,24,96,1992/06,29,blank,,False,,,POINT Z (22.2495028 114.1479066 0),22.249502800000002,114.14790659999998
38,"MEI KA COURT(Block 23A,Phase 3,SOUTH HORIZONS),23A SOUTH HORIZON DR|海怡半島,3期,23A座(美家閣),23A 海怡路",HA,8533432.0,14488.0,589.0,8993754.0,15141.0,589.0,14362167.0,18220.0,791.0,7.0,20.0,33.0,"['A', 'B', 'C', 'D', 'E', 'F', 'G', 'H']",11211183.083333334,16207.291666666666,687.875,39,312,1994/02,27,SOUTH HORIZONS,海怡半島,True,0.0,0.0,POINT Z (22.2421636 114.1488258 0),22.2421636,114.1488258
39,"GRANDVIEW GARDEN(Block 2),NAM LONG SHAN RD|金寶花園2座,南朗山道",HA,5335046.0,15576.0,307.0,5486090.0,15959.0,307.0,6316382.0,18542.0,373.0,6.0,14.0,22.0,"['A', 'B', 'C', 'D', 'E', 'F']",5753408.166666667,17195.277777777777,335.5,25,150,1985/03,36,GRANDVIEW GARDEN,金寶花園,True,0.0,0.0,POINT Z (22.244926 114.16684 0),22.244926,114.16684
40,"YEE ON BLDG,MAIN ST AP LEI CHAU|怡安大廈,鴨利洲大街",HA,4724920.0,12434.0,380.0,4916440.0,12938.0,380.0,5143300.0,13535.0,380.0,7.0,12.0,18.0,"['A', 'B']",4977493.333333333,13098.666666666666,380.0,18,36,1984/09,37,blank,,False,,,POINT Z (22.2433801 114.1535731 0),22.2433801,114.15357309999999
41,"HOI LEE BLDG,MAIN ST AP LEI CHAU|海利大廈,鴨利洲大街",HA,4307832.0,16035.0,268.0,4481764.0,16171.0,268.0,5178516.0,17832.0,300.0,5.0,12.0,19.0,"['A', 'B', 'C', 'D']",4800484.5,17004.416666666668,282.5,23,92,1991/09,30,blank,,False,,,POINT Z (22.2440977 114.1562206 0),22.244097699999998,114.1562206
42,"HOI NING COURT(Block 5,Phase 1,SOUTH HORIZONS),5 SOUTH HORIZON DR|海怡半島,1期,5座(海寧閣),5 海怡路",HA,8739600.0,13984.0,600.0,9287400.0,14672.0,600.0,11441640.0,16849.0,742.0,7.0,18.0,29.0,"['A', 'B', 'C', 'D', 'E', 'F', 'G', 'H']",10161905.041666666,15272.75,666.75,35,280,1991/11,30,SOUTH HORIZONS,海怡半島,True,0.0,0.0,POINT Z (22.244734 114.146632 0),22.244734,114.14663200000001
43,"MEI HAY COURT(Block 18,Phase 3,SOUTH HORIZONS),18 SOUTH HORIZON DR|海怡半島,3期,18座(美晞閣),18 海怡路",HA,8302543.999999999,14096.0,589.0,8655300.0,14670.0,589.0,16585162.0,18469.0,1263.0,8.0,20.0,33.0,"['A', 'B', 'C', 'D', 'E', 'E & F', 'F', 'G', 'H']",10718485.416666666,15721.791666666666,739.888888888889,40,360,1993/12,28,SOUTH HORIZONS,海怡半島,True,0.0,0.0,POINT Z (22.2427771 114.1478342 0),22.2427771,114.14783419999999
44,"MEI FAI COURT(Block Q,ABERDEEN CTR),NAM NING ST|香港仔中心,Q座(美輝閣),南寧街",HA,7835960.0,12952.0,605.0,8128174.999999999,13435.0,605.0,10323360.0,14338.0,720.0,7.0,15.0,22.0,"['1', '2', '3', '4']",9048881.25,13642.25,662.5,23,92,1981/05,40,ABERDEEN CTR,香港仔中心,True,0.0,0.0,POINT Z (22.2482784 114.1532016 0),22.2482784,114.15320159999999
45,"ABERDEEN HARBOUR MANSION,ABERDEEN MAIN RD|雙喜大廈,香港仔大道",HA,4725414.0,12148.0,369.0,4878180.0,12364.0,369.0,11592994.474965878,14401.0,788.0,7.0,12.0,18.0,"['A', 'AB', 'B', 'C', 'D', 'E', 'E & F', 'F', 'G', 'H', 'I', 'J', 'K']",6285885.923833303,13135.604700854701,466.8205128205129,17,221,1972/10,49,blank,,False,,,POINT Z (22.2475013 114.1577301 0),22.2475013,114.1577301
46,"PORT CTR,CHENGTU RD|利港中心,成都道",HA,5808252.0,14132.0,411.0,5993202.0,14391.0,411.0,7171056.0,15875.0,456.0,9.0,16.0,22.0,"['A', 'B', 'C', 'D', 'E', 'F', 'G', 'H']",6542730.625,15094.791666666666,433.5,22,176,1989/07,32,blank,,False,,,POINT Z (22.2490583 114.1550362 0),22.2490583,114.1550362
47,"YEE NGAR COURT(Block 9,Phase 2,SOUTH HORIZONS),9 SOUTH HORIZON DR|海怡半島,2期,9座(怡雅閣),9 海怡路",HA,9636408.0,14871.0,648.0,10151658.0,15642.0,648.0,13577920.0,17994.0,755.0,8.0,22.0,35.0,"['A', 'B', 'C', 'D', 'E', 'F', 'G', 'H']",12028583.5,16481.541666666668,728.7083333333334,42,336,1992/10,29,SOUTH HORIZONS,海怡半島,True,0.0,0.0,POINT Z (22.2440632 114.1447667 0),22.2440632,114.14476670000002
48,"HUNG FOOK COURT,HUNG SHING ST|鴻福閣,洪聖街",HA,5159932.0,17671.0,292.0,5108540.0,17495.0,292.0,5112044.0,17507.0,292.0,6.0,12.0,19.0,"['A', 'B']",5114185.333333333,17514.333333333332,292.0,22,44,1992/03,29,blank,,False,,,POINT Z (22.2444612 114.1561277 0),22.2444612,114.1561277
49,"KONG SHING COURT(Block F,ABERDEEN CTR),NAM NING ST|香港仔中心,F座(港盛閣),南寧街",HA,5529120.0,11519.0,450.0,5634240.0,11738.0,450.0,7042560.0,14672.0,480.0,6.0,15.0,24.0,"['1', '2', '3', '4', '5', '6']",6241942.888888889,13470.722222222224,463.6666666666667,27,162,1982/01,39,ABERDEEN CTR,香港仔中心,True,0.0,0.0,POINT Z (22.2493679 114.1540376 0),22.249367899999996,114.1540376
50,"PAT LEUNG BLDG,LEE MAN RD|百良大廈,利民道",HA,5107480.0,13804.0,370.0,5373792.0,14292.0,370.0,5790400.0,15412.0,376.0,5.0,13.0,21.0,"['A', 'B', 'C', 'D']",5458798.166666667,14655.166666666666,372.5,25,100,1986/08,35,blank,,False,,,POINT Z (22.2435479 114.1525049 0),22.2435479,114.15250490000001
51,"BILLION COURT,MAIN ST AP LEI CHAU|利豐大廈,鴨利洲大街",HA,5254078.0,13911.0,373.0,5412230.0,14123.0,373.0,6224328.0,15718.0,413.0,5.0,12.0,20.0,"['A', 'B', 'C', 'D', 'E', 'F']",5821432.166666667,14783.944444444445,394.0,24,144,1990/10,31,blank,,False,,,POINT Z (22.243282 114.1540055 0),22.243282,114.1540055
52,"HIP SING MANSION,OLD MAIN ST ABERDEEN|協勝大廈,香港仔舊大街",HA,5245540.538081636,12535.0,403.0,5515178.458303649,12986.0,403.0,5841443.986524256,13959.0,403.0,5.0,12.0,20.0,"['A', 'B']",5545608.3298418475,13219.833333333334,404.0,24,48,1990/03,31,blank,,False,,,POINT Z (22.2477477 114.1560929 0),22.247747699999998,114.1560929
53,"PELENE MANSION,YUE KO ST|碧麗大廈,漁歌街",HA,3883588.0,14167.0,268.0,3976316.0,14707.0,268.0,4351116.0,15708.0,290.0,6.0,14.0,21.0,"['A', 'B', 'C', 'D', 'E', 'F']",4117003.3333333335,14790.333333333334,278.5,24,144,1979/09,42,blank,,False,,,POINT Z (22.2490628 114.1483479 0),22.2490628,114.1483479
54,"COMFORT CTR,OLD MAIN ST ABERDEEN|港暉中心,香港仔舊大街",HA,5612980.0,13992.0,380.0,5868720.0,14485.0,380.0,7785255.0,16051.0,515.0,6.0,15.0,24.0,"['A', 'B', 'C', 'D', 'E', 'F']",6433962.722222223,15049.27777777778,429.0,29,174,1992/08,29,blank,,False,,,POINT Z (22.2486215 114.1561509 0),22.2486215,114.15615090000001
55,"KAM FUNG BLDG,ABERDEEN MAIN RD|金豐大廈,香港仔大道",HA,5709970.0,13142.0,430.0,6024730.0,13897.0,430.0,8764214.0,15172.0,578.0,6.0,17.0,28.0,"['A', 'B', 'C', 'D', 'E', 'F', 'G', 'H']",6876912.416666667,14173.833333333334,485.2083333333333,33,264,1986/04,35,blank,,False,,,POINT Z (22.2483749 114.1555007 0),22.248374899999998,114.1555007
56,"SOUTH VIEW GARDEN,SHEK PAI WAN RD|南景花園,石排灣道",HA,4154337.0,13834.0,261.0,4319289.0,14172.0,261.0,6317360.0,17451.0,406.0,9.0,18.0,27.0,"['A', 'B', 'C', 'D', 'E', 'F']",5246746.833333333,15565.555555555555,340.3333333333333,25,150,1995/06,26,blank,,False,,,POINT Z (22.2491127 114.1485465 0),22.249112699999998,114.14854650000001
57,"GROSVENOR COURT(Block 28,Phase 4,SOUTH HORIZONS),28 YI NAM RD|海怡半島,4期,28座(御意居),28 怡南路",HA,7799013.0,15027.0,519.0,7652890.0,14042.0,519.0,12849824.0,17459.0,1485.0,6.0,16.0,25.0,"['A', 'B', 'C', 'D', 'E', 'EF', 'F', 'G', 'H']",10247146.791666666,16040.625,729.3333333333334,30,270,1995/03,26,SOUTH HORIZONS,海怡半島,True,0.0,0.0,POINT Z (22.243154 114.150396 0),22.243154,114.150396
58,"JUMBO BLDG,ABERDEEN MAIN RD|珍寶大廈,香港仔大道",HA,4679856.0,14016.0,314.0,4807026.0,14394.0,314.0,5906718.0,15924.0,398.0,8.0,15.0,22.0,"['A', 'B', 'C', 'D']",5277109.0,14884.0,356.0,23,92,1988/05,33,blank,,False,,,POINT Z (22.2494217 114.1549433 0),22.2494217,114.1549433
59,"MEI HONG COURT(Block 19,Phase 3,SOUTH HORIZONS),19 SOUTH HORIZON DR|海怡半島,3期,19座(美康閣),19 海怡路",HA,8421070.0,14273.0,589.0,8618248.0,14632.0,589.0,14662544.0,16414.0,898.0,8.0,20.0,33.0,"['A', 'B', 'C', 'D', 'E', 'F', 'G', 'H']",10511859.625,15496.333333333334,674.5,40,320,1994/02,27,SOUTH HORIZONS,海怡半島,True,0.0,0.0,POINT Z (22.242928 114.148272 0),22.242928,114.14827199999999
60,"KONG CHEUNG COURT(Block G,ABERDEEN CTR),NAM NING ST|香港仔中心,G座(港昌閣),南寧街",HA,5859310.0,12710.0,450.0,6090300.0,13216.0,450.0,7612598.0,14008.0,553.0,6.0,15.0,24.0,"['1', '2', '3', '4', '5', '6']",6569508.722222221,13462.666666666666,488.0,27,162,1982/01,39,ABERDEEN CTR,香港仔中心,True,0.0,0.0,POINT Z (22.2487869 114.1538679 0),22.2487869,114.1538679
61,"MANLY HSE,MAIN ST AP LEI CHAU|文麗大樓,鴨利洲大街",HA,3237423.731384757,5411.0,295.0,3237994.705587823,5478.0,295.0,3866443.752586283,5811.0,360.0,6.0,9.0,12.0,"['A', 'B', 'C', 'D', 'E']",3552886.010825888,5606.8,328.0,9,45,1980/01,41,blank,,False,,,POINT Z (22.243704 114.154861 0),22.243704,114.15486100000001
62,"AP LEI CHAU CTR(Block B),LEE CHI RD|鴨利洲中心B座,利枝道",HA,4624640.0,14175.0,320.0,4774080.0,14641.0,320.0,7137984.0,15903.0,452.0,7.0,16.0,25.0,"['1', '2', '3', '4', '5', '6', '7', '8']",5525652.0,15051.5,366.7916666666667,27,216,1983/12,38,AP LEI CHAU CTR,鴨利洲中心,True,0.0,0.0,POINT Z (22.243399 114.1532905 0),22.243399,114.1532905
63,"YEE FUNG COURT(Block 11,Phase 2,SOUTH HORIZONS),11 SOUTH HORIZON DR|海怡半島,2期,11座(怡豐閣),11 海怡路",HA,8981338.0,13903.0,631.0,9004488.0,14146.0,631.0,23800392.0,18711.0,1272.0,6.0,17.0,28.0,"['A', 'B', 'C', 'D', 'E', 'EF', 'F', 'G', 'H']",11609491.703703703,15436.62962962963,740.0,33,297,1992/10,29,SOUTH HORIZONS,海怡半島,True,0.0,0.0,POINT Z (22.244399 114.145846 0),22.244398999999998,114.14584599999999
64,"HOI WAN COURT(Block 4,Phase 1,SOUTH HORIZONS),4 SOUTH HORIZON DR|海怡半島,1期,4座(海韻閣),4 海怡路",HA,8907725.0,14675.0,600.0,9250680.0,14997.0,600.0,11703566.0,16696.0,742.0,7.0,18.0,29.0,"['A', 'B', 'C', 'D', 'E', 'F', 'G', 'H']",10394764.541666666,15604.166666666666,666.75,35,280,1991/11,30,SOUTH HORIZONS,海怡半島,True,0.0,0.0,POINT Z (22.244454 114.146952 0),22.244454,114.146952
65,"HAPPY VIEW BLDG,MAIN ST AP LEI CHAU|樂景大廈,鴨利洲大街",HA,5072234.0,15508.0,326.0,5221542.0,15933.0,326.0,5599525.0,16879.0,335.0,6.0,12.0,19.0,"['A', 'B', 'C', 'D']",5356859.333333333,16209.416666666666,330.5,20,80,1981/10,40,blank,,False,,,POINT Z (22.2436381 114.153457 0),22.243638100000002,114.153457
66,"SHUN KING COURT,MAIN ST AP LEI CHAU|順景閣,鴨利洲大街",HA,4206840.0,15935.0,264.0,4358904.0,16511.0,264.0,4921000.0,17575.0,280.0,7.0,15.0,22.0,"['A', 'B', 'C']",4595048.0,16725.22222222222,274.6666666666667,21,63,1995/11,26,blank,,False,,,POINT Z (22.2442864 114.1566851 0),22.244286399999996,114.1566851
67,"MEI CHEUNG COURT(Block 20,Phase 3,SOUTH HORIZONS),20 SOUTH HORIZON DR|海怡半島,3期,20座(美祥閣),20 海怡路",HA,8429768.0,14312.0,589.0,8892133.0,15097.0,589.0,11008690.0,17255.0,640.0,8.0,20.0,33.0,"['A', 'B', 'C', 'D', 'E', 'F', 'G', 'H']",9557564.0,15609.041666666666,612.0,40,320,1994/00,27,SOUTH HORIZONS,海怡半島,True,0.0,0.0,POINT Z (22.2426274 114.1486498 0),22.242627399999996,114.14864979999999
68,"JING HUI GARDEN(Block 1),ABERDEEN MAIN RD|景惠花園1座,香港仔大道",HA,5097735.0,12587.0,405.0,5157675.0,12735.0,405.0,6603760.0,13616.0,485.0,5.0,12.0,20.0,"['A', 'B', 'C', 'D']",5794352.916666667,13013.25,445.0,24,96,1989/02,32,JING HUI GARDEN,景惠花園,True,0.0,0.0,POINT Z (22.248027 114.1592396 0),22.248027,114.15923959999999
69,"MEI FAI COURT(Block 17,Phase 3,SOUTH HORIZONS),17 SOUTH HORIZON DR|海怡半島,3期,17座(美暉閣),17 海怡路",HA,8923125.0,14277.0,625.0,9454375.0,15127.0,625.0,16987466.0,18917.0,898.0,8.0,20.0,33.0,"['A', 'B', 'C', 'D', 'E', 'F', 'G', 'H']",12862283.916666666,16700.75,760.875,40,320,1993/12,28,SOUTH HORIZONS,海怡半島,True,0.0,0.0,POINT Z (22.2429446 114.1475257 0),22.2429446,114.1475257
70,"HOI SING COURT(Block 1,Phase 1,SOUTH HORIZONS),1 SOUTH HORIZON DR|海怡半島,1期,1座(海昇閣),1 海怡路",HA,7915774.0,14358.0,526.0,8376858.0,14636.0,526.0,23784867.0,18743.0,1269.0,8.0,20.0,33.0,"['A', 'AB', 'B', 'C', 'D', 'E', 'F', 'G', 'H']",10821776.925925927,16131.740740740739,660.2222222222222,40,360,1991/11,30,SOUTH HORIZONS,海怡半島,True,0.0,0.0,POINT Z (22.2450552 114.1479066 0),22.2450552,114.14790659999998
71,"AP LEI CHAU CTR(Block A),LEE CHI RD|鴨利洲中心A座,利枝道",HA,4942080.0,15261.0,320.0,4755520.0,14861.0,320.0,7305676.0,16789.0,452.0,7.0,14.0,21.0,"['1', '2', '3', '4', '5', '6', '7', '8']",5755363.0,15862.208333333334,363.0,23,184,1983/12,38,AP LEI CHAU CTR,鴨利洲中心,True,0.0,0.0,POINT Z (22.243318 114.152938 0),22.243318,114.15293799999999
72,"HOI FAI MANSION,ABERDEEN MAIN RD|海暉大廈,香港仔大道",HA,6743183.661105034,13614.0,477.0,6981924.260829776,14096.0,477.0,7270196.105310687,14678.0,477.0,5.0,13.0,21.0,"['A', 'B']",7002149.519105211,14136.833333333334,477.0,25,50,1992/09,29,blank,,False,,,POINT Z (22.2473433 114.1575559 0),22.2473433,114.1575559
73,"KA NING MANSION,ABERDEEN MAIN RD|嘉寧大廈,香港仔大道",HA,7251841.508197268,10998.0,635.0,7466139.425106171,11323.0,635.0,10450968.0366469,12627.0,830.0,6.0,13.0,20.0,"['A', 'B', 'C', 'D']",8945750.371382961,11760.0,732.5,23,92,1979/12,42,blank,,False,,,POINT Z (22.2472655 114.1571495 0),22.2472655,114.15714950000002
74,"NGAN FUNG BLDG,ABERDEEN MAIN RD|銀輝大廈,香港仔大道",HA,5055270.98602929,12483.0,390.0,5196606.368078816,12832.0,390.0,5592600.0,14340.0,390.0,5.0,12.0,20.0,"['A', 'B']",5313695.413046534,13378.166666666666,390.0,24,48,1988/07,33,blank,,False,,,POINT Z (22.2472004 114.1567315 0),22.247200399999997,114.15673149999999
75,"KA WO BLDG(Block B),KA WO ST|嘉和大廈B座,嘉禾街",HA,4267560.0,12385.0,330.0,4431900.0,12771.0,330.0,6315440.0,14273.0,445.0,6.0,14.0,21.0,"['1', '2', '3', '4', '5', '6', '7', '8']",4668073.541666667,13212.375,353.3333333333333,23,184,1978/05,43,KA WO BLDG,嘉和大廈,True,0.0,0.0,POINT Z (22.2499491 114.1488123 0),22.249949100000002,114.14881229999999
76,"ALBANY COURT(Block 32,Phase 4,SOUTH HORIZONS),32 YI NAM RD|海怡半島,4期,32座(御泉居),32 怡南路",HA,7854540.0,14369.0,526.0,8052008.0,14634.0,526.0,11063273.0,16057.0,689.0,10.0,18.0,26.0,"['A', 'B', 'C', 'D', 'E', 'F', 'G', 'H']",9160986.833333334,15257.458333333334,600.0,25,200,1995/03,26,SOUTH HORIZONS,海怡半島,True,0.0,0.0,POINT Z (22.2435972 114.1492768 0),22.243597199999996,114.1492768
77,"BERKELEY COURT(Block 33,Phase 4,SOUTH HORIZONS),33 YI NAM RD|海怡半島,4期,33座(御林居),33 怡南路",HA,7497604.0,14254.0,526.0,7772176.0,14776.0,526.0,11588291.0,16819.0,689.0,10.0,18.0,26.0,"['A', 'B', 'C', 'D', 'E', 'F', 'G', 'H']",9352855.166666666,15542.208333333334,600.0,25,200,1995/03,26,SOUTH HORIZONS,海怡半島,True,0.0,0.0,POINT Z (22.2425571 114.1494557 0),22.242557100000003,114.1494557
78,"NING FUNG MANSION,MAIN ST AP LEI CHAU|年豐大廈,鴨利洲大街",HA,4225206.0,14983.0,271.0,4405404.0,15622.0,271.0,4800936.0,16945.0,287.0,6.0,12.0,19.0,"['A', 'B', 'C', 'D', 'E', 'F']",4550467.055555556,16254.0,280.0,20,120,1981/08,40,blank,,False,,,POINT Z (22.2442317 114.1568941 0),22.244231699999997,114.15689409999999
79,"OCEAN HSE,OLD MAIN ST ABERDEEN|海洋大廈,香港仔舊大街",HA,4636735.083012276,12543.0,356.0,4753549.902930309,12859.0,356.0,5263690.572192602,14239.0,356.0,5.0,10.0,15.0,"['A', 'B', 'C', 'D']",5034090.581213639,13403.166666666666,361.8333333333333,15,60,1983/08,38,blank,,False,,,POINT Z (22.2478548 114.1561741 0),22.247854800000002,114.15617409999999
80,"KONG TAI COURT(Block H,ABERDEEN CTR),NAM NING ST|香港仔中心,H座(港泰閣),南寧街",HA,5483700.0,12186.0,450.0,5716350.0,12703.0,450.0,7466606.0,13673.0,553.0,6.0,15.0,24.0,"['1', '2', '3', '4', '5', '6']",6285407.0,12873.777777777776,488.0,27,162,1981/12,40,ABERDEEN CTR,香港仔中心,True,0.0,0.0,POINT Z (22.24953 114.153739 0),22.24953,114.15373899999999
81,"JUMBO COURT,WELFARE RD|珍寶閣,惠福道",HA,5614668.0,12963.0,391.0,5712786.0,12970.0,391.0,7754248.0,16335.0,1133.0,8.0,12.0,17.0,"['A', 'B', 'C', 'D', 'E', 'F', 'G', 'H', 'I', 'J', 'J & K & L', 'K', 'L']",6350211.972222221,15004.5,478.84615384615387,14,182,1979/05,42,blank,,False,,,POINT Z (22.245874 114.164656 0),22.245874,114.16465600000001
82,"SIU KWAN MANSION,OLD MAIN ST ABERDEEN|兆群大廈,香港仔舊大街",HA,4822275.803018089,15004.0,307.0,5074142.701798653,15662.0,307.0,7716448.737573648,18203.0,440.0,6.0,13.0,20.0,"['A', 'B', 'C', 'D']",6222296.276749483,16164.416666666666,374.75,23,92,1993/10,28,blank,,False,,,POINT Z (22.2488831 114.1561509 0),22.2488831,114.15615090000001
83,"SEAVIEW COURT,ABERDEEN MAIN RD|海光閣,香港仔大道",HA,4557000.0,15190.0,300.0,4715100.0,15717.0,300.0,4938600.0,16462.0,300.0,6.0,14.0,21.0,"['A', 'B']",4738100.0,15793.666666666666,300.0,24,48,1992/07,29,blank,,False,,,POINT Z (22.247766 114.1584036 0),22.247766,114.15840359999999
84,74-76 OLD MAIN ST ABERDEEN|74-76 香港仔舊大街,HA,4482800.0,16010.0,280.0,4499880.0,16071.0,280.0,5788216.0,20168.0,287.0,2.0,3.0,4.0,"['A', 'B', 'C', 'D']",4920739.25,17353.166666666668,283.5,5,20,1971/07,50,blank,,False,,,POINT Z (22.2481686 114.1560401 0),22.248168600000003,114.15604009999998
85,"WAI KING MANSION,ABERDEEN MAIN RD|偉景大廈,香港仔大道",HA,5995785.214288059,11736.0,492.0,6098984.653047958,11938.0,492.0,6652276.693528018,13021.0,492.0,7.0,15.0,22.0,"['A', 'B']",6349319.925287321,12428.0,492.0,23,46,1994/07,27,blank,,False,,,POINT Z (22.2478004 114.1585313 0),22.2478004,114.1585313
86,"JING HUI GARDEN(Block 2),ABERDEEN MAIN RD|景惠花園2座,香港仔大道",HA,4904955.0,11734.0,405.0,5101785.0,12395.0,405.0,6372415.0,13423.0,485.0,5.0,12.0,20.0,"['E', 'F', 'G', 'H']",5599085.833333333,12595.833333333334,445.0,24,96,1989/02,32,JING HUI GARDEN,景惠花園,True,0.0,0.0,POINT Z (22.2481503 114.1595647 0),22.2481503,114.15956470000002
87,"HUNG SHING BLDG,HUNG SHING ST|鴻勝大廈,洪聖街",HA,3835552.0,16501.0,224.0,3751776.0,16642.0,224.0,4164979.5708497027,17488.0,234.0,4.0,6.0,9.0,"['A', 'B', 'C']",3934327.806177801,16875.88888888889,227.33333333333334,10,30,1986/04,35,blank,,False,,,POINT Z (22.2446502 114.1560348 0),22.2446502,114.1560348
88,"MEI KWONG COURT(Block P,ABERDEEN CTR),NAM NING ST|香港仔中心,P座(美光閣),南寧街",HA,7569030.0,13279.0,570.0,7872270.0,13811.0,570.0,8639400.0,14399.0,600.0,7.0,15.0,23.0,"['1', '2', '3', '4', '5', '6']",8171955.0,13850.0,590.0,25,150,1981/05,40,ABERDEEN CTR,香港仔中心,True,0.0,0.0,POINT Z (22.248508 114.1532394 0),22.248507999999998,114.1532394
89,"KA FOOK COURT,KA WO ST|嘉福閣,嘉禾街",HA,6716564.901093649,3326.0,656.0,6896292.5848571295,3415.0,656.0,8228707.72422174,12080.0,666.0,7.0,13.0,19.0,"['A', 'B', 'C']",7457030.101065345,7592.666666666667,662.6666666666666,19,57,1981/07,40,blank,,False,,,POINT Z (22.2496907 114.1489952 0),22.249690700000002,114.1489952
90,"YEN CHING BLDG,MAIN ST AP LEI CHAU|仁正大廈,鴨利洲大街",HA,4329778.433119573,13899.0,260.0,4003500.4442084595,13726.0,260.0,6845591.846017886,15173.0,450.0,4.0,10.0,17.0,"['A', 'B', 'C', 'D']",4612651.106555504,14378.444444444443,293.75,19,76,1985/03,36,blank,,False,,,POINT Z (22.243637 114.1551291 0),22.243637,114.1551291
91,"ON TAI BLDG,WU NAM ST|安泰大廈,湖南街",HA,4444720.0,15874.0,275.0,4171440.0,14898.0,275.0,4945950.0,17055.0,290.0,8.0,13.0,18.0,"['A', 'B', 'C']",4560416.666666667,16186.444444444443,281.6666666666667,17,51,1984/02,37,blank,,False,,,POINT Z (22.2478262 114.1555239 0),22.2478262,114.1555239
92,"FORTUNE MANSION,MAIN ST AP LEI CHAU|利是大廈,鴨利洲大街",HA,5388575.0,13087.0,409.0,5531725.0,13432.0,409.0,6200031.0,15159.0,442.0,5.0,12.0,19.0,"['A', 'B', 'C', 'D', 'E', 'F']",5792843.444444445,13691.611111111111,423.3333333333333,23,138,1987/03,34,blank,,False,,,POINT Z (22.2439544 114.1559535 0),22.2439544,114.1559535
93,"TSUNG MAN COURT,TSUNG MAN ST|崇文閣,崇文街",HA,3189113.507288046,4993.0,328.0,3241062.566995998,5353.0,328.0,3414201.2156655663,8114.0,330.0,3.0,4.0,5.0,"['A', 'B', 'C']",3289371.7401069026,6498.555555555556,329.1111111111111,5,15,1976/01,45,blank,,False,,,POINT Z (22.249956 114.1547343 0),22.249956,114.15473429999999
94,"COMMAND TOWER,MAIN ST AP LEI CHAU|僑民大廈,鴨利洲大街",HA,4584987.0,12773.0,319.0,4689619.0,13115.0,319.0,5865105.0,15325.0,435.0,6.0,12.0,19.0,"['1', '2', '3', '4']",5149201.75,14125.916666666666,367.0,20,80,1986/08,35,blank,,False,,,POINT Z (22.243347 114.1542002 0),22.243347,114.1542002
95,"TUNG NAM BLDG,MAIN ST AP LEI CHAU|東南大廈,鴨利洲大街",HA,4972871.001740269,10312.0,396.0,5043760.454538546,10459.0,396.0,5455041.089146229,12508.0,420.0,4.0,7.0,10.0,"['A', 'B', 'C', 'D']",5221364.043576505,11087.555555555555,404.75,9,36,1980/12,41,blank,,False,,,POINT Z (22.243859 114.1546879 0),22.243859,114.1546879
96,"ROUSSEAU HEIGHTS,MAIN ST AP LEI CHAU|亨利閣,鴨利洲大街",HA,4255089.054234419,12726.0,322.0,4310258.761443964,12891.0,322.0,4535600.0,13340.0,340.0,5.0,8.0,10.0,"['A', 'B']",4397539.609700826,13040.666666666666,331.0,8,16,1973/09,48,blank,,False,,,POINT Z (22.2444894 114.1573353 0),22.244489399999996,114.15733529999999
97,"WAH LEE BLDG,TSUNG MAN ST|華利大廈,崇文街",HA,4650745.052703057,9687.0,400.0,4776598.0268004965,9948.0,400.0,4783053.081267295,11970.0,380.0,6.0,12.0,17.0,"['A', 'B']",4749678.47954933,10773.0,393.3333333333333,18,36,1978/12,43,blank,,False,,,POINT Z (22.2497883 114.1555239 0),22.2497883,114.1555239
98,"SZE HEI BLDG,SHEK PAI WAN RD|四喜大廈,石排灣道",HA,3679102.0,11606.0,315.0,3773251.0,11903.0,315.0,4200525.0,13335.0,317.0,7.0,12.0,18.0,"['A', 'B', 'C']",4013665.8888888895,12716.555555555555,315.6666666666667,18,54,1975/05,46,blank,,False,,,POINT Z (22.2488626 114.1489285 0),22.248862600000002,114.1489285
99,"YEE HING BLDG,MAIN ST AP LEI CHAU|怡慶大廈,鴨利洲大街",HA,4828480.0,14009.0,320.0,4948160.0,14079.0,320.0,5425920.0,16956.0,349.0,6.0,12.0,19.0,"['A', 'B', 'C', 'D']",5112695.104599882,15178.0,334.5,22,88,1985/05,36,blank,,False,,,POINT Z (22.2435543 114.1538518 0),22.2435543,114.1538518
100,"KAM TSEUK MANSION,KA WO ST|金爵大廈,嘉禾街",HA,3912921.608148067,13905.0,271.0,3695218.0651446716,11197.0,271.0,4282404.964602465,15218.0,271.0,5.0,7.0,9.0,"['A', 'B']",4009872.0475471984,13602.0,271.0,7,14,1980/11,41,blank,,False,,,POINT Z (22.2494804 114.148882 0),22.249480399999996,114.148882
101,"KONG WING COURT(Block I,ABERDEEN CTR),NAM NING ST|香港仔中心,I座(港榮閣),南寧街",HA,5784588.97092395,12084.0,450.0,5806609.0878275,12130.0,450.0,6583232.007441492,13915.0,480.0,6.0,15.0,24.0,"['1', '2', '3', '4', '5', '6']",6116062.405750641,12951.111111111111,463.6666666666667,27,162,1981/12,40,ABERDEEN CTR,香港仔中心,True,0.0,0.0,POINT Z (22.2493534 114.1538518 0),22.249353399999997,114.1538518
102,"KAM FAT BLDG,LEE CHI RD|金發大廈,利枝道",HA,5930118.0,15363.0,386.0,6272886.0,15940.0,386.0,7631654.0,16780.0,458.0,6.0,14.0,23.0,"['A', 'B', 'C', 'D', 'E', 'F']",6682092.833333333,16133.722222222224,414.3333333333333,28,168,1986/08,35,blank,,False,,,POINT Z (22.2436059 114.1526907 0),22.2436059,114.15269070000001
103,"HOI CHUN COURT(Block A,Phase 4,ABERDEEN CTR),4 NAM NING ST|香港仔中心,4期,A座(海珍閣),4 南寧街",HA,6203120.0,13740.0,440.0,6062320.0,13778.0,440.0,8963820.0,15726.0,570.0,6.0,14.0,23.0,"['1', '2', '3', '4', '5', '6']",7096318.888888889,14675.444444444443,483.3333333333333,26,156,1979/12,42,ABERDEEN CTR,香港仔中心,True,0.0,0.0,POINT Z (22.2482557 114.1544556 0),22.2482557,114.15445559999999
104,"MEI FUNG COURT(Block R,ABERDEEN CTR),NAM NING ST|香港仔中心,R座(美豐閣),南寧街",HA,8921096.376023978,11022.0,685.0,10017464.418309223,11425.0,685.0,11330914.019939613,12923.0,720.0,7.0,15.0,23.0,"['1', '2', '3', '4']",10243864.570840528,12172.416666666666,700.0,25,100,1981/05,40,ABERDEEN CTR,香港仔中心,True,0.0,0.0,POINT Z (22.2481257 114.1533409 0),22.2481257,114.1533409
105,"KWUN HOI COURT(Block S,Phase 3,ABERDEEN CTR),5 NAM NING ST|香港仔中心,3期,S座(觀海閣),5 南寧街",HA,9619715.373078568,12519.0,715.0,10021593.409672553,13042.0,715.0,10948902.421168968,14747.0,750.0,7.0,16.0,24.0,"['1', '2', '3']",10317339.245544238,13668.88888888889,727.2222222222223,25,75,1981/06,40,ABERDEEN CTR,香港仔中心,True,0.0,0.0,POINT Z (22.2479071 114.1541769 0),22.247907100000003,114.15417690000001
106,"HOI LUNG COURT(Block N,Phase 5,ABERDEEN CTR),6 NAM NING ST|香港仔中心,5期,N座(海龍閣),6 南寧街",HA,5999400.0,13230.0,440.0,6199600.0,13741.0,440.0,8279820.0,15486.0,570.0,6.0,14.0,23.0,"['1', '2', '3', '4', '5', '6']",6896690.0,14309.722222222224,483.3333333333333,26,156,1979/12,42,ABERDEEN CTR,香港仔中心,True,0.0,0.0,POINT Z (22.2483157 114.1537136 0),22.2483157,114.15371359999999
107,"YEE TIAM BLDG,KA WO ST|益添大廈,嘉禾街",HA,4084865.0000000005,11620.0,305.0,4170875.0,12185.0,305.0,4757000.0,13951.0,355.0,8.0,13.0,18.0,"['A', 'B', 'C']",4405038.662583235,12898.11111111111,338.3333333333333,16,48,1979/04,42,blank,,False,,,POINT Z (22.2495822 114.1487891 0),22.2495822,114.14878909999999
108,"HOI WU COURT(Block D,Phase 4,ABERDEEN CTR),14 NAM NING ST|香港仔中心,4期,D座(海湖閣),14 南寧街",HA,5997200.0,13630.0,440.0,6139760.0,13954.0,440.0,8931900.0,15670.0,570.0,6.0,14.0,23.0,"['1', '2', '3', '4', '5', '6']",7030165.555555555,14504.61111111111,483.3333333333333,26,156,1979/12,42,ABERDEEN CTR,香港仔中心,True,0.0,0.0,POINT Z (22.2485926 114.1545448 0),22.248592600000002,114.15454479999998
109,"HOI TSING COURT(Block K,Phase 5,ABERDEEN CTR),12 NAM NING ST|香港仔中心,5期,K座(海晶閣),12 南寧街",HA,5657520.0,12858.0,440.0,5846280.0,13287.0,440.0,8970575.70123638,15156.0,570.0,6.0,14.0,23.0,"['1', '2', '3', '4', '5', '6']",6921197.974686076,13815.722222222224,483.3333333333333,26,156,1979/12,42,ABERDEEN CTR,香港仔中心,True,0.0,0.0,POINT Z (22.2483157 114.1537136 0),22.2483157,114.15371359999999
110,"KA WO BLDG(Block A),KA WO ST|嘉和大廈A座,嘉禾街",HA,4171200.0000000005,12601.0,330.0,4386690.0,13293.0,330.0,6253140.0,14599.0,445.0,6.0,13.0,20.0,"['1', '2', '3', '4', '5', '6', '7', '8']",4761311.041666667,13676.541666666666,348.5416666666667,22,176,1978/05,43,KA WO BLDG,嘉和大廈,True,0.0,0.0,POINT Z (22.249981 114.148647 0),22.249981,114.148647
111,"HOI TIN COURT(Block M,Phase 5,ABERDEEN CTR),8 NAM NING ST|香港仔中心,5期,M座(海天閣),8 南寧街",HA,5804480.0,13192.0,440.0,6021400.0,13685.0,440.0,8623530.0,15129.0,570.0,6.0,14.0,23.0,"['1', '2', '3', '4', '5', '6']",6813076.111111111,14068.166666666666,483.3333333333333,26,156,1979/12,42,ABERDEEN CTR,香港仔中心,True,0.0,0.0,POINT Z (22.2483157 114.1537136 0),22.2483157,114.15371359999999
112,"HOI SHAN COURT(Block C,Phase 4,ABERDEEN CTR),16 NAM NING ST|香港仔中心,4期,C座(海珊閣),16 南寧街",HA,5608240.0,12746.0,440.0,5847160.0,13289.0,440.0,8447400.0,14820.0,570.0,6.0,14.0,23.0,"['1', '2', '3', '4', '5', '6']",6626696.111111112,13678.388888888889,483.3333333333333,26,156,1979/12,42,ABERDEEN CTR,香港仔中心,True,0.0,0.0,POINT Z (22.2485899 114.1545485 0),22.2485899,114.1545485
113,"KWUN KING COURT(Block U,Phase 3,ABERDEEN CTR),1 NAM NING ST|香港仔中心,3期,U座(觀景閣),1 南寧街",HA,11700880.0,15812.0,740.0,12181880.0,16462.0,740.0,13069500.0,17426.0,750.0,7.0,16.0,24.0,"['1', '2', '3']",12413860.0,16625.0,746.6666666666666,25,75,1981/06,40,ABERDEEN CTR,香港仔中心,True,0.0,0.0,POINT Z (22.247878 114.154547 0),22.247878,114.154547
114,"HOI CHU COURT(Block B,Phase 4,ABERDEEN CTR),2 NAM NING ST|香港仔中心,4期,B座(海珠閣),2 南寧街",HA,5826040.0,13241.0,440.0,6113800.0,13895.0,440.0,8760330.0,15369.0,570.0,6.0,14.0,23.0,"['1', '2', '3', '4', '5', '6']",6975256.666666667,14411.333333333334,483.3333333333333,26,156,1979/12,42,ABERDEEN CTR,香港仔中心,True,0.0,0.0,POINT Z (22.248411 114.154576 0),22.248410999999997,114.154576
115,"SHUN LEE BLDG,MAIN ST AP LEI CHAU|順利大廈,鴨利洲大街",HA,4098212.0759529104,11648.0,321.0,4087978.7338759275,11694.0,318.0,4559325.120033598,12447.0,374.0,3.0,4.0,5.0,"['1', '2', '3', '4', '5']",4377712.771161507,11925.983333333332,354.40000000000003,5,25,1981/03,40,blank,,False,,,POINT Z (22.2437066 114.1542698 0),22.243706600000003,114.15426979999998
116,"HOI YING COURT(Block L,Phase 5,ABERDEEN CTR),10 NAM NING ST|香港仔中心,5期,L座(海瑩閣),10 南寧街",HA,5656200.0,12855.0,440.0,5340720.0,12138.0,440.0,8360190.000000001,14667.0,570.0,6.0,14.0,23.0,"['1', '2', '3', '4', '5', '6']",6708119.444444445,13843.055555555557,483.3333333333333,26,156,1979/12,42,ABERDEEN CTR,香港仔中心,True,0.0,0.0,POINT Z (22.2485544 114.1537173 0),22.2485544,114.1537173
117,"NGAN ON HSE(Block A,YUE ON COURT),YUE ON COURT RD|漁安苑,A座(銀安閣),漁安苑道",HA,5286099.0,11271.0,469.0,5566561.0,11869.0,469.0,6461280.0,13076.0,504.0,7.0,18.0,29.0,"['1', '2', '3', '4', '5', '6', '7', '8']",5814664.625,12020.666666666666,483.75,35,280,1988/08,33,YUE ON COURT,漁安苑,True,0.0,0.0,POINT Z (22.2430112 114.1563367 0),22.243011199999998,114.15633670000001
118,"YEN SHING MANSION,SHEK PAI WAN RD|仁勝大廈,石排灣道",HA,3862637.5300072376,12827.0,290.0,3938523.1351808417,13079.0,290.0,4522893.176170491,14786.0,295.0,4.0,10.0,16.0,"['A', 'B', 'C', 'D']",4182620.4144498445,13905.666666666666,292.5,19,76,1988/02,33,blank,,False,,,POINT Z (22.2494766 114.1480764 0),22.2494766,114.1480764
119,"PIK ON HSE(Block C,YUE ON COURT),YUE ON COURT RD|漁安苑,C座(碧安閣),漁安苑道",HA,5768700.0,12101.0,469.0,5941292.0,12585.0,469.0,6674472.0,13429.0,504.0,8.0,18.0,29.0,"['1', '2', '3', '4', '5', '6', '7', '8']",6152274.958333333,12722.583333333334,483.75,34,272,1988/08,33,YUE ON COURT,漁安苑,True,0.0,0.0,POINT Z (22.2427365 114.1569436 0),22.2427365,114.1569436
120,"TSE ON HSE(Block D,YUE ON COURT),YUE ON COURT RD|漁安苑,D座(紫安閣),漁安苑道",HA,5852651.0,12479.0,469.0,6006952.0,12808.0,469.0,6948342.0,14094.0,504.0,7.0,18.0,29.0,"['1', '2', '3', '4', '5', '6', '7', '8']",6352952.0,13131.625,483.75,33,264,1988//1,33,YUE ON COURT,漁安苑,True,0.0,0.0,POINT Z (22.2427365 114.1569436 0),22.2427365,114.1569436
121,"HAR ON HSE(Block E,YUE ON COURT),YUE ON COURT RD|漁安苑,E座(霞安閣),漁安苑道",HA,5877039.0,12165.0,469.0,6049162.0,12570.0,469.0,6725376.0,13760.0,504.0,8.0,18.0,29.0,"['1', '2', '3', '4', '5', '6', '7', '8']",6253564.333333333,12931.333333333334,483.75,34,272,1988/10,33,YUE ON COURT,漁安苑,True,0.0,0.0,POINT Z (22.2427365 114.1569436 0),22.2427365,114.1569436
122,"CHOI ON HSE(Block B,YUE ON COURT),YUE ON COURT RD|漁安苑,B座(彩安閣),漁安苑道",HA,5681935.0,12115.0,469.0,5917373.0,12394.0,469.0,6478920.0,13258.0,504.0,8.0,18.0,29.0,"['1', '2', '3', '4', '5', '6', '7', '8']",6145212.708333333,12705.833333333334,483.75,34,272,1988/00,33,YUE ON COURT,漁安苑,True,0.0,0.0,POINT Z (22.243183 114.156574 0),22.243183,114.15657399999999
123,"SHAN ON HSE(Block F,YUE ON COURT),YUE ON COURT RD|漁安苑,F座(珊安閣),漁安苑道",HA,5608771.0,11959.0,469.0,6029464.0,12691.0,469.0,6667920.0,13729.0,504.0,7.0,18.0,29.0,"['1', '2', '3', '4', '5', '6', '7', '8']",6214173.0,12848.125,483.75,35,280,1988/10,33,YUE ON COURT,漁安苑,True,0.0,0.0,POINT Z (22.2429922 114.1573339 0),22.2429922,114.15733390000001
124,"WU ON HSE(Block G,YUE ON COURT),YUE ON COURT RD|漁安苑,G座(瑚安閣),漁安苑道",HA,5581569.0,11469.0,469.0,6083399.0,12277.0,469.0,6827557.0,14299.0,504.0,7.0,19.0,30.0,"['1', '2', '3', '4', '5', '6', '7', '8']",6170754.25,12764.0,483.75,33,264,1988//0,33,YUE ON COURT,漁安苑,True,0.0,0.0,POINT Z (22.2429797 114.1563056 0),22.2429797,114.15630559999998
125,122 MAIN ST AP LEI CHAU|122 鴨利洲大街,HA,,,529.0,,,512.0,,,490.0,3.0,4.0,5.0,['whole floor'],,,510.3333333333333,3,3,1967/04,54,blank,,False,,,POINT Z (22.2439202 114.1552265 0),22.243920199999998,114.15522649999998
126,"BAYSHORE APT,ABERDEEN MAIN RD|海峰華軒,香港仔大道",HA,6565510.0,12599.0,490.0,7167720.0,13347.0,490.0,8316112.000000001,16120.0,575.0,7.0,20.0,34.0,"['50 UNIT', 'A', 'B', 'C', 'D']",7487980.400000001,14346.866666666667,523.8,38,190,2000/10,21,blank,,False,,,POINT Z (22.2484356 114.1517849 0),22.248435600000004,114.15178490000001
127,"KWUN CHIU COURT(Block T,Phase 3,ABERDEEN CTR),3 NAM NING ST|香港仔中心,3期,T座(觀潮閣),3 南寧街",HA,10549490.562904038,13552.0,740.0,10916343.675271071,14017.0,740.0,11494208.197426392,14759.0,750.0,8.0,16.0,24.0,"['1', '2', '3']",11001780.168962995,14190.0,746.6666666666666,22,66,1981/06,40,ABERDEEN CTR,香港仔中心,True,0.0,0.0,POINT Z (22.2477907 114.1543627 0),22.2477907,114.15436270000001
128,"WATERFRONT SOUTH(Block 2),YUE WOK ST|港麗豪園2座,漁獲街",HA,6815900.0,13910.0,490.0,7078050.0,14445.0,490.0,7622440.0,15556.0,635.0,10.0,20.0,30.0,"['A', 'B', 'C', 'D']",7583478.75,14765.666666666666,562.5,29,116,1999/06,22,WATERFRONT SOUTH,港麗豪園,True,0.0,0.0,POINT Z (22.2490595 114.1479531 0),22.2490595,114.1479531
129,"WATERFRONT SOUTH(Block 1),YUE WOK ST|港麗豪園1座,漁獲街",HA,6843830.0,12775.0,490.0,7058940.0,13200.0,490.0,9521340.0,15357.0,620.0,10.0,20.0,31.0,"['A', 'B', 'C', 'D']",7870926.25,14232.5,554.25,30,120,1999/06,22,WATERFRONT SOUTH,港麗豪園,True,0.0,0.0,POINT Z (22.2492631 114.1477673 0),22.249263100000004,114.1477673
130,"SOUTH WAVE COURT(Block 3),SHUM WAN RD|南濤閣3座,深灣道",HA,4280220.0,9527.0,430.0,4484900.0,10003.0,430.0,6209238.0,11046.0,590.0,7.0,18.0,29.0,"['A', 'B', 'C', 'D', 'E', 'F', 'G', 'H', 'J', 'K']",5471586.166666667,10229.333333333334,536.2,30,300,1995/10,26,SOUTH WAVE COURT,南濤閣,True,0.0,0.0,POINT Z (22.2448246 114.1660206 0),22.2448246,114.1660206
131,"SOUTH WAVE COURT(Block 1),SHUM WAN RD|南濤閣1座,深灣道",HA,4417390.0,10114.0,430.0,4619920.0,10442.0,430.0,6832400.0,11600.0,590.0,7.0,18.0,28.0,"['A', 'B', 'C', 'D', 'E', 'F', 'G', 'H', 'J', 'K']",5808917.5,10825.4,536.2,34,340,1995/10,26,SOUTH WAVE COURT,南濤閣,True,0.0,0.0,POINT Z (22.2444541 114.1658813 0),22.244454100000002,114.16588130000001
132,"SOUTH WAVE COURT(Block 2),SHUM WAN RD|南濤閣2座,深灣道",HA,4316340.0,8919.0,430.0,4289156.582074259,9341.0,430.0,6326842.916398598,11150.0,590.0,8.0,18.0,29.0,"['A', 'B', 'C', 'D', 'E', 'F', 'G', 'H', 'J', 'K']",5377082.639472955,9748.948148148147,536.2,34,340,1995/10,26,SOUTH WAVE COURT,南濤閣,True,0.0,0.0,POINT Z (22.2449078 114.1664619 0),22.2449078,114.1664619
133,"TOHO COURT,PING LAN ST|東寶閣,平瀾街",HA,4733168.366828126,13328.0,319.0,4934171.765359392,13894.0,319.0,5250740.0,16460.0,342.0,7.0,14.0,20.0,"['A', 'B']",4999345.640904066,14894.5,330.5,20,40,1989/04,32,blank,,False,,,POINT Z (22.2447094 114.1571147 0),22.244709399999998,114.15711470000001
134,"FUNG KING COURT(Block 29,Phase 4,SOUTH HORIZONS),29 YI NAM RD|海怡半島,4期,29座(豐景閣),29 怡南路",HA,7650720.0,14215.0,528.0,7917888.0,14749.0,528.0,11347141.0,16845.0,689.0,8.0,16.0,25.0,"['A', 'B', 'C', 'D', 'E', 'F', 'G', 'H']",9329678.25,15386.583333333334,604.5,26,208,1994/12,27,SOUTH HORIZONS,海怡半島,True,0.0,0.0,POINT Z (22.243803 114.150128 0),22.243803,114.15012800000001
135,"YUK FAI HSE(Block A,Phase 1,YUE FAI COURT),45 YUE KWONG RD|漁暉苑,1期,A座(旭暉閣),45 漁光道",HA,4878336.0,12638.0,384.0,5079552.0,12679.0,384.0,5741557.0,13937.0,419.0,5.0,14.0,23.0,"['1', '2', '3', '4', '5', '6', '7', '8']",5276258.125,13147.5,401.5,29,232,1980/04,41,YUE FAI COURT,漁暉苑,True,0.0,0.0,POINT Z (22.248283 114.156683 0),22.248282999999997,114.156683
136,"KING FAI HSE(Block E,Phase 1,YUE FAI COURT),45 YUE KWONG RD|漁暉苑,1期,E座(景暉閣),45 漁光道",HA,4947456.0,12884.0,384.0,5309952.0,13642.0,384.0,5935135.0,14855.0,419.0,5.0,14.0,23.0,"['1', '2', '3', '4', '5', '6', '7', '8']",5529560.791666667,13778.583333333334,401.5,27,216,1980/08,41,YUE FAI COURT,漁暉苑,True,0.0,0.0,POINT Z (22.2499061 114.156947 0),22.2499061,114.156947
137,"YAT FAI HSE(Block B,Phase 1,YUE FAI COURT),45 YUE KWONG RD|漁暉苑,1期,B座(日暉閣),45 漁光道",HA,4630656.0,12059.0,384.0,5123328.0,12841.0,384.0,5767680.0,15020.0,419.0,6.0,14.0,23.0,"['1', '2', '3', '4', '5', '6', '7', '8']",5376636.083333333,13409.125,401.5,28,224,1980/04,41,YUE FAI COURT,漁暉苑,True,0.0,0.0,POINT Z (22.2486357 114.1566154 0),22.248635699999998,114.1566154
138,"TIN FAI HSE(Block F,Phase 2,YUE FAI COURT),45 YUE KWONG RD|漁暉苑,2期,F座(天暉閣),45 漁光道",HA,5035392.0,12658.0,384.0,5202048.0,12581.0,384.0,5720607.0,14464.0,419.0,5.0,14.0,22.0,"['1', '2', '3', '4', '5', '6', '7', '8']",5392260.25,13444.541666666666,401.5,28,224,1981/03,40,YUE FAI COURT,漁暉苑,True,0.0,0.0,POINT Z (22.2505287 114.1566386 0),22.250528699999997,114.1566386
139,"BROADVIEW COURT(Block 4),SHUM WAN RD|雅濤閣4座,深灣道",HA,4806580.0,10610.0,422.0,4912924.0,11266.0,422.0,7655814.0,12999.0,591.0,7.0,20.0,33.0,"['A', 'B', 'C', 'D', 'E', 'F', 'G', 'H', 'J', 'K']",6346918.233333333,12026.633333333333,527.2,37,370,2001/07,20,BROADVIEW COURT,雅濤閣,True,0.0,0.0,POINT Z (22.2423903 114.1659742 0),22.2423903,114.16597420000001
140,"ON FAI HSE(Block D,Phase 1,YUE FAI COURT),45 YUE KWONG RD|漁暉苑,1期,D座(安暉閣),45 漁光道",HA,4902528.0,12113.0,384.0,5103360.0,12443.0,384.0,5850078.0,14309.0,419.0,6.0,14.0,23.0,"['1', '2', '3', '4', '5', '6', '7', '8']",5297224.791666667,13210.0,401.5,26,208,1980/08,41,YUE FAI COURT,漁暉苑,True,0.0,0.0,POINT Z (22.2499061 114.156947 0),22.2499061,114.156947
141,"KINGSTON MANSION,HUNG SHING ST|金利豐大廈,洪聖街",HA,7571291.0,13741.0,551.0,7847342.0,14242.0,551.0,8152595.999999999,14796.0,551.0,8.0,16.0,22.0,"['A', 'B']",7902809.333333333,14342.666666666666,551.0,20,40,9999,-7978,blank,,False,,,POINT Z (22.2439014 114.1563599 0),22.2439014,114.15635990000001
142,"TIN WAN COURT,TIN WAN ST|田灣畔,田灣街",HA,5316113.735536737,12058.0,423.0,5519481.55009127,12565.0,423.0,7739590.316622621,13286.0,561.0,7.0,16.0,23.0,"['A', 'B', 'C', 'D']",6400851.5209862115,12770.805555555555,492.0,24,96,9999,-7978,blank,,False,,,POINT Z (22.2499634 114.1492768 0),22.2499634,114.1492768
143,"SHAM WAN TOWERS(Block 2),AP LEI CHAU DR|深灣軒2座,鴨利洲徑",HA,7671972.0,15762.0,476.0,8127700.000000001,16661.0,476.0,22278340.0,22733.0,980.0,13.0,29.0,45.0,"['A', 'AB', 'B', 'C', 'D', 'E', 'F', 'G', 'H']",10018949.851851853,18001.976851851854,564.7777777777778,43,387,2004/04,17,SHAM WAN TOWERS,深灣軒,True,0.0,0.0,POINT Z (22.2438379 114.1588448 0),22.2438379,114.15884479999998
144,"SHAM WAN TOWERS(Block 1),AP LEI CHAU DR|深灣軒1座,鴨利洲徑",HA,7075600.0,14440.0,483.0,7721420.0,15758.0,483.0,11186448.0,19043.0,591.0,13.0,29.0,45.0,"['A', 'B', 'C', 'D', 'E', 'F', 'G', 'H']",8585862.791666666,17131.75,501.125,43,344,2004/04,17,SHAM WAN TOWERS,深灣軒,True,0.0,0.0,POINT Z (22.243799 114.1588541 0),22.243799,114.1588541
145,"SHAM WAN TOWERS(Block 3),AP LEI CHAU DR|深灣軒3座,鴨利洲徑",HA,8242013.999999999,15942.0,502.0,8494992.0,16368.0,502.0,23333604.0,22676.0,1029.0,14.0,30.0,46.0,"['A', 'AB', 'B', 'C', 'D', 'E', 'F', 'G', 'H']",11310212.111111112,18283.03703703704,606.3333333333334,44,396,2004/03,17,SHAM WAN TOWERS,深灣軒,True,0.0,0.0,POINT Z (22.243799 114.1588541 0),22.243799,114.1588541
146,"BROADVIEW COURT(Block 1),SHUM WAN RD|雅濤閣1座,深灣道",HA,5238150.0,11145.0,422.0,5166124.0,11912.0,422.0,8286912.000000001,14387.0,591.0,7.0,20.0,32.0,"['A', 'B', 'C', 'D', 'E', 'F', 'G', 'H', 'J', 'K']",6790579.400000001,12872.700000000003,527.2,38,380,2001/07,20,BROADVIEW COURT,雅濤閣,True,0.0,0.0,POINT Z (22.2431797 114.164697 0),22.2431797,114.164697
147,"MEI FAI HSE(Block C,Phase 1,YUE FAI COURT),45 YUE KWONG RD|漁暉苑,1期,C座(美暉閣),45 漁光道",HA,4839931.563072369,12138.0,384.0,4914895.077148627,12326.0,384.0,5810273.0,13867.0,419.0,5.0,14.0,23.0,"['1', '2', '3', '4', '5', '6', '7', '8']",5236388.6636350015,12703.791666666666,401.5,27,216,1980/08,41,YUE FAI COURT,漁暉苑,True,0.0,0.0,POINT Z (22.2499061 114.156947 0),22.2499061,114.156947
148,"BROADVIEW COURT(Block 3),SHUM WAN RD|雅濤閣3座,深灣道",HA,5141648.0,10163.0,422.0,5349694.0,10787.0,422.0,7671744.0,13552.0,591.0,7.0,20.0,33.0,"['A', 'B', 'C', 'D', 'E', 'F', 'G', 'H', 'J', 'K']",6368976.8,12150.699999999999,527.2,39,390,2001/07,20,BROADVIEW COURT,雅濤閣,True,0.0,0.0,POINT Z (22.2427721 114.1656259 0),22.242772100000003,114.16562590000001
149,"OCEAN COURT(Block 2),ABERDEEN PRAYA RD|逸港居2座,香港仔海傍道",HA,4557365.676451734,9622.0,431.0,4760551.772603073,9873.0,431.0,7597415.914745779,12359.0,592.0,8.0,18.0,27.0,"['A', 'B', 'C', 'D', 'E']",5926538.665015356,10800.266666666668,527.6,25,125,1999/12,22,OCEAN COURT,逸港居,True,0.0,0.0,POINT Z (22.2473548 114.1592164 0),22.2473548,114.1592164
150,"LEE FAT MANSION,MAIN ST AP LEI CHAU|利發大廈,鴨利洲大街",HA,5321702.355228094,12717.0,401.0,5422553.992218734,12958.0,401.0,5739585.110384487,13784.0,403.0,5.0,10.0,17.0,"['A', 'B']",5519834.083793465,13223.833333333334,402.0,18,36,1982/06,39,blank,,False,,,POINT Z (22.2440186 114.1550594 0),22.2440186,114.1550594
151,"OCEAN COURT(Block 3),ABERDEEN PRAYA RD|逸港居3座,香港仔海傍道",HA,4749189.0,10093.0,431.0,4956500.0,10577.0,431.0,7180960.0,12130.0,592.0,8.0,18.0,27.0,"['A', 'B', 'C', 'D', 'E', 'F']",6206623.944444445,11348.5,547.1666666666666,28,168,1999/12,22,OCEAN COURT,逸港居,True,0.0,0.0,POINT Z (22.2474854 114.159495 0),22.2474854,114.15949499999999
152,"OCEAN COURT(Block 1),ABERDEEN PRAYA RD|逸港居1座,香港仔海傍道",HA,4407278.82306757,8397.0,431.0,4588881.594626625,8743.0,431.0,6717590.347955842,11188.0,592.0,8.0,17.0,26.0,"['A', 'B', 'C', 'D', 'E']",5576711.341927105,9484.733333333332,516.0,25,125,1999/12,22,OCEAN COURT,逸港居,True,0.0,0.0,POINT Z (22.2472388 114.1588448 0),22.2472388,114.15884479999998
153,"BROADVIEW COURT(Block 2),SHUM WAN RD|雅濤閣2座,深灣道",HA,5035726.0,10053.0,422.0,5080700.0,10373.0,422.0,7535808.0,13145.0,591.0,7.0,20.0,32.0,"['A', 'B', 'C', 'D', 'E', 'F', 'G', 'H', 'J', 'K']",5990701.966666666,11425.266666666668,527.2,37,370,2001/07,20,BROADVIEW COURT,雅濤閣,True,0.0,0.0,POINT Z (22.2429469 114.1650685 0),22.2429469,114.1650685
154,8 PING LAN ST|8 平瀾街,HA,5904142.0,18803.0,314.0,5904142.0,18803.0,314.0,6217200.0,19800.0,314.0,2.0,3.0,4.0,['whole floor'],6008494.666666667,19135.333333333332,314.0,5,5,1964/10,57,blank,,False,,,POINT Z (22.2447677 114.1568694 0),22.2447677,114.15686940000002
155,"HUNG FUK COURT(Block B),TIN WAN NEW ST|鴻褔苑B座,田灣新街",HA,4716283.0,8266.0,405.0,4970069.0,8225.0,405.0,5570865.0,9396.0,645.0,8.0,19.0,29.0,"['1', '10', '2', '3', '4', '5', '6', '8', '9']",5170173.800000001,8729.533333333333,509.6666666666667,31,279,1997/11,24,HUNG FUK COURT,鴻褔苑,True,0.0,0.0,POINT Z (22.251137 114.150695 0),22.251137,114.150695
156,"MAN KING BLDG,HING WO ST|萬景樓,興和街",HA,4972933.692955181,4941.0,520.0,5096728.642203003,5064.0,520.0,5224549.443458884,5805.0,584.0,8.0,13.0,18.0,"['A', 'B', 'C']",4892086.003891091,5167.666666666667,537.2222222222222,17,51,1974/06,47,blank,,False,,,POINT Z (22.2498335 114.1478834 0),22.249833499999998,114.1478834
157,"JADEWATER,ABERDEEN MAIN RD|南灣御園,香港仔大道",HA,7299136.0,13976.0,496.0,7707344.0,14520.0,496.0,11017140.0,15852.0,695.0,12.0,26.0,38.0,"['A', 'B', 'C', 'D', 'E']",8963548.0,15151.866666666669,591.0,36,180,2008/04,13,blank,,False,,,POINT Z (22.2484894 114.1523025 0),22.248489399999997,114.15230249999999
158,"LEE FAT MANSION,ABERDEEN MAIN RD|利發大廈,香港仔大道",HA,,,280.0,,,280.0,,,354.0,3.0,4.0,5.0,"['A', 'B', 'C']",,,329.3333333333333,3,9,1971/05,50,blank,,False,,,POINT Z (22.250331 114.153841 0),22.250331,114.15384099999999
159,"SUN MING BLDG,SHAN MING ST|新明大樓,山明街",HA,6049152.0,16336.0,356.0,6083328.0,16587.0,356.0,9750720.0,17412.0,560.0,2.0,4.0,6.0,"['A', 'B', 'C', 'D', 'E', 'F']",7556417.5,16930.94444444444,445.8333333333333,7,42,1966/03,55,blank,,False,,,POINT Z (22.2443331 114.1573585 0),22.244333100000002,114.1573585
160,17 HUNG SHING ST|17 洪聖街,HA,,,279.0,,,279.0,,,378.0,3.0,4.0,6.0,"['B', 'C', 'D']",,,317.6666666666667,6,18,1968/03,53,blank,,False,,,POINT Z (22.2444566 114.1559128 0),22.244456600000003,114.1559128
161,"HUNG LAI HSE(Block A,HUNG FUK COURT),TIN WAN NEW ST|鴻褔苑,A座(鴻麗閣),田灣新街",HA,3429540.0,8395.0,405.0,3587895.0,8712.0,405.0,5868210.0,9356.0,645.0,10.0,20.0,29.0,"['1', '10', '2', '3', '4', '5', '6', '7', '8', '9']",4549318.366666666,8849.633333333333,514.6,27,270,1997/11,24,HUNG FUK COURT,鴻褔苑,True,0.0,0.0,POINT Z (22.251137 114.150695 0),22.251137,114.150695
162,"TAI TAK HSE,KA WO ST|大德樓,嘉禾街",HA,,,288.0,2666744.989276716,7064.0,288.0,,,310.0,2.0,3.0,4.0,"['2', '3', '4', '6']",2666744.989276716,7064.0,306.75,5,20,1971/03,50,blank,,False,,,POINT Z (22.2498659 114.1483711 0),22.2498659,114.14837109999999
163,"TAI LOK HSE,SHEK PAI WAN RD|大樂樓,石排灣道",HA,,,307.0,,,307.0,,,380.0,3.0,4.0,5.0,"['1', '2', '3', '4', '5']",,,335.6666666666667,3,15,1971/03,50,blank,,False,,,POINT Z (22.2497206 114.1481853 0),22.2497206,114.1481853
164,81 MAIN ST AP LEI CHAU|81 鴨利洲大街,HA,,,495.0,,,495.0,,,495.0,3.0,4.0,5.0,['whole floor'],,,495.0,2,2,1965/11,56,blank,,False,,,POINT Z (22.2439202 114.1552265 0),22.243920199999998,114.15522649999998
165,"LARVOTTO(Block 3),AP LEI CHAU PRAYA RD|南灣3座,鴨利洲海旁道",HA,16919972.337015297,18186.0,764.0,17334923.81960129,18632.0,764.0,38747926.0,24493.0,1582.0,11.0,22.0,31.0,"['A', 'B', 'C']",30895886.92129757,22237.44444444444,1301.6666666666667,26,78,2010/12,11,LARVOTTO,南灣,True,0.0,0.0,POINT Z (22.2401736 114.1596309 0),22.240173600000002,114.15963090000001
166,"LARVOTTO(Block 1),AP LEI CHAU PRAYA RD|南灣1座,鴨利洲海旁道",HA,48476250.0,25854.0,1875.0,50930625.0,27163.0,1875.0,53334375.0,28445.0,2020.0,11.0,22.0,32.0,"['A', 'B']",50913750.0,27154.0,1947.5,27,54,2010/12,11,LARVOTTO,南灣,True,0.0,0.0,POINT Z (22.2401736 114.1596309 0),22.240173600000002,114.15963090000001
167,"LARVOTTO(Block 5),AP LEI CHAU PRAYA RD|南灣5座,鴨利洲海旁道",HA,15555040.0,19335.0,764.0,16243404.0,20378.0,764.0,27031158.0,22869.0,1182.0,11.0,22.0,32.0,"['A', 'B', 'C']",21793743.555555556,21112.0,1032.5555555555554,27,81,2010/12,11,LARVOTTO,南灣,True,0.0,0.0,POINT Z (22.2401736 114.1596309 0),22.240173600000002,114.15963090000001
168,"LARVOTTO(Block 6),AP LEI CHAU PRAYA RD|南灣6座,鴨利洲海旁道",HA,16024899.999999998,19340.0,764.0,16775912.0,20253.0,764.0,25433536.0,22843.0,1189.0,11.0,22.0,32.0,"['A', 'B', 'C']",21954843.555555556,21169.88888888889,1042.111111111111,27,81,2010/12,11,LARVOTTO,南灣,True,0.0,0.0,POINT Z (22.2401736 114.1596309 0),22.240173600000002,114.15963090000001
169,"LARVOTTO(Block 7),AP LEI CHAU PRAYA RD|南灣7座,鴨利洲海旁道",HA,15893334.0,20298.0,783.0,16200270.000000002,20690.0,783.0,33503786.999999996,24331.0,1377.0,11.0,22.0,32.0,"['A', 'B', 'C']",24984230.333333332,22161.88888888889,1116.3333333333333,27,81,2010/12,11,LARVOTTO,南灣,True,0.0,0.0,POINT Z (22.2401736 114.1596309 0),22.240173600000002,114.15963090000001
170,"LARVOTTO(Block 10),AP LEI CHAU PRAYA RD|南灣10座,鴨利洲海旁道",HA,8335866.0,18043.0,462.0,8683565.0,18755.0,462.0,23874732.0,22401.0,1071.0,11.0,22.0,32.0,"['A', 'B', 'C', 'D']",15768880.583333334,20192.25,762.1666666666666,27,108,2010/12,11,LARVOTTO,南灣,True,0.0,0.0,POINT Z (22.2410147 114.1589145 0),22.2410147,114.15891450000001
171,"LARVOTTO(Block 8),AP LEI CHAU PRAYA RD|南灣8座,鴨利洲海旁道",HA,11229832.0,18842.0,596.0,11850864.0,19884.0,596.0,22358156.0,21527.0,1054.0,12.0,22.0,32.0,"['A', 'B', 'C', 'D']",16604694.833333334,20120.083333333332,824.5,28,112,2010/12,11,LARVOTTO,南灣,True,0.0,0.0,POINT Z (22.240702 114.1592396 0),22.240702,114.15923959999999
172,"LARVOTTO(Block 9),AP LEI CHAU PRAYA RD|南灣9座,鴨利洲海旁道",HA,8491420.0,18340.0,463.0,8823391.0,19057.0,463.0,21560581.0,21056.0,1061.0,11.0,22.0,32.0,"['A', 'B', 'C', 'D']",15565511.0,19649.333333333332,793.5,27,108,2010/12,11,LARVOTTO,南灣,True,0.0,0.0,POINT Z (22.240862 114.1590538 0),22.240862,114.1590538
173,"LARVOTTO(Block 2),AP LEI CHAU PRAYA RD|南灣2座,鴨利洲海旁道",HA,55580520.599622466,28547.0,1875.0,,,1875.0,,,1923.0,11.0,22.0,31.0,"['A', 'B']",55580520.599622466,28547.0,1899.0,26,52,2010/12,11,LARVOTTO,南灣,True,0.0,0.0,POINT Z (22.2401736 114.1596309 0),22.240173600000002,114.15963090000001
174,"TUNG HING HSE(LEI TUNG EST),LEI TUNG EST RD|利東村(東興樓),利東村道",HA,1801212.0,6220.0,287.0,1866074.0,6441.0,287.0,2022272.0,6832.0,296.0,10.0,19.0,29.0,"['1', '16', '17', '23', '24', '25', '26', '29', '3', '30', '31', '32', '36', '5', '6', '7', '9']",1916252.0,6524.313725490196,293.70588235294116,29,493,1987/06,34,LEI TUNG EST,利東村,True,0.0,0.0,POINT Z (22.24059 114.155296 0),22.24059,114.15529599999999
175,132 MAIN ST AP LEI CHAU|132 鴨利洲大街,HA,3042307.7000571466,10577.0,277.0,3024474.3751631742,10515.0,277.0,4830472.0,11878.0,443.0,4.0,5.0,6.0,"['A', 'B', 'C', 'E', 'F']",4036499.69468605,11023.799999999997,364.06666666666666,5,25,1966/06,55,blank,,False,,,POINT Z (22.2439202 114.1552265 0),22.243920199999998,114.15522649999998
176,"TUNG ON HSE(LEI TUNG EST),LEI TUNG EST RD|利東村(東安樓),利東村道",HA,2931033.0,7693.0,381.0,3025521.0,7941.0,381.0,4161080.0,8838.0,490.0,12.0,21.0,30.0,"['10', '13', '14', '15', '18', '19', '2', '22', '4', '5']",3589557.9814814813,8307.703703703703,413.7,25,250,1988/06,33,LEI TUNG EST,利東村,True,0.0,0.0,POINT Z (22.2407409 114.1570547 0),22.2407409,114.1570547
177,"TUNG SING HSE(LEI TUNG EST),LEI TUNG EST RD|利東村(東昇樓),利東村道",HA,2699385.0,7085.0,381.0,2901696.0,7616.0,381.0,3989580.0000000005,8355.0,490.0,9.0,20.0,30.0,"['11', '12', '13', '14', '15', '17', '18', '22', '23', '24', '5', '8', '9']",3190026.025641026,7862.205128205128,406.15384615384613,32,416,1988/06,33,LEI TUNG EST,利東村,True,0.0,0.0,POINT Z (22.241485 114.1566154 0),22.241485,114.1566154
178,"MARINELLA(Block 6),WELFARE RD|深灣9號6座,惠福道",HA,55270865.0,32436.0,1703.0,59683338.0,34848.0,1703.0,72577545.21198097,37618.0,1858.0,8.0,19.0,29.0,"['A', 'B']",63528022.58599264,34980.0,1780.5,27,54,2012/04,9,MARINELLA,深灣9號,True,0.0,0.0,POINT Z (22.2460193 114.1636832 0),22.2460193,114.1636832
179,"MARINELLA(Block 8),WELFARE RD|深灣9號8座,惠福道",HA,30483459.0,27537.0,1107.0,32450598.0,29314.0,1107.0,43617954.0,32478.0,1343.0,8.0,19.0,29.0,"['A', 'B', 'C']",37607508.11111111,30271.333333333332,1240.0,27,81,2012/04,9,MARINELLA,深灣9號,True,0.0,0.0,POINT Z (22.2460193 114.1636832 0),22.2460193,114.1636832
180,"MARINELLA(Block 9),WELFARE RD|深灣9號9座,惠福道",HA,21343193.777141746,18502.0,596.0,22569429.588681128,19565.0,596.0,48294880.50682209,30319.0,1534.0,8.0,18.0,28.0,"['A', 'B', 'C']",34802806.77418222,25382.11111111111,1126.3333333333333,26,78,2012/04,9,MARINELLA,深灣9號,True,0.0,0.0,POINT Z (22.2460193 114.1636832 0),22.2460193,114.1636832
181,"MARINELLA(Block 3),WELFARE RD|深灣9號3座,惠福道",HA,30258800.0,26686.0,1100.0,32016600.000000004,29106.0,1100.0,42989136.0,31286.0,1388.0,8.0,19.0,29.0,"['A', 'B', 'C']",36758357.666666664,29319.44444444444,1252.3333333333333,27,81,2012/04,9,MARINELLA,深灣9號,True,0.0,0.0,POINT Z (22.2460193 114.1636832 0),22.2460193,114.1636832
182,"MARINELLA(Block 1),WELFARE RD|深灣9號1座,惠福道",HA,39870929.33825488,21639.0,1421.0,42190499.33639471,23294.0,1421.0,96670771.3435226,30152.0,2000.0,8.0,18.0,28.0,"['A', 'B']",66193208.160659336,25945.333333333332,1710.5,26,52,2012/04,9,MARINELLA,深灣9號,True,0.0,0.0,POINT Z (22.2460193 114.1636832 0),22.2460193,114.1636832
183,"MARINELLA(Block 2),WELFARE RD|深灣9號2座,惠福道",HA,34296603.097298056,26234.0,1121.0,36757005.896303736,28116.0,1121.0,59423032.66136332,37051.0,1317.0,8.0,19.0,29.0,"['A', 'B', 'C']",45797002.59164112,31149.0,1232.3333333333333,27,81,2012/04,9,MARINELLA,深灣9號,True,0.0,0.0,POINT Z (22.2460193 114.1636832 0),22.2460193,114.1636832
184,174-176 ABERDEEN MAIN RD|174-176 香港仔大道,HA,3590888.3530555167,8547.0,283.0,3556857.4701027265,8466.0,283.0,3616936.6832169117,10321.0,350.0,2.0,3.0,4.0,"['A', 'B', 'D']",3490900.841530713,8826.0,326.0,5,15,1968/01,53,blank,,False,,,POINT Z (22.2485078 114.155716 0),22.248507800000002,114.155716
185,"TUNG PING HSE(LEI TUNG EST),LEI TUNG EST RD|利東村(東平樓),利東村道",HA,2672334.0,7014.0,381.0,2800731.0,7351.0,381.0,4116490.0,8401.0,490.0,9.0,19.0,28.0,"['1', '13', '15', '23', '4', '5', '6']",3336622.0,7765.666666666667,427.7142857142857,27,189,1987/10,34,LEI TUNG EST,利東村,True,0.0,0.0,POINT Z (22.2419349 114.1576372 0),22.2419349,114.1576372
186,"TUNG YAT HSE(LEI TUNG EST),LEI TUNG EST RD|利東村(東逸樓),利東村道",HA,2758440.0,7240.0,381.0,3040380.0,7980.0,381.0,4288480.0,8752.0,490.0,9.0,18.0,26.0,"['1', '15', '18', '19', '23', '3', '4', '5', '6', '7', '9']",3250750.696969697,8094.212121212121,400.8181818181818,25,275,1988/07,33,LEI TUNG EST,利東村,True,0.0,0.0,POINT Z (22.2406848 114.157823 0),22.2406848,114.157823
187,"TUNG CHEONG HSE(LEI TUNG EST),LEI TUNG EST RD|利東村(東昌樓),利東村道",HA,2788539.0,7312.0,381.0,2924937.0,7677.0,381.0,4021920.0,8208.0,490.0,9.0,19.0,29.0,"['1', '11', '12', '13', '17', '19', '21', '22', '24', '6']",3203816.9,7742.866666666666,413.7,29,290,1987/01,34,LEI TUNG EST,利東村,True,0.0,0.0,POINT Z (22.2416169 114.1540655 0),22.2416169,114.1540655
188,"TUNG YIP HSE(LEI TUNG EST),LEI TUNG EST RD|利東村(東業樓),利東村道",HA,2623566.0,6886.0,381.0,2768727.0,7267.0,381.0,4102769.9999999995,8650.0,490.0,10.0,20.0,30.0,"['1', '10', '14', '16', '18', '19', '21', '22', '24', '4', '7', '8', '9']",3109706.5384615385,7810.025641025641,397.7692307692308,28,364,1987/01,34,LEI TUNG EST,利東村,True,0.0,0.0,POINT Z (22.2411576 114.1543615 0),22.2411576,114.1543615
189,"MARINELLA,WELFARE RD|深灣9號,惠福道",HA,122363325.0,47465.0,2565.0,122363325.0,47465.0,2565.0,212108274.53065538,56403.0,3622.0,0.0,0.0,0.0,"['1', '10', '11', '12', '16', '18', '2', '3', '6', '8']",158726825.0913379,52010.444444444445,2944.1,1,10,2012/04,9,MARINELLA,深灣9號,True,0.0,0.0,POINT Z (22.2460193 114.1636832 0),22.2460193,114.1636832
190,"TUNG MAU HSE(LEI TUNG EST),LEI TUNG EST RD|利東村(東茂樓),利東村道",HA,1715686.0,5928.0,287.0,1773947.0,6181.0,287.0,2207352.0,7508.0,296.0,9.0,19.0,29.0,"['11', '13', '14', '15', '18', '19', '2', '20', '22', '24', '26', '3', '32', '34', '5', '7', '9']",1993319.9215686275,6842.823529411765,291.29411764705884,29,493,1987/06,34,LEI TUNG EST,利東村,True,0.0,0.0,POINT Z (22.241631 114.1556865 0),22.241630999999998,114.1556865
191,"H. BONAIRE,MAIN ST AP LEI CHAU|倚南,鴨利洲大街",HA,6869760.0,20047.0,320.0,7229440.0,21306.0,320.0,15542440.0,25494.0,674.0,8.0,19.0,29.0,"['A', 'B', 'C', 'D']",11354303.0,22620.0,502.75,27,108,2016/10,5,blank,,False,,,POINT Z (22.2442365 114.1556764 0),22.2442365,114.15567639999999
192,58 MAIN ST AP LEI CHAU|58 鴨利洲大街,HA,,,377.0,,,377.0,,,377.0,3.0,3.0,3.0,['whole floor'],,,377.0,1,1,1976/04,45,blank,,False,,,POINT Z (22.2439202 114.1552265 0),22.243920199999998,114.15522649999998
193,26 MAIN ST AP LEI CHAU|26 鴨利洲大街,HA,6229938.0,19591.0,318.0,6256968.0,19676.0,318.0,6317070.0,19865.0,318.0,2.0,3.0,4.0,['whole floor'],6267992.0,19710.666666666668,318.0,3,3,1964/10,57,blank,,False,,,POINT Z (22.2439202 114.1552265 0),22.243920199999998,114.15522649999998
194,31 TUNG SING RD|31 東勝道,HA,,,429.0,,,429.0,,,498.0,4.0,6.0,6.0,"['1', '3', '4', '5', '6']",,,468.0,4,20,1962/03,59,blank,,False,,,POINT Z (22.2488412 114.1552623 0),22.248841199999998,114.15526229999999
195,"SOUTH COAST,TANG FUNG ST|登峰南岸,登豐街",HA,3998162.0,18683.0,214.0,,,214.0,,,606.0,22.0,68.0,102.0,"['A', 'B', 'BC', 'C', 'D', 'E', 'EF', 'F']",7615413.577021574,20056.0,377.625,96,768,2016/11,5,blank,,False,,,POINT Z (22.2493987 114.1495351 0),22.2493987,114.14953510000001
196,210-210A ABERDEEN MAIN RD|210-210A 香港仔大道,HA,,,354.0,,,354.0,,,354.0,2.0,2.0,3.0,['B'],,,354.0,2,2,1971/10,50,blank,,False,,,POINT Z (22.2485078 114.155716 0),22.248507800000002,114.155716
197,4 TANG FUNG ST|4 登豐街,HA,,,564.0,,,564.0,,,564.0,4.0,4.0,4.0,['whole floor'],,,564.0,1,1,1958/04,63,blank,,False,,,POINT Z (22.2494513 114.1491161 0),22.2494513,114.14911609999999
198,"MARINA SOUTH(Block 1),AP LEI CHAU DR|南區．左岸1座,鴨利洲徑",HA,,,1787.0,,,1787.0,,,3657.0,21.0,67.0,102.0,"['A', 'AB', 'B']",,,2438.0,97,291,2016/06,5,MARINA SOUTH,南區．左岸,True,0.0,0.0,POINT Z (22.2430567 114.1589563 0),22.243056699999997,114.15895630000001
199,"MARINA SOUTH(Block 2),AP LEI CHAU DR|南區．左岸2座,鴨利洲徑",HA,57986149.0,26975.0,1787.0,71565896.0,28655.0,1787.0,135013047.8263075,40306.0,3694.0,8.0,18.0,28.0,"['A', 'AB', 'B']",92469178.83210152,33178.166666666664,2462.6666666666665,28,84,2016/06,5,MARINA SOUTH,南區．左岸,True,0.0,0.0,POINT Z (22.2430567 114.1589563 0),22.243056699999997,114.15895630000001
200,11 TUNG SING RD|11 東勝道,HA,,,598.0,,,598.0,,,598.0,2.0,2.0,2.0,['whole floor'],,,598.0,1,1,1953/07,68,blank,,False,,,POINT Z (22.2488412 114.1552623 0),22.248841199999998,114.15526229999999
201,18 WU PAK ST|18 湖北街,HA,8045545.957711448,13022.0,595.0,8056049.281416032,13039.0,595.0,8101151.789088658,13112.0,595.0,3.0,4.0,5.0,['whole floor'],8067582.342738713,13057.666666666666,595.0,3,3,1966/05,55,blank,,False,,,POINT Z (22.2481534 114.1548009 0),22.2481534,114.15480090000001
202,9 TUNG SING RD|9 東勝道,HA,,,598.0,,,598.0,,,598.0,2.0,2.0,3.0,['whole floor'],,,598.0,2,2,1953/07,68,blank,,False,,,POINT Z (22.2488412 114.1552623 0),22.248841199999998,114.15526229999999
203,69 MAIN ST AP LEI CHAU|69 鴨利洲大街,HA,,,821.0,,,821.0,,,821.0,5.0,5.0,5.0,['whole floor'],,,821.0,1,1,1963/04,58,blank,,False,,,POINT Z (22.2439202 114.1552265 0),22.243920199999998,114.15522649999998
204,16 WU PAK ST|16 湖北街,HA,,,595.0,,,595.0,,,595.0,5.0,5.0,5.0,['whole floor'],,,595.0,1,1,1966/05,55,blank,,False,,,POINT Z (22.2481534 114.1548009 0),22.2481534,114.15480090000001
205,106 ABERDEEN MAIN RD|106 香港仔大道,HA,,,377.0,,,377.0,,,377.0,3.0,4.0,4.0,['whole floor'],,,377.0,4,4,1985/03,36,blank,,False,,,POINT Z (22.2485078 114.155716 0),22.248507800000002,114.155716
206,"SOUTH WALK．AURA,TIN WAN ST|南津．迎岸,田灣街",HA,3537891.0,18719.0,183.0,3739738.0,19277.0,183.0,6269900.0,27096.0,265.0,7.0,16.0,24.0,"['A', 'B', 'C', 'D', 'E', 'F']",4892807.666666667,22884.44444444445,214.05555555555557,23,138,2019/06,2,blank,,False,,,POINT Z (22.2495096 114.1492778 0),22.249509600000003,114.1492778
207,32 MAIN ST AP LEI CHAU|32 鴨利洲大街,HA,,,494.0,,,494.0,,,494.0,4.0,4.0,4.0,['whole floor'],,,494.0,1,1,1964/12,57,blank,,False,,,POINT Z (22.2439202 114.1552265 0),22.243920199999998,114.15522649999998
208,30 MAIN ST AP LEI CHAU|30 鴨利洲大街,HA,,,1943.0,,,1943.0,,,970.0,2.0,2.0,4.0,['whole floor'],,,1618.6666666666667,4,4,1964/12,57,blank,,False,,,POINT Z (22.2439202 114.1552265 0),22.243920199999998,114.15522649999998
209,124 MAIN ST AP LEI CHAU|124 鴨利洲大街,HA,,,513.0,,,513.0,,,513.0,5.0,5.0,5.0,['whole floor'],,,513.0,1,1,1975/08,46,blank,,False,,,POINT Z (22.2439202 114.1552265 0),22.243920199999998,114.15522649999998
210,126 MAIN ST AP LEI CHAU|126 鴨利洲大街,HA,,,513.0,,,513.0,,,513.0,1.0,2.0,3.0,['whole floor'],,,513.0,3,3,1975/08,46,blank,,False,,,POINT Z (22.2439202 114.1552265 0),22.243920199999998,114.15522649999998
211,120 MAIN ST AP LEI CHAU|120 鴨利洲大街,HA,,,512.0,,,512.0,,,512.0,2.0,2.0,2.0,['whole floor'],,,512.0,1,1,1967/04,54,blank,,False,,,POINT Z (22.2439202 114.1552265 0),22.243920199999998,114.15522649999998
