,final_address,district,lowZone_value,lowZone_npsf_min,lowZone_nfa_min,midZone_value,midZone_npsf_min,midZone_nfa_min,highZone_value,highZone_npsf_max,highZone_nfa_max,oneSixth_floor,middle_floor,fifthSixth_floor,unit_list,value_avg,npsf_avg,unitSize_avg,noStorey,noFlat,op_date,bldgAge,est_name_en,est_name_ch,est_orNot,est_bldgNo,est_flatNo,final_coords,lat,long
0,"ALBANY COURT(Block 32,Phase 4,SOUTH HORIZONS),32 YI NAM RD|海怡半島,4期,32座(御泉居),32 怡南路",HA,6883236.0,12691.0,526.0,7113098.0,13165.0,526.0,10239229.0,14861.0,689.0,10,18,26,"['A', 'B', 'C', 'D', 'E', 'F', 'G', 'H']",8174472.375,13620.458333333334,600.0,25,200,1995/07,28,SOUTH HORIZONS,海怡半島,True,34.0,9921.0,POINT Z (22.2435972 114.1492768 0),22.243597199999996,114.1492768
1,"HOI LEE BLDG,MAIN ST AP LEI CHAU|海利大廈,鴨利洲大街",HA,3871260.0,14445.0,268.0,3945228.0,14721.0,268.0,4545240.0,15460.0,300.0,5,12,19,"['A', 'B', 'C', 'D']",4209306.5,14897.166666666666,282.5,23,92,1991/09,32,blank,,False,,,POINT Z (22.2440977 114.1562206 0),22.244097699999998,114.1562206
2,"YEE FAI COURT(Block 13A,Phase 2,SOUTH HORIZONS),13A SOUTH HORIZON DR|海怡半島,2期,13A座(怡暉閣),13A 海怡路",HA,7326384.0,11741.0,624.0,7758816.0,12434.0,624.0,16363971.000000002,18243.0,897.0,8,20,33,"['A', 'B', 'C', 'D', 'E', 'F', 'G', 'H']",11851268.61904762,15182.214285714284,760.375,40,320,1993/07,30,SOUTH HORIZONS,海怡半島,True,34.0,9921.0,POINT Z (22.2432615 114.1457236 0),22.2432615,114.1457236
3,"MEI HONG COURT(Block 19,Phase 3,SOUTH HORIZONS),19 SOUTH HORIZON DR|海怡半島,3期,19座(美康閣),19 海怡路",HA,7325982.0,12438.0,589.0,7477355.0,12695.0,589.0,14739772.0,16414.0,898.0,8,20,33,"['A', 'B', 'C', 'D', 'E', 'F', 'G', 'H']",9416727.125,13750.0,674.5,40,320,1994/02,29,SOUTH HORIZONS,海怡半島,True,34.0,9921.0,POINT Z (22.242928 114.148272 0),22.242928,114.14827199999999
4,"CAMBRIDGE COURT(Block 33A,Phase 4,SOUTH HORIZONS),33A YI NAM RD|海怡半島,4期,33A座(御翠居),33A 怡南路",HA,6794341.999999999,12510.0,526.0,6936888.0,12776.0,526.0,8990480.0,14073.0,656.0,10,18,26,"['A', 'B', 'C', 'D', 'E', 'F', 'G', 'H']",7811338.208333333,13220.625,591.25,25,200,1995/03,28,SOUTH HORIZONS,海怡半島,True,34.0,9921.0,POINT Z (22.2429142 114.1491839 0),22.242914199999998,114.14918390000001
5,"KAM FUNG BLDG,ABERDEEN MAIN RD|金豐大廈,香港仔大道",HA,4866739.999999999,10423.0,430.0,5146670.0,11461.0,430.0,7219798.0,12521.0,578.0,6,17,28,"['A', 'B', 'C', 'D', 'E', 'F', 'G', 'H']",5642119.125,11703.0,482.625,33,264,1986/04,37,blank,,False,,,POINT Z (22.2483749 114.1555007 0),22.248374899999998,114.1555007
6,"MEI CHEUNG COURT(Block 20,Phase 3,SOUTH HORIZONS),20 SOUTH HORIZON DR|海怡半島,3期,20座(美祥閣),20 海怡路",HA,7357300.0,12428.0,589.0,7658178.0,12879.0,589.0,9172500.0,14676.0,640.0,8,20,33,"['A', 'B', 'C', 'D', 'E', 'F', 'G', 'H']",8101479.791666667,13233.416666666666,612.0,40,320,1994/00,29,SOUTH HORIZONS,海怡半島,True,34.0,9921.0,POINT Z (22.2426274 114.1486498 0),22.242627399999996,114.14864979999999
7,"KONG TAI COURT(Block H,ABERDEEN CTR),NAM NING ST|香港仔中心,H座(港泰閣),南寧街",HA,5328450.0,11019.0,450.0,5384019.0,11409.0,450.0,6599502.0,13134.0,553.0,6,15,24,"['1', '2', '3', '4', '5', '6']",5823301.277777779,11969.833333333334,488.0,27,162,1981/12,42,ABERDEEN CTR,香港仔中心,True,20.0,2778.0,POINT Z (22.24953 114.153739 0),22.24953,114.15373899999999
8,"DOVER COURT(Block 25,Phase 4,SOUTH HORIZONS),25 YI NAM RD|海怡半島,4期,25座(御柳居),25 怡南路",HA,6843260.0,12740.0,526.0,7175692.0,13350.0,526.0,11207559.0,15207.0,748.0,7,18,29,"['A', 'B', 'C', 'D', 'E', 'F', 'G', 'H']",8793641.208333334,13841.541666666666,635.25,35,280,1995/07,28,SOUTH HORIZONS,海怡半島,True,34.0,9921.0,POINT Z (22.2425571 114.1494557 0),22.242557100000003,114.1494557
9,"MEI WAH COURT(Block 22,Phase 3,SOUTH HORIZONS),22 SOUTH HORIZON DR|海怡半島,3期,22座(美華閣),22 海怡路",HA,7024540.0,11906.0,589.0,7351898.0,12482.0,589.0,14363776.0,16286.0,896.0,7,18,30,"['A', 'B', 'C', 'D', 'E', 'F', 'G', 'H']",10668046.958333334,14186.75,739.75,36,288,1994/08,29,SOUTH HORIZONS,海怡半島,True,34.0,9921.0,POINT Z (22.2429446 114.1475257 0),22.2429446,114.1475257
10,"HUNG FOOK COURT,HUNG SHING ST|鴻福閣,洪聖街",HA,4017628.0,13759.0,292.0,4247724.0,14547.0,292.0,4373868.0,14979.0,292.0,6,12,19,"['A', 'B']",4312450.666666667,14768.666666666666,292.0,22,44,1992/03,31,blank,,False,,,POINT Z (22.2444612 114.1561277 0),22.2444612,114.1561277
11,"WAI KING COURT(Block 30,Phase 4,SOUTH HORIZONS),30 YI NAM RD|海怡半島,4期,30座(慧景閣),30 怡南路",HA,6717216.0,11676.0,528.0,6811728.0,12060.0,528.0,9551607.0,13863.0,7254.0,8,16,25,"['A', 'A-H', 'B', 'C', 'D', 'E', 'F', 'G', 'H']",7804177.916666667,12929.375,1343.3333333333333,28,252,1994/12,29,SOUTH HORIZONS,海怡半島,True,34.0,9921.0,POINT Z (22.243881 114.149743 0),22.243881,114.14974299999999
12,"MEI CHUN COURT(Block 21,Phase 3,SOUTH HORIZONS),21 SOUTH HORIZON DR|海怡半島,3期,21座(美浚閣),21 海怡路",HA,7774210.999999999,13199.0,589.0,8015740.0,13586.0,589.0,14157696.0,15801.0,896.0,7,18,30,"['A', 'B', 'C', 'D', 'E', 'F', 'G', 'H']",10592815.5,14216.041666666666,740.375,36,288,1993/12,30,SOUTH HORIZONS,海怡半島,True,34.0,9921.0,POINT Z (22.2420248 114.1477673 0),22.242024800000003,114.1477673
13,"YEE KING COURT(Block 8,Phase 2,SOUTH HORIZONS),8 SOUTH HORIZON DR|海怡半島,2期,8座(怡景閣),8 海怡路",HA,8672184.0,13383.0,648.0,8840029.0,13621.0,648.0,11385280.0,15140.0,1507.0,8,22,35,"['A', 'AB', 'B', 'C', 'D', 'E', 'F', 'G', 'H']",11560487.435185185,14456.074074074073,813.888888888889,42,378,1992/10,31,SOUTH HORIZONS,海怡半島,True,34.0,9921.0,POINT Z (22.2443926 114.1450302 0),22.2443926,114.14503020000001
14,"MEI KA COURT(Block 23A,Phase 3,SOUTH HORIZONS),23A SOUTH HORIZON DR|海怡半島,3期,23A座(美家閣),23A 海怡路",HA,7533710.0,12769.0,589.0,7678850.0,13015.0,589.0,12152967.0,15403.0,791.0,7,20,33,"['A', 'B', 'C', 'D', 'E', 'F', 'G', 'H']",9604529.833333334,13911.625,687.875,39,312,1994/02,29,SOUTH HORIZONS,海怡半島,True,34.0,9921.0,POINT Z (22.2421636 114.1488258 0),22.2421636,114.1488258
15,"YEE LOK COURT(Block 13,Phase 2,SOUTH HORIZONS),13 SOUTH HORIZON DR|海怡半島,2期,13座(怡樂閣),13 海怡路",HA,8009295.0,12495.0,631.0,8268160.0,12919.0,631.0,12078592.0,15872.0,763.0,6,17,28,"['A', 'B', 'C', 'D', 'E', 'F', 'G', 'H']",9154847.5,13661.541666666666,668.625,33,264,1992/10,31,SOUTH HORIZONS,海怡半島,True,34.0,9921.0,POINT Z (22.2436581 114.1456689 0),22.2436581,114.1456689
16,"NING FUNG MANSION,MAIN ST AP LEI CHAU|年豐大廈,鴨利洲大街",HA,3539100.0,12550.0,271.0,3793182.0,13451.0,271.0,4164083.0,15112.0,287.0,6,12,19,"['A', 'B', 'C', 'D', 'E', 'F']",3940708.5,14079.22222222222,280.0,20,120,1981/08,42,blank,,False,,,POINT Z (22.2442317 114.1568941 0),22.244231699999997,114.15689409999999
17,"HOI YAT COURT(Block 6,Phase 1,SOUTH HORIZONS),6 SOUTH HORIZON DR|海怡半島,1期,6座(海逸閣),6 海怡路",HA,7139534.0,11762.0,600.0,7529228.0,12376.0,600.0,10844519.0,14382.0,763.0,7,18,29,"['A', 'B', 'C', 'D', 'E', 'F', 'G', 'H']",8726108.75,12960.291666666666,674.0,35,280,1992/03,31,SOUTH HORIZONS,海怡半島,True,34.0,9921.0,POINT Z (22.2446038 114.1462959 0),22.2446038,114.1462959
18,"YEE WAN COURT(Block 15,Phase 2,SOUTH HORIZONS),15 SOUTH HORIZON DR|海怡半島,2期,15座(怡韻閣),15 海怡路",HA,7588372.000000001,11894.0,625.0,7809120.0,12240.0,625.0,15720590.0,17905.0,897.0,8,20,33,"['A', 'B', 'C', 'D', 'E', 'F', 'G', 'H']",11343995.0,14644.708333333334,759.5,40,320,1993/07,30,SOUTH HORIZONS,海怡半島,True,34.0,9921.0,POINT Z (22.243179 114.146127 0),22.243179,114.146127
19,"ABBA HSE(Block B),ABERDEEN MAIN RD|福群大樓B座,香港仔大道",HA,3922300.0,12327.0,305.0,4085475.0,12875.0,305.0,6319350.0,14043.0,450.0,10,19,28,"['1', '2', '3', '4', '5', '6', '7', '8']",4857922.916666667,13264.291666666666,366.875,29,232,1983/03,40,ABBA HSE,福群大樓,True,2.0,464.0,POINT Z (22.2483297 114.1525978 0),22.2483297,114.1525978
20,"HOI FAI COURT(Block 2,Phase 1,SOUTH HORIZONS),2 SOUTH HORIZON DR|海怡半島,1期,2座(海暉閣),2 海怡路",HA,6521900.0,12100.0,526.0,6728876.0,12484.0,526.0,9067364.000000002,14723.0,652.0,8,20,33,"['A', 'B', 'C', 'D', 'E', 'F', 'G', 'H']",7498340.875,13415.0,559.0,40,320,1991/11,32,SOUTH HORIZONS,海怡半島,True,34.0,9921.0,POINT Z (22.244541 114.147874 0),22.244541,114.147874
21,"YEE NGAR COURT(Block 9,Phase 2,SOUTH HORIZONS),9 SOUTH HORIZON DR|海怡半島,2期,9座(怡雅閣),9 海怡路",HA,8841312.0,13192.0,648.0,8771328.0,13536.0,648.0,11888368.0,15809.0,755.0,8,22,35,"['A', 'B', 'C', 'D', 'E', 'F', 'G', 'H']",10418676.625,14285.041666666666,728.7083333333334,42,336,1992/10,31,SOUTH HORIZONS,海怡半島,True,34.0,9921.0,POINT Z (22.2440632 114.1447667 0),22.2440632,114.14476670000002
22,"YEE MOON COURT(Block 12,Phase 2,SOUTH HORIZONS),12 SOUTH HORIZON DR|海怡半島,2期,12座(怡滿閣),12 海怡路",HA,7938611.0,12514.0,631.0,8069228.0,12788.0,631.0,12571926.0,16306.0,781.0,6,17,28,"['A', 'B', 'C', 'D', 'E', 'F', 'G', 'H']",9340015.958333334,13839.291666666666,671.0,33,264,1992/10,31,SOUTH HORIZONS,海怡半島,True,34.0,9921.0,POINT Z (22.243179 114.146127 0),22.243179,114.146127
23,"YEE LAI COURT(Block 10,Phase 2,SOUTH HORIZONS),10 SOUTH HORIZON DR|海怡半島,2期,10座(怡麗閣),10 海怡路",HA,8378590.0,12112.0,648.0,9232704.0,12848.0,648.0,15541316.0,17423.0,893.0,8,22,35,"['A', 'B', 'C', 'D', 'E', 'F', 'G', 'H']",12064824.958333334,15026.625,796.25,42,336,1992/10,31,SOUTH HORIZONS,海怡半島,True,34.0,9921.0,POINT Z (22.243875 114.144527 0),22.243875,114.144527
24,"COMFORT CTR,OLD MAIN ST ABERDEEN|港暉中心,香港仔舊大街",HA,4650060.0,11700.0,380.0,4773940.0,12170.0,380.0,6519900.0,13462.0,515.0,6,15,24,"['A', 'B', 'C', 'D', 'E', 'F']",5398085.555555555,12625.11111111111,429.0,29,174,1992/08,31,blank,,False,,,POINT Z (22.2486215 114.1561509 0),22.2486215,114.15615090000001
25,"GRANDVIEW GARDEN(Block 1),NAM LONG SHAN RD|金寶花園1座,南朗山道",HA,4321959.0,13217.0,307.0,4529296.0,13546.0,304.0,5211080.0,15430.0,370.0,6,14,22,"['A', 'B', 'C', 'D', 'E', 'F']",4773971.944444445,14490.555555555557,330.3333333333333,25,150,1985/03,38,GRANDVIEW GARDEN,金寶花園,True,2.0,294.0,POINT Z (22.244926 114.16684 0),22.244926,114.16684
26,"KIN FAI BLDG,ABERDEEN MAIN RD|建輝大廈,香港仔大道",HA,3699360.0,12983.0,280.0,3793720.0,13128.0,280.0,4308255.0,14041.0,315.0,6,12,19,"['A', 'B', 'C', 'D', 'E', 'F']",3941313.055555556,13521.0,291.6666666666667,20,120,1979/11,44,blank,,False,,,POINT Z (22.2478893 114.1587287 0),22.2478893,114.1587287
27,"MEI FAI COURT(Block 17,Phase 3,SOUTH HORIZONS),17 SOUTH HORIZON DR|海怡半島,3期,17座(美暉閣),17 海怡路",HA,7727500.0,12364.0,625.0,7613125.0,12181.0,625.0,15244448.0,16976.0,898.0,8,20,33,"['A', 'B', 'C', 'D', 'E', 'F', 'G', 'H']",11265844.75,14595.333333333334,760.875,40,320,1993/12,30,SOUTH HORIZONS,海怡半島,True,34.0,9921.0,POINT Z (22.2429446 114.1475257 0),22.2429446,114.1475257
28,"FENTON COURT(Block 27,Phase 4,SOUTH HORIZONS),27 YI NAM RD|海怡半島,4期,27座(御雅居),27 怡南路",HA,6266557.0,11891.0,526.0,6527949.0,12387.0,526.0,16389945.0,15565.0,1053.0,7,18,29,"['A', 'A & B', 'B', 'C', 'D', 'E', 'F', 'G', 'H']",9469978.481481481,13738.37037037037,682.3333333333334,35,315,1995/07,28,SOUTH HORIZONS,海怡半島,True,34.0,9921.0,POINT Z (22.2429245 114.1500896 0),22.2429245,114.1500896
29,"GRANDVIEW GARDEN(Block 2),NAM LONG SHAN RD|金寶花園2座,南朗山道",HA,4572876.0,14041.0,307.0,4682364.0,14446.0,307.0,5779262.0,16312.0,373.0,6,14,22,"['A', 'B', 'C', 'D', 'E', 'F']",5037382.388888889,15032.833333333334,335.5,25,150,1985/03,38,GRANDVIEW GARDEN,金寶花園,True,2.0,294.0,POINT Z (22.244926 114.16684 0),22.244926,114.16684
30,"YEE MEI COURT(Block 7,Phase 2,SOUTH HORIZONS),7 SOUTH HORIZON DR|海怡半島,2期,7座(怡美閣),7 海怡路",HA,8252860.0,11578.0,644.0,8420300.0,12184.0,644.0,11742515.0,15553.0,760.0,8,22,35,"['A', 'B', 'C', 'D', 'E', 'F', 'G', 'H']",10030701.333333334,13757.833333333334,728.625,42,336,1992/10,31,SOUTH HORIZONS,海怡半島,True,34.0,9921.0,POINT Z (22.2446716 114.145352 0),22.2446716,114.145352
31,"HOI WAN COURT(Block 4,Phase 1,SOUTH HORIZONS),4 SOUTH HORIZON DR|海怡半島,1期,4座(海韻閣),4 海怡路",HA,7780200.0,12116.0,600.0,8290406.0,12392.0,600.0,10012548.0,14593.0,742.0,7,18,29,"['A', 'B', 'C', 'D', 'E', 'F', 'G', 'H']",8844451.25,13308.208333333334,666.75,35,280,1991/11,32,SOUTH HORIZONS,海怡半島,True,34.0,9921.0,POINT Z (22.244454 114.146952 0),22.244454,114.146952
32,"JING HUI GARDEN(Block 1),ABERDEEN MAIN RD|景惠花園1座,香港仔大道",HA,4463100.0,11020.0,405.0,4593510.000000001,11342.0,405.0,5801495.137290817,14060.0,485.0,5,12,20,"['A', 'B', 'C', 'D']",5078795.831503513,12414.416666666666,445.0,24,96,1989/02,34,JING HUI GARDEN,景惠花園,True,2.0,192.0,POINT Z (22.248027 114.1592396 0),22.248027,114.15923959999999
33,"JUMBO COURT,WELFARE RD|珍寶閣,惠福道",HA,4632036.705124103,13016.0,391.0,4714103.81426363,13238.0,391.0,6123364.922277959,16702.0,1133.0,8,12,17,"['A', 'B', 'C', 'D', 'E', 'F', 'G', 'H', 'I', 'J', 'J & K & L', 'K', 'L']",5289643.142241977,14646.442424242423,478.84615384615387,14,182,1979/05,44,blank,,False,,,POINT Z (22.245874 114.164656 0),22.245874,114.16465600000001
34,"KONG CHEUNG COURT(Block G,ABERDEEN CTR),NAM NING ST|香港仔中心,G座(港昌閣),南寧街",HA,5004900.0,11093.0,450.0,5206500.0,11554.0,450.0,6627705.0,12333.0,553.0,6,15,24,"['1', '2', '3', '4', '5', '6']",5682453.0,11651.61111111111,488.0,27,162,1982/01,41,ABERDEEN CTR,香港仔中心,True,20.0,2778.0,POINT Z (22.2487869 114.1538679 0),22.2487869,114.1538679
35,"HOI NING COURT(Block 5,Phase 1,SOUTH HORIZONS),5 SOUTH HORIZON DR|海怡半島,1期,5座(海寧閣),5 海怡路",HA,7485524.000000001,12125.0,600.0,7776600.0,12714.0,600.0,10362894.0,14433.0,742.0,7,18,29,"['A', 'B', 'C', 'D', 'E', 'F', 'G', 'H']",8829421.916666666,13236.291666666666,666.75,35,280,1991/11,32,SOUTH HORIZONS,海怡半島,True,34.0,9921.0,POINT Z (22.244734 114.146632 0),22.244734,114.14663200000001
36,"JUMBO BLDG,ABERDEEN MAIN RD|珍寶大廈,香港仔大道",HA,4055938.0,12087.0,314.0,4173374.0,12440.0,314.0,5144548.000000001,13718.0,398.0,8,15,22,"['A', 'B', 'C', 'D']",4579618.833333333,12911.416666666666,356.0,23,92,1988/05,35,blank,,False,,,POINT Z (22.2494217 114.1549433 0),22.2494217,114.1549433
37,"EATON COURT(Block 26,Phase 4,SOUTH HORIZONS),26 YI NAM RD|海怡半島,4期,26座(御盈居),26 怡南路",HA,6992644.0,13186.0,526.0,7337700.0,13936.0,526.0,11585024.0,15488.0,748.0,7,18,29,"['A', 'B', 'C', 'D', 'E', 'F', 'G', 'H']",9068751.708333334,14212.916666666666,636.0,35,280,1995/07,28,SOUTH HORIZONS,海怡半島,True,34.0,9921.0,POINT Z (22.2427306 114.1496813 0),22.2427306,114.14968130000001
38,"HOI SING COURT(Block 1,Phase 1,SOUTH HORIZONS),1 SOUTH HORIZON DR|海怡半島,1期,1座(海昇閣),1 海怡路",HA,6676042.0,12299.0,526.0,7075238.0,12888.0,526.0,9192654.0,14504.0,1269.0,8,20,33,"['A', 'AB', 'B', 'C', 'D', 'E', 'F', 'G', 'H']",7808369.583333333,13380.208333333334,660.2222222222222,40,360,1991/11,32,SOUTH HORIZONS,海怡半島,True,34.0,9921.0,POINT Z (22.2450552 114.1479066 0),22.2450552,114.14790659999998
39,"YEE TSUI COURT(Block 16,Phase 2,SOUTH HORIZONS),16 SOUTH HORIZON DR|海怡半島,2期,16座(怡翠閣),16 海怡路",HA,7820625.0,12513.0,625.0,7930000.0,12688.0,625.0,15630225.0,17568.0,897.0,8,20,33,"['A', 'B', 'C', 'D', 'E', 'F', 'G', 'H']",11502165.875,14879.791666666666,760.875,40,320,1993/00,30,SOUTH HORIZONS,海怡半島,True,34.0,9921.0,POINT Z (22.2431304 114.1465931 0),22.2431304,114.14659309999999
40,"COBLE COURT,MAIN ST AP LEI CHAU|高寶閣,鴨利洲大街",HA,3992755.0,12606.0,265.0,4012673.0,12932.0,265.0,5184375.0,15172.0,395.0,6,13,20,"['A', 'B', 'C', 'D', 'E', 'F', 'G', 'H']",4734062.75,13678.458333333334,348.875,23,184,1987/02,36,blank,,False,,,POINT Z (22.2434521 114.1545021 0),22.243452100000003,114.1545021
41,"YEE FUNG COURT(Block 11,Phase 2,SOUTH HORIZONS),11 SOUTH HORIZON DR|海怡半島,2期,11座(怡豐閣),11 海怡路",HA,7920744.0,12454.0,631.0,8339232.0,13112.0,631.0,21987792.0,17286.0,1272.0,6,17,28,"['A', 'B', 'C', 'D', 'E', 'EF', 'F', 'G', 'H']",10528516.851851853,13967.259259259261,740.0,33,297,1992/10,31,SOUTH HORIZONS,海怡半島,True,34.0,9921.0,POINT Z (22.244399 114.145846 0),22.244398999999998,114.14584599999999
42,"BERKELEY COURT(Block 33,Phase 4,SOUTH HORIZONS),33 YI NAM RD|海怡半島,4期,33座(御林居),33 怡南路",HA,7008950.0,12866.0,526.0,7291412.0,13516.0,526.0,10563747.999999998,15332.0,689.0,9,18,26,"['A', 'B', 'C', 'D', 'E', 'F', 'G', 'H']",8460617.083333334,14072.625,600.0,26,208,1995/07,28,SOUTH HORIZONS,海怡半島,True,34.0,9921.0,POINT Z (22.2425571 114.1494557 0),22.242557100000003,114.1494557
43,"KONG HING COURT(Block J,ABERDEEN CTR),NAM NING ST|香港仔中心,J座(港興閣),南寧街",HA,5042418.0,10938.0,450.0,5030893.0,10913.0,450.0,6930196.0,13002.0,553.0,6,15,24,"['1', '2', '3', '4', '5', '6']",5828773.277777777,11918.888888888889,488.0,27,162,1981/12,42,ABERDEEN CTR,香港仔中心,True,20.0,2778.0,POINT Z (22.2491936 114.1537589 0),22.2491936,114.15375890000001
44,"AP LEI CHAU CTR(Block A),LEE CHI RD|鴨利洲中心A座,利枝道",HA,4281920.0,12794.0,320.0,4359360.0,13221.0,320.0,5925268.0,14480.0,452.0,7,14,21,"['1', '2', '3', '4', '5', '6', '7', '8']",4902018.0,13531.833333333334,363.0,23,184,1983/12,40,AP LEI CHAU CTR,鴨利洲中心,True,2.0,400.0,POINT Z (22.243318 114.152938 0),22.243318,114.15293799999999
45,"PAK KING COURT(Block 31,Phase 4,SOUTH HORIZONS),31 YI NAM RD|海怡半島,4期,31座(柏景閣),31 怡南路",HA,6665112.0,12556.0,523.0,6840670.0,12715.0,523.0,9758588.0,14372.0,688.0,8,16,25,"['A', 'B', 'C', 'D', 'E', 'F', 'G', 'H']",7918411.75,13171.458333333334,600.125,26,208,1994/12,29,SOUTH HORIZONS,海怡半島,True,34.0,9921.0,POINT Z (22.243803 114.150128 0),22.243803,114.15012800000001
46,"OCEAN HSE,OLD MAIN ST ABERDEEN|海洋大廈,香港仔舊大街",HA,4227523.838771195,11832.0,356.0,4313540.228670252,11963.0,356.0,4498293.742185828,15142.0,356.0,5,10,15,"['A', 'B', 'C', 'D']",4421727.0728266835,13844.333333333334,361.8333333333333,15,60,1983/08,40,blank,,False,,,POINT Z (22.2478548 114.1561741 0),22.247854800000002,114.15617409999999
47,"YEN SHING MANSION,SHEK PAI WAN RD|仁勝大廈,石排灣道",HA,3301070.0,11383.0,290.0,3398510.0,11719.0,290.0,3707265.0,12567.0,295.0,4,10,16,"['A', 'B', 'C', 'D']",3483801.25,11909.333333333334,292.5,19,76,1988/02,35,blank,,False,,,POINT Z (22.2494766 114.1480764 0),22.2494766,114.1480764
48,"WAI KING MANSION,ABERDEEN MAIN RD|偉景大廈,香港仔大道",HA,4978895.780628583,10818.0,492.0,5347549.461556989,11619.0,492.0,5818376.82184383,12642.0,492.0,7,15,22,"['A', 'B']",5449262.899116512,11840.0,492.0,23,46,1994/07,29,blank,,False,,,POINT Z (22.2478004 114.1585313 0),22.2478004,114.1585313
49,"BILLION COURT,MAIN ST AP LEI CHAU|利豐大廈,鴨利洲大街",HA,4710990.0,12613.0,373.0,4857579.0,12666.0,373.0,5785717.0,14274.0,413.0,5,12,20,"['A', 'B', 'C', 'D', 'E', 'F']",5222053.777777777,13258.666666666666,394.0,24,144,1990/10,33,blank,,False,,,POINT Z (22.243282 114.1540055 0),22.243282,114.1540055
50,"KONG WING COURT(Block I,ABERDEEN CTR),NAM NING ST|香港仔中心,I座(港榮閣),南寧街",HA,5032276.0,10916.0,450.0,5097738.0,11058.0,450.0,5753760.0,12129.0,480.0,6,15,24,"['1', '2', '3', '4', '5', '6']",5356427.555555556,11553.388888888889,463.6666666666667,27,162,1981/12,42,ABERDEEN CTR,香港仔中心,True,20.0,2778.0,POINT Z (22.2493534 114.1538518 0),22.249353399999997,114.1538518
51,"HOI NGAR COURT(Block 3,Phase 1,SOUTH HORIZONS),3 SOUTH HORIZON DR|海怡半島,1期,3座(海雅閣),3 海怡路",HA,7310101.0,12043.0,600.0,7518909.0,12387.0,600.0,20042524.0,16388.0,1223.0,7,18,29,"['A', 'B', 'C', 'D', 'E', 'EF', 'F', 'G', 'H']",10159436.0,13606.851851851852,735.0,35,315,1991/11,32,SOUTH HORIZONS,海怡半島,True,34.0,9921.0,POINT Z (22.2447503 114.1473493 0),22.2447503,114.1473493
52,"KA WO BLDG(Block B),KA WO ST|嘉和大廈B座,嘉禾街",HA,3744423.5182349165,12222.0,330.0,3846898.9313080013,12587.0,330.0,5494902.654026824,14514.0,445.0,6,14,21,"['1', '2', '3', '4', '5', '6', '7', '8']",4063499.8561556153,13398.238095238097,353.3333333333333,23,184,1978/05,45,KA WO BLDG,嘉和大廈,True,2.0,360.0,POINT Z (22.2499491 114.1488123 0),22.249949100000002,114.14881229999999
53,"MEI HAY COURT(Block 18,Phase 3,SOUTH HORIZONS),18 SOUTH HORIZON DR|海怡半島,3期,18座(美晞閣),18 海怡路",HA,7522500.0,12750.0,589.0,7675310.0,13009.0,589.0,22020405.0,17435.0,1263.0,8,20,33,"['A', 'B', 'C', 'D', 'E', 'E & F', 'F', 'G', 'H']",10459742.560185187,14274.143518518518,739.888888888889,40,360,1993/12,30,SOUTH HORIZONS,海怡半島,True,34.0,9921.0,POINT Z (22.2427771 114.1478342 0),22.2427771,114.14783419999999
54,"MEI HIN COURT(Block 23,Phase 3,SOUTH HORIZONS),23 SOUTH HORIZON DR|海怡半島,3期,23座(美軒閣),23 海怡路",HA,7596333.0,12897.0,589.0,7926650.0,13425.0,589.0,12365703.0,15633.0,791.0,7,20,33,"['A', 'B', 'C', 'D', 'E', 'F', 'G', 'H']",9689266.083333334,14020.5,687.875,39,312,1994/08,29,SOUTH HORIZONS,海怡半島,True,34.0,9921.0,POINT Z (22.2420243 114.1486033 0),22.2420243,114.1486033
55,"SOUTH VIEW GARDEN,SHEK PAI WAN RD|南景花園,石排灣道",HA,3486177.0,12551.0,261.0,3703068.0,13078.0,261.0,5753426.0,15105.0,406.0,9,18,27,"['A', 'B', 'C', 'D', 'E', 'F']",4682223.833333333,13818.111111111111,340.3333333333333,25,150,1995/06,28,blank,,False,,,POINT Z (22.2491127 114.1485465 0),22.249112699999998,114.14854650000001
56,"FORTUNE MANSION,MAIN ST AP LEI CHAU|利是大廈,鴨利洲大街",HA,5006092.0,11326.0,409.0,5061784.0,11452.0,409.0,5752870.0,13943.0,442.0,5,12,19,"['A', 'B', 'C', 'D', 'E', 'F']",5421249.5,12827.722222222224,423.3333333333333,23,138,1987/03,36,blank,,False,,,POINT Z (22.2439544 114.1559535 0),22.2439544,114.1559535
57,"FULL JADE MANSION,SHEK PAI WAN RD|富澤大廈,石排灣道",HA,3299697.0,13310.0,243.0,3464208.0,14018.0,243.0,3848780.0,15115.0,262.0,5,12,20,"['A', 'B', 'C', 'D']",3560064.5,14268.25,249.66666666666666,24,96,1992/06,31,blank,,False,,,POINT Z (22.2495028 114.1479066 0),22.249502800000002,114.14790659999998
58,"MEI FUNG COURT(Block R,ABERDEEN CTR),NAM NING ST|香港仔中心,R座(美豐閣),南寧街",HA,7934355.0,11583.0,685.0,8209725.0,11985.0,685.0,9044640.0,12693.0,720.0,7,15,23,"['1', '2', '3', '4']",8475209.583333334,12106.166666666666,700.0,25,100,1981/05,42,ABERDEEN CTR,香港仔中心,True,20.0,2778.0,POINT Z (22.2481257 114.1533409 0),22.2481257,114.1533409
59,"ABBA HSE(Block A),ABERDEEN MAIN RD|福群大樓A座,香港仔大道",HA,3906745.0,12291.0,305.0,4072360.0,12884.0,305.0,6251360.0,14402.0,450.0,10,19,28,"['1', '2', '3', '4', '5', '6', '7', '8']",5084050.833333333,13285.041666666666,383.125,29,232,1983/03,40,ABBA HSE,福群大樓,True,2.0,464.0,POINT Z (22.2482423 114.1528764 0),22.2482423,114.1528764
60,"SHUN FUNG COURT,KA WO ST|順豐大廈,嘉禾街",HA,3625449.0,11087.0,327.0,3713738.9999999995,11357.0,327.0,3890973.0,11899.0,327.0,6,12,20,"['A', 'B']",3752597.5,11475.833333333334,327.0,22,44,1994/11,29,blank,,False,,,POINT Z (22.2497168 114.1486429 0),22.2497168,114.1486429
61,"WAH LEE BLDG,TSUNG MAN ST|華利大廈,崇文街",HA,4095953.7459449056,12036.0,400.0,4207234.642831245,12363.0,400.0,4165955.2153318175,12886.0,380.0,5,11,17,"['A', 'B']",4165317.1367946253,12454.5,393.3333333333333,19,38,1978/12,45,blank,,False,,,POINT Z (22.2497883 114.1555239 0),22.2497883,114.1555239
62,"SEAVIEW COURT,ABERDEEN MAIN RD|海光閣,香港仔大道",HA,4008900.0,13363.0,300.0,4095000.0,13650.0,300.0,4594500.0,15315.0,300.0,5,13,21,"['A', 'B']",4289750.0,14299.166666666666,300.0,25,50,1992/07,31,blank,,False,,,POINT Z (22.247766 114.1584036 0),22.247766,114.15840359999999
63,"SZE HEI BLDG,SHEK PAI WAN RD|四喜大廈,石排灣道",HA,2976947.0,9391.0,315.0,3059684.0,9652.0,315.0,3626213.088434668,13531.0,317.0,6,12,18,"['A', 'B', 'C']",3232007.6160060638,11177.5,315.6666666666667,19,57,1975/05,48,blank,,False,,,POINT Z (22.2488626 114.1489285 0),22.248862600000002,114.1489285
64,"HIP SING MANSION,OLD MAIN ST ABERDEEN|協勝大廈,香港仔舊大街",HA,4602663.0,11421.0,403.0,4770311.0,11837.0,403.0,4963348.0,12316.0,403.0,5,12,20,"['A', 'B']",4778774.0,11858.0,404.0,24,48,1990/03,33,blank,,False,,,POINT Z (22.2477477 114.1560929 0),22.247747699999998,114.1560929
65,"ALBERT HSE,CHENGTU RD|添喜大廈,成都道",HA,3421099.061343082,7698.0,390.0,3536646.7043606457,7958.0,390.0,4486279.148716188,13521.0,780.0,7,15,22,"['A', 'AC', 'B', 'C', 'D']",3902924.025436277,10408.25,468.0,21,105,1973/08,50,blank,,False,,,POINT Z (22.248646 114.154863 0),22.248646,114.15486299999999
66,"YEN CHING BLDG,MAIN ST AP LEI CHAU|仁正大廈,鴨利洲大街",HA,3421680.0,12462.0,260.0,3443440.0,12405.0,260.0,5762250.0,13870.0,450.0,4,10,17,"['A', 'B', 'C', 'D']",3854726.6666666665,13149.416666666666,293.75,20,80,1985/03,38,blank,,False,,,POINT Z (22.243637 114.1551291 0),22.243637,114.1551291
67,"COMMAND TOWER,MAIN ST AP LEI CHAU|僑民大廈,鴨利洲大街",HA,3836294.0,11398.0,319.0,3955919.0,11756.0,319.0,5260020.0,13147.0,435.0,5,12,19,"['1', '2', '3', '4']",4451797.5,12183.5,367.0,21,84,1986/08,37,blank,,False,,,POINT Z (22.243347 114.1542002 0),22.243347,114.1542002
68,"KA NING MANSION,ABERDEEN MAIN RD|嘉寧大廈,香港仔大道",HA,6682032.71836249,11218.0,635.0,6796082.881214797,11441.0,635.0,9251094.020831237,12361.0,830.0,6,13,20,"['A', 'B', 'C', 'D']",7981533.700738977,11660.916666666666,732.5,23,92,1979/12,44,blank,,False,,,POINT Z (22.2472655 114.1571495 0),22.2472655,114.15714950000002
69,"HAPPY VIEW BLDG,MAIN ST AP LEI CHAU|樂景大廈,鴨利洲大街",HA,4321782.0,13152.0,326.0,4423494.0,13462.0,326.0,4919992.0,15092.0,335.0,6,12,19,"['A', 'B', 'C', 'D']",4554959.166666667,13786.083333333334,330.5,20,80,1981/10,42,blank,,False,,,POINT Z (22.2436381 114.153457 0),22.243638100000002,114.153457
70,"SIU KWAN MANSION,OLD MAIN ST ABERDEEN|兆群大廈,香港仔舊大街",HA,3978720.0,12960.0,307.0,4203888.0,13474.0,307.0,6174354.203570689,16494.0,440.0,5,12,20,"['A', 'B', 'C', 'D']",5070788.863470459,14736.0,375.1666666666667,24,96,1993/10,30,blank,,False,,,POINT Z (22.2488831 114.1561509 0),22.2488831,114.15615090000001
71,"KONG SHING COURT(Block F,ABERDEEN CTR),NAM NING ST|香港仔中心,F座(港盛閣),南寧街",HA,4504050.0,10009.0,450.0,4723200.0,10496.0,450.0,5858400.0,12657.0,480.0,6,15,24,"['1', '2', '3', '4', '5', '6']",5305758.0,11440.666666666666,463.6666666666667,27,162,1982/01,41,ABERDEEN CTR,香港仔中心,True,20.0,2778.0,POINT Z (22.2493679 114.1540376 0),22.249367899999996,114.1540376
72,"SHUN KING COURT,MAIN ST AP LEI CHAU|順景閣,鴨利洲大街",HA,3711840.0,13323.0,264.0,3849120.0,14254.0,264.0,4106480.0,15049.0,280.0,7,15,22,"['A', 'B', 'C']",3923966.222222222,14291.555555555555,274.6666666666667,21,63,1995/12,28,blank,,False,,,POINT Z (22.2442864 114.1566851 0),22.244286399999996,114.1566851
73,"AP LEI CHAU CTR(Block B),LEE CHI RD|鴨利洲中心B座,利枝道",HA,4147840.0,12613.0,320.0,4280640.0,12980.0,320.0,6197824.0,13975.0,452.0,7,16,25,"['1', '2', '3', '4', '5', '6', '7', '8']",4882988.708333333,13317.916666666666,366.7916666666667,27,216,1983/12,40,AP LEI CHAU CTR,鴨利洲中心,True,2.0,400.0,POINT Z (22.243399 114.1532905 0),22.243399,114.1532905
74,"KONG FU COURT(Block E,ABERDEEN CTR),NAM NING ST|香港仔中心,E座(港富閣),南寧街",HA,4702050.0,10449.0,450.0,4884750.0,10744.0,450.0,6774803.0,12251.0,553.0,6,15,24,"['1', '2', '3', '4', '5', '6']",5532053.055555555,11319.333333333334,488.0,27,162,1982/01,41,ABERDEEN CTR,香港仔中心,True,20.0,2778.0,POINT Z (22.249187 114.154169 0),22.249187,114.154169
75,"HOI FAI MANSION,ABERDEEN MAIN RD|海暉大廈,香港仔大道",HA,5874355.133812702,13165.0,477.0,6083181.431011665,13633.0,477.0,6362819.632629959,15679.0,477.0,5,13,21,"['A', 'B']",6115444.994953605,14390.833333333334,477.0,25,50,1992/09,31,blank,,False,,,POINT Z (22.2473433 114.1575559 0),22.2473433,114.1575559
76,"PORT CTR,CHENGTU RD|利港中心,成都道",HA,5232852.0,12732.0,411.0,5415336.0,12603.0,411.0,6331104.000000001,13884.0,456.0,9,16,22,"['A', 'B', 'C', 'D', 'E', 'F', 'G', 'H']",5775098.125,13321.041666666666,433.5,22,176,1989/07,34,blank,,False,,,POINT Z (22.2490583 114.1550362 0),22.2490583,114.1550362
77,"NGAN FUNG BLDG,ABERDEEN MAIN RD|銀輝大廈,香港仔大道",HA,4793100.0,12290.0,390.0,4824690.0,12371.0,390.0,5050890.0,12951.0,390.0,5,12,20,"['A', 'B']",4892420.0,12544.666666666666,390.0,24,48,1988/07,35,blank,,False,,,POINT Z (22.2472004 114.1567315 0),22.247200399999997,114.15673149999999
78,"ON FAI BLDG,OLD MAIN ST ABERDEEN|安輝大廈,香港仔舊大街",HA,3620233.8671554844,11197.0,301.0,3586415.0,11363.0,301.0,5555936.0,14655.0,467.0,7,12,16,"['A', 'B', 'C', 'D', 'E', 'F']",4881090.508334869,12939.777777777776,419.1666666666667,16,96,1977/04,46,blank,,False,,,POINT Z (22.2482727 114.1561509 0),22.248272699999998,114.15615090000001
79,"PELENE MANSION,YUE KO ST|碧麗大廈,漁歌街",HA,3231544.0,11594.0,268.0,3349196.0,12013.0,268.0,3741161.9999999995,13506.0,290.0,6,14,21,"['A', 'B', 'C', 'D', 'E', 'F']",3486089.222222222,12524.666666666666,278.5,24,144,1979/09,44,blank,,False,,,POINT Z (22.2490628 114.1483479 0),22.2490628,114.1483479
80,"LEE FAT MANSION,MAIN ST AP LEI CHAU|利發大廈,鴨利洲大街",HA,4638768.0,11523.0,401.0,4795559.0,11910.0,401.0,4947939.0,12339.0,403.0,5,12,18,"['A', 'B']",4795617.333333333,11939.666666666666,402.0,22,44,1982/06,41,blank,,False,,,POINT Z (22.2440186 114.1550594 0),22.2440186,114.1550594
81,"JING HUI GARDEN(Block 2),ABERDEEN MAIN RD|景惠花園2座,香港仔大道",HA,4386555.0,10322.0,405.0,4570425.0,11285.0,405.0,5906330.0,13046.0,485.0,5,12,20,"['E', 'F', 'G', 'H']",5161422.5,11621.833333333334,445.0,24,96,1989/02,34,JING HUI GARDEN,景惠花園,True,2.0,192.0,POINT Z (22.2481503 114.1595647 0),22.2481503,114.15956470000002
82,"MEI KWONG COURT(Block P,ABERDEEN CTR),NAM NING ST|香港仔中心,P座(美光閣),南寧街",HA,6452970.0,11144.0,570.0,6523080.0,11444.0,570.0,7369800.0,12693.0,600.0,7,15,23,"['1', '2', '3', '4', '5', '6']",6977453.333333333,11828.666666666666,590.0,25,150,1981/05,42,ABERDEEN CTR,香港仔中心,True,20.0,2778.0,POINT Z (22.248508 114.1532394 0),22.248507999999998,114.1532394
83,"GROSVENOR COURT(Block 28,Phase 4,SOUTH HORIZONS),28 YI NAM RD|海怡半島,4期,28座(御意居),28 怡南路",HA,6619326.0,12754.0,519.0,6876750.0,13173.0,519.0,11045503.0,14922.0,1485.0,6,16,25,"['A', 'B', 'C', 'D', 'E', 'EF', 'F', 'G', 'H']",8856740.416666666,13878.0,729.3333333333334,30,270,1995/03,28,SOUTH HORIZONS,海怡半島,True,34.0,9921.0,POINT Z (22.243154 114.150396 0),22.243154,114.150396
84,"KA WO BLDG(Block A),KA WO ST|嘉和大廈A座,嘉禾街",HA,3590850.77590347,11592.0,330.0,3764918.6008495335,11949.0,330.0,5555477.576490948,15223.0,445.0,6,13,20,"['1', '2', '3', '4', '5', '6', '7', '8']",4198512.517141753,13403.708333333334,347.7083333333333,22,176,1978/05,45,KA WO BLDG,嘉和大廈,True,2.0,360.0,POINT Z (22.249981 114.148647 0),22.249981,114.148647
85,"KONG KAI BLDG,ABERDEEN MAIN RD|港基大廈,香港仔大道",HA,4392415.0,12373.0,355.0,4505660.0,12692.0,355.0,4673220.0,13164.0,355.0,6,12,19,"['A', 'B']",4517670.833333333,12725.833333333334,355.0,22,44,1990/01,33,blank,,False,,,POINT Z (22.2496212 114.1554774 0),22.2496212,114.1554774
86,"EVER SECURE MANSION,KA WO ST|永穩大廈,嘉禾街",HA,,,330.0,,,330.0,,,330.0,6,11,16,"['A', 'B']",,,330.0,15,30,1986/01,37,blank,,False,,,POINT Z (22.2498077 114.148464 0),22.249807699999998,114.14846399999999
87,"YEE ON BLDG,MAIN ST AP LEI CHAU|怡安大廈,鴨利洲大街",HA,4232820.0,11139.0,380.0,4357460.0,11467.0,380.0,4460820.0,11739.0,380.0,7,12,18,"['A', 'B']",4349860.0,11447.0,380.0,18,36,1984/09,39,blank,,False,,,POINT Z (22.2433801 114.1535731 0),22.2433801,114.15357309999999
88,"KAM TSEUK MANSION,KA WO ST|金爵大廈,嘉禾街",HA,3552914.8799389293,15410.0,271.0,3583579.232893626,15543.0,271.0,3721453.5416673757,16141.0,271.0,5,7,9,"['A', 'B']",3632380.8973703994,15754.666666666666,271.0,7,14,1980/11,43,blank,,False,,,POINT Z (22.2494804 114.148882 0),22.249480399999996,114.148882
89,"KA FOOK COURT,KA WO ST|嘉福閣,嘉禾街",HA,6482592.0,9882.0,656.0,6039262.639041258,4277.0,656.0,6767296.0,11710.0,666.0,7,13,19,"['A', 'B', 'C']",6468862.942858011,9362.5,662.6666666666666,19,57,1981/07,42,blank,,False,,,POINT Z (22.2496907 114.1489952 0),22.249690700000002,114.1489952
90,"ON TAI BLDG,WU NAM ST|安泰大廈,湖南街",HA,4035625.0,14595.0,275.0,4125275.0,14922.0,275.0,4423370.0,15326.0,290.0,8,13,18,"['A', 'B', 'C']",4196245.555555555,14898.222222222224,281.6666666666667,17,51,1984/02,39,blank,,False,,,POINT Z (22.2478262 114.1555239 0),22.2478262,114.1555239
91,"MAY COURT,OLD MAIN ST ABERDEEN|美倫閣,香港仔舊大街",HA,3955596.8862757874,13635.0,312.0,4397952.0,14096.0,312.0,4560192.0,14616.0,312.0,7,15,22,"['A', 'B']",4336082.147712631,14268.333333333334,312.0,23,46,1996/11,27,blank,,False,,,POINT Z (22.2475454 114.1561441 0),22.2475454,114.15614409999999
92,"SILVER MANSION,SHEK PAI WAN RD|兆暉大廈,石排灣道",HA,4716757.0,11881.0,397.0,5042297.0,12701.0,397.0,5370615.999999999,13528.0,397.0,6,15,24,"['A', 'B']",5050303.166666667,12721.166666666666,397.0,27,54,1997/02,26,blank,,False,,,POINT Z (22.2493714 114.1487427 0),22.249371399999998,114.14874270000001
93,"TAI LOK HSE,SHEK PAI WAN RD|大樂樓,石排灣道",HA,2126793.292932047,4341.0,307.0,2122012.90791759,4314.0,307.0,2308075.769729484,6505.0,380.0,3,4,5,"['1', '2', '3', '4', '5']",2201352.8580387007,4641.36111111111,333.1333333333333,3,15,1971/03,52,blank,,False,,,POINT Z (22.2497206 114.1481853 0),22.2497206,114.1481853
94,"HUNG SHING BLDG,HUNG SHING ST|鴻勝大廈,洪聖街",HA,3287380.623614805,17250.0,224.0,3313870.241393498,17389.0,224.0,3557966.760410727,17872.0,234.0,4,6,9,"['A', 'B', 'C']",3387451.473169289,17512.666666666668,227.33333333333334,10,30,1986/04,37,blank,,False,,,POINT Z (22.2446502 114.1560348 0),22.2446502,114.1560348
95,"ABERDEEN HARBOUR MANSION,ABERDEEN MAIN RD|雙喜大廈,香港仔大道",HA,3918780.0,10371.0,369.0,4007340.0,10603.0,369.0,10355119.647136431,15446.0,788.0,7,12,18,"['A', 'AB', 'B', 'C', 'D', 'E', 'E & F', 'F', 'G', 'H', 'I', 'J', 'K']",5300333.972278599,11477.564102564103,466.8205128205129,17,221,1972/10,51,blank,,False,,,POINT Z (22.2475013 114.1577301 0),22.2475013,114.1577301
96,"TUNG NAM BLDG,MAIN ST AP LEI CHAU|東南大廈,鴨利洲大街",HA,4239955.310218467,9866.0,396.0,4295207.806911024,9994.0,396.0,4728360.0,13243.0,420.0,4,7,10,"['A', 'B', 'C', 'D']",4501029.772103443,11734.333333333334,404.75,9,36,1980/12,43,blank,,False,,,POINT Z (22.243859 114.1546879 0),22.243859,114.1546879
97,"YEE HING BLDG,MAIN ST AP LEI CHAU|怡慶大廈,鴨利洲大街",HA,3928000.0,12148.0,320.0,4020800.0,11932.0,320.0,4431602.0,13341.0,349.0,6,12,19,"['A', 'B', 'C', 'D']",4224567.5,12643.75,334.5,22,88,1985/05,38,blank,,False,,,POINT Z (22.2435543 114.1538518 0),22.2435543,114.1538518
98,"PAT LEUNG BLDG,LEE MAN RD|百良大廈,利民道",HA,4490944.0,11944.0,370.0,4735344.0,12594.0,370.0,5231800.0,14140.0,370.0,5,13,21,"['A', 'B', 'C', 'D']",4882024.5,13126.0,372.0,25,100,1986/08,37,blank,,False,,,POINT Z (22.2435479 114.1525049 0),22.2435479,114.15250490000001
99,"MANLY HSE,MAIN ST AP LEI CHAU|文麗大樓,鴨利洲大街",HA,2963838.708963518,5898.0,295.0,2841098.041613487,5974.0,295.0,3389744.542564286,6557.0,360.0,6,9,12,"['A', 'B', 'C', 'D', 'E']",3141174.3836274124,6165.533333333333,328.0,9,45,1980/01,43,blank,,False,,,POINT Z (22.243704 114.154861 0),22.243704,114.15486100000001
100,"MEI FAI COURT(Block Q,ABERDEEN CTR),NAM NING ST|香港仔中心,Q座(美輝閣),南寧街",HA,7028890.000000001,11618.0,605.0,7288435.0,12047.0,605.0,9162720.0,12726.0,720.0,7,15,22,"['1', '2', '3', '4']",8091795.0,12201.0,662.5,23,92,1981/05,42,ABERDEEN CTR,香港仔中心,True,20.0,2778.0,POINT Z (22.2482784 114.1532016 0),22.2482784,114.15320159999999
101,"MARINA HABITAT(Block 2),YUET HOI ST|悅海華庭2座,悅海街",HA,5391050.0,11907.0,422.0,5686786.0,12689.0,422.0,8491780.0,14683.0,605.0,10,24,37,"['A', 'B', 'C', 'D', 'E', 'F', 'G', 'H']",6571956.541666667,13328.458333333334,495.25,42,336,1998/05,25,MARINA HABITAT,悅海華庭,True,3.0,992.0,POINT Z (22.244175 114.154286 0),22.244175,114.15428600000001
102,"MARINA HABITAT(Block 3),YUET HOI ST|悅海華庭3座,悅海街",HA,5270358.0,12489.0,422.0,5472918.0,12893.0,422.0,8191700.0,15151.0,605.0,10,23,36,"['A', 'B', 'C', 'D', 'E', 'F', 'G', 'H']",6679485.0,13527.916666666666,495.25,41,328,9999,-7976,MARINA HABITAT,悅海華庭,True,3.0,992.0,POINT Z (22.2442833 114.1546303 0),22.244283300000003,114.15463030000001
103,"MARINA HABITAT(Block 1),YUET HOI ST|悅海華庭1座,悅海街",HA,5623150.0,12403.0,422.0,5811897.0,13035.0,422.0,8644240.0,14786.0,605.0,10,23,36,"['A', 'B', 'C', 'D', 'E', 'F', 'G', 'H']",6775547.416666667,13714.375,495.25,41,328,1998/05,25,MARINA HABITAT,悅海華庭,True,3.0,992.0,POINT Z (22.2440158 114.1538286 0),22.2440158,114.15382859999998
104,74-76 OLD MAIN ST ABERDEEN|74-76 香港仔舊大街,HA,3934851.6768745906,16518.0,280.0,3950812.1480182274,16585.0,280.0,5071683.877277587,20771.0,287.0,2,3,4,"['A', 'B', 'C', 'D']",4320516.9084982965,17909.0,283.5,5,20,1971/07,52,blank,,False,,,POINT Z (22.2481686 114.1560401 0),22.248168600000003,114.15604009999998
105,"TSUNG MAN COURT,TSUNG MAN ST|崇文閣,崇文街",HA,2784912.427067329,7428.0,328.0,2796499.0980160725,7481.0,328.0,2817311.348036514,7525.0,330.0,3,4,5,"['A', 'B', 'C']",2809345.575066093,7491.0,329.1111111111111,5,15,1976/01,47,blank,,False,,,POINT Z (22.249956 114.1547343 0),22.249956,114.15473429999999
106,"ROUSSEAU HEIGHTS,MAIN ST AP LEI CHAU|亨利閣,鴨利洲大街",HA,3688167.11131051,13278.0,322.0,3736382.027123527,13451.0,322.0,3923842.6951795653,13754.0,340.0,5,8,10,"['A', 'B']",3807994.857509695,13525.0,331.0,8,16,1973/09,50,blank,,False,,,POINT Z (22.2444894 114.1573353 0),22.244489399999996,114.15733529999999
107,"KAM FAT BLDG,LEE CHI RD|金發大廈,利枝道",HA,5310202.0,12707.0,386.0,5508220.0,13403.0,386.0,6456426.0,15076.0,458.0,6,14,23,"['A', 'B', 'C', 'D', 'E', 'F']",5818753.722222221,14074.0,414.3333333333333,28,168,1986/08,37,blank,,False,,,POINT Z (22.2436059 114.1526907 0),22.2436059,114.15269070000001
108,"HOI CHUN COURT(Block A,Phase 4,ABERDEEN CTR),4 NAM NING ST|香港仔中心,4期,A座(海珍閣),4 南寧街",HA,5299360.0,12010.0,440.0,5481080.0,12376.0,440.0,7400310.0,13546.0,570.0,6,14,23,"['1', '2', '3', '4', '5', '6']",6106215.555555556,12641.777777777776,483.3333333333333,26,156,1979/12,44,ABERDEEN CTR,香港仔中心,True,20.0,2778.0,POINT Z (22.2482557 114.1544556 0),22.2482557,114.15445559999999
109,"KWUN HOI COURT(Block S,Phase 3,ABERDEEN CTR),5 NAM NING ST|香港仔中心,3期,S座(觀海閣),5 南寧街",HA,9252220.0,12503.0,715.0,9662180.0,13057.0,715.0,11004000.0,14805.0,750.0,7,16,24,"['1', '2', '3']",10072651.666666666,13855.888888888889,727.2222222222223,25,75,1981/06,42,ABERDEEN CTR,香港仔中心,True,20.0,2778.0,POINT Z (22.2479071 114.1541769 0),22.247907100000003,114.15417690000001
110,"HOI LUNG COURT(Block N,Phase 5,ABERDEEN CTR),6 NAM NING ST|香港仔中心,5期,N座(海龍閣),6 南寧街",HA,4815502.150765935,11443.0,440.0,4939034.155566367,11853.0,440.0,7139250.0,15791.0,570.0,6,14,23,"['1', '2', '3', '4', '5', '6']",5963462.702336262,14195.111111111111,483.3333333333333,26,156,1979/12,44,ABERDEEN CTR,香港仔中心,True,20.0,2778.0,POINT Z (22.2483157 114.1537136 0),22.2483157,114.15371359999999
111,"YEE TIAM BLDG,KA WO ST|益添大廈,嘉禾街",HA,3575707.0452874387,13780.0,305.0,3702595.3431935026,13571.0,305.0,4187258.530760212,14358.0,355.0,8,13,18,"['A', 'B', 'C']",3810953.840379501,13937.0,338.3333333333333,16,48,1979/04,44,blank,,False,,,POINT Z (22.2495822 114.1487891 0),22.2495822,114.14878909999999
112,"HOI WU COURT(Block D,Phase 4,ABERDEEN CTR),14 NAM NING ST|香港仔中心,4期,D座(海湖閣),14 南寧街",HA,5376800.0,12059.0,440.0,5053840.0,11486.0,440.0,7611780.0,13519.0,570.0,6,14,23,"['1', '2', '3', '4', '5', '6']",6122742.555555556,12589.511111111113,483.3333333333333,26,156,1979/12,44,ABERDEEN CTR,香港仔中心,True,20.0,2778.0,POINT Z (22.2485926 114.1545448 0),22.248592600000002,114.15454479999998
113,"HOI TSING COURT(Block K,Phase 5,ABERDEEN CTR),12 NAM NING ST|香港仔中心,5期,K座(海晶閣),12 南寧街",HA,4950000.0,11250.0,440.0,5113240.0,11621.0,440.0,7656810.0,13433.0,570.0,6,14,23,"['1', '2', '3', '4', '5', '6']",5929536.666666667,12241.055555555555,483.3333333333333,26,156,1979/12,44,ABERDEEN CTR,香港仔中心,True,20.0,2778.0,POINT Z (22.2483157 114.1537136 0),22.2483157,114.15371359999999
114,"HOI TIN COURT(Block M,Phase 5,ABERDEEN CTR),8 NAM NING ST|香港仔中心,5期,M座(海天閣),8 南寧街",HA,5209160.0,11839.0,440.0,5352160.0,12043.0,440.0,7535969.999999999,13221.0,570.0,6,14,23,"['1', '2', '3', '4', '5', '6']",6041290.0,12490.444444444445,483.3333333333333,26,156,1979/12,44,ABERDEEN CTR,香港仔中心,True,20.0,2778.0,POINT Z (22.2483157 114.1537136 0),22.2483157,114.15371359999999
115,"HOI SHAN COURT(Block C,Phase 4,ABERDEEN CTR),16 NAM NING ST|香港仔中心,4期,C座(海珊閣),16 南寧街",HA,5019960.0,11354.0,440.0,5236880.0,11559.0,440.0,7065720.0,12605.0,570.0,6,14,23,"['1', '2', '3', '4', '5', '6']",5729204.888888888,12013.144444444444,483.3333333333333,26,156,1979/12,44,ABERDEEN CTR,香港仔中心,True,20.0,2778.0,POINT Z (22.2485899 114.1545485 0),22.2485899,114.1545485
116,"KWUN KING COURT(Block U,Phase 3,ABERDEEN CTR),1 NAM NING ST|香港仔中心,3期,U座(觀景閣),1 南寧街",HA,9365440.0,12656.0,740.0,9813880.0,13210.0,740.0,11367000.0,15156.0,750.0,7,16,24,"['1', '2', '3']",10203398.88888889,13663.333333333334,746.6666666666666,25,75,1981/06,42,ABERDEEN CTR,香港仔中心,True,20.0,2778.0,POINT Z (22.247878 114.154547 0),22.247878,114.154547
117,"HOI CHU COURT(Block B,Phase 4,ABERDEEN CTR),2 NAM NING ST|香港仔中心,4期,B座(海珠閣),2 南寧街",HA,4968040.0,11013.0,440.0,5151960.0,11383.0,440.0,6736830.0,12862.0,570.0,6,14,23,"['1', '2', '3', '4', '5', '6']",5554354.0,11949.6,483.3333333333333,26,156,1979/12,44,ABERDEEN CTR,香港仔中心,True,20.0,2778.0,POINT Z (22.248411 114.154576 0),22.248410999999997,114.154576
118,"SHUN LEE BLDG,MAIN ST AP LEI CHAU|順利大廈,鴨利洲大街",HA,5465148.0,17186.0,318.0,5179584.0,16288.0,318.0,7184622.0,19902.0,378.0,3,4,6,"['1', '2', '3', '4', '5']",6459400.2,18095.600000000002,356.2,6,30,1981/03,42,blank,,False,,,POINT Z (22.2437066 114.1542698 0),22.243706600000003,114.15426979999998
119,"HOI YING COURT(Block L,Phase 5,ABERDEEN CTR),10 NAM NING ST|香港仔中心,5期,L座(海瑩閣),10 南寧街",HA,4772680.0,10847.0,440.0,4941640.0,11231.0,440.0,7513170.0,13181.0,570.0,6,14,23,"['1', '2', '3', '4', '5', '6']",5846520.555555556,12058.111111111111,483.3333333333333,26,156,1979/12,44,ABERDEEN CTR,香港仔中心,True,20.0,2778.0,POINT Z (22.2485544 114.1537173 0),22.2485544,114.1537173
120,"NGAN ON HSE(Block A,YUE ON COURT),YUE ON COURT RD|漁安苑,A座(銀安閣),漁安苑道",HA,4894015.0,10435.0,469.0,5115383.0,10907.0,469.0,5826240.0,11560.0,504.0,7,18,29,"['1', '2', '3', '4', '5', '6', '7', '8']",5315845.916666667,10988.083333333334,483.75,35,280,1988/08,35,YUE ON COURT,漁安苑,True,7.0,1904.0,POINT Z (22.2430112 114.1563367 0),22.243011199999998,114.15633670000001
121,"PIK ON HSE(Block C,YUE ON COURT),YUE ON COURT RD|漁安苑,C座(碧安閣),漁安苑道",HA,4960143.999999999,10124.0,469.0,5188547.0,10904.0,469.0,5910807.0,12603.0,504.0,8,18,29,"['1', '2', '3', '4', '5', '6', '7', '8']",5390437.833333333,11147.833333333334,483.75,34,272,1988/08,35,YUE ON COURT,漁安苑,True,7.0,1904.0,POINT Z (22.2427365 114.1569436 0),22.2427365,114.1569436
122,"TSE ON HSE(Block D,YUE ON COURT),YUE ON COURT RD|漁安苑,D座(紫安閣),漁安苑道",HA,4663267.0,9943.0,469.0,4700262.0,9534.0,469.0,5680584.0,11271.0,504.0,7,18,28,"['1', '2', '3', '4', '5', '6', '7', '8']",5125305.875,10595.25,483.75,34,272,1988//1,35,YUE ON COURT,漁安苑,True,7.0,1904.0,POINT Z (22.2427365 114.1569436 0),22.2427365,114.1569436
123,"HAR ON HSE(Block E,YUE ON COURT),YUE ON COURT RD|漁安苑,E座(霞安閣),漁安苑道",HA,4944198.0,10439.0,469.0,5171663.0,10929.0,469.0,5797187.0,11858.0,504.0,8,18,29,"['1', '2', '3', '4', '5', '6', '7', '8']",5384267.041666667,11133.083333333334,483.75,34,272,1988/10,35,YUE ON COURT,漁安苑,True,7.0,1904.0,POINT Z (22.2427365 114.1569436 0),22.2427365,114.1569436
124,"CHOI ON HSE(Block B,YUE ON COURT),YUE ON COURT RD|漁安苑,B座(彩安閣),漁安苑道",HA,4865112.0,9653.0,469.0,5175514.0,10480.0,469.0,6058970.0,12625.0,504.0,7,18,29,"['1', '2', '3', '4', '5', '6', '7', '8']",5482741.291666667,11350.541666666666,483.75,35,280,1988/00,35,YUE ON COURT,漁安苑,True,7.0,1904.0,POINT Z (22.243183 114.156574 0),22.243183,114.15657399999999
125,"SHAN ON HSE(Block F,YUE ON COURT),YUE ON COURT RD|漁安苑,F座(珊安閣),漁安苑道",HA,5072477.0,10102.0,469.0,5431381.0,11017.0,469.0,6213312.0,12653.0,504.0,7,18,29,"['1', '2', '3', '4', '5', '6', '7', '8']",5558278.333333333,11497.666666666666,483.75,35,280,1988/10,35,YUE ON COURT,漁安苑,True,7.0,1904.0,POINT Z (22.2429922 114.1573339 0),22.2429922,114.15733390000001
126,"WU ON HSE(Block G,YUE ON COURT),YUE ON COURT RD|漁安苑,G座(瑚安閣),漁安苑道",HA,4758005.0,10145.0,469.0,4897767.0,10443.0,469.0,6353424.0,12606.0,504.0,7,19,30,"['1', '2', '3', '4', '5', '6', '7', '8']",5507062.916666667,11381.833333333334,483.75,33,264,1988//0,35,YUE ON COURT,漁安苑,True,7.0,1904.0,POINT Z (22.2429797 114.1563056 0),22.2429797,114.15630559999998
127,122 MAIN ST AP LEI CHAU|122 鴨利洲大街,HA,,,529.0,,,512.0,,,490.0,3,4,5,['whole floor'],,,510.3333333333333,3,3,1967/04,56,blank,,False,,,POINT Z (22.2439202 114.1552265 0),22.243920199999998,114.15522649999998
128,"BAYSHORE APT,ABERDEEN MAIN RD|海峰華軒,香港仔大道",HA,5643820.0,11518.0,490.0,5801600.0,11840.0,490.0,7611814.0,13333.0,575.0,7,20,34,"['50 UNIT', 'A', 'B', 'C', 'D']",6441202.533333334,12293.199999999999,523.8,38,190,2000/10,23,blank,,False,,,POINT Z (22.2484356 114.1517849 0),22.248435600000004,114.15178490000001
129,"KWUN CHIU COURT(Block T,Phase 3,ABERDEEN CTR),3 NAM NING ST|香港仔中心,3期,T座(觀潮閣),3 南寧街",HA,9172846.896400131,14557.0,740.0,9489521.020551762,15060.0,740.0,10001242.991952341,15674.0,750.0,8,16,24,"['1', '2', '3']",9592525.802485332,15100.444444444445,746.6666666666666,22,66,1981/06,42,ABERDEEN CTR,香港仔中心,True,20.0,2778.0,POINT Z (22.2477907 114.1543627 0),22.2477907,114.15436270000001
130,"WATERFRONT SOUTH(Block 2),YUE WOK ST|港麗豪園2座,漁獲街",HA,5754070.0,11506.0,490.0,5991230.0,11636.0,490.0,7916545.0,12905.0,635.0,10,20,30,"['A', 'B', 'C', 'D']",6817585.0,12152.083333333334,562.5,29,116,1999/06,24,WATERFRONT SOUTH,港麗豪園,True,2.0,236.0,POINT Z (22.2490595 114.1479531 0),22.2490595,114.1479531
131,"WATERFRONT SOUTH(Block 1),YUE WOK ST|港麗豪園1座,漁獲街",HA,5555315.929928193,12345.0,490.0,5747496.677616688,13787.0,490.0,9082380.0,15040.0,620.0,10,20,31,"['A', 'B', 'C', 'D']",7173192.898522477,13871.333333333334,554.25,30,120,1999/06,24,WATERFRONT SOUTH,港麗豪園,True,2.0,236.0,POINT Z (22.2492631 114.1477673 0),22.249263100000004,114.1477673
132,"SOUTH WAVE COURT(Block 3),SHUM WAN RD|南濤閣3座,深灣道",HA,3504500.0,7896.0,430.0,3678220.0,8340.0,430.0,5141381.0,9053.0,590.0,7,18,29,"['A', 'B', 'C', 'D', 'E', 'F', 'G', 'H', 'J', 'K']",4233004.944444444,8467.88888888889,536.2,30,300,1995/10,28,SOUTH WAVE COURT,南濤閣,True,3.0,980.0,POINT Z (22.2448246 114.1660206 0),22.2448246,114.1660206
133,"SOUTH WAVE COURT(Block 1),SHUM WAN RD|南濤閣1座,深灣道",HA,3725520.0,8493.0,430.0,3929770.0000000005,8954.0,430.0,5597267.0,9693.0,590.0,7,18,28,"['A', 'B', 'C', 'D', 'E', 'F', 'G', 'H', 'J', 'K']",4369386.933333334,9050.6,536.2,34,340,1995/10,28,SOUTH WAVE COURT,南濤閣,True,3.0,980.0,POINT Z (22.2444541 114.1658813 0),22.244454100000002,114.16588130000001
134,"SOUTH WAVE COURT(Block 2),SHUM WAN RD|南濤閣2座,深灣道",HA,3232310.0,7449.0,430.0,3383240.0,7781.0,430.0,4868680.0,8252.0,590.0,8,18,29,"['A', 'B', 'C', 'D', 'E', 'F', 'G', 'H', 'J', 'K']",4335093.877248677,7875.63597883598,536.2,34,340,1995/10,28,SOUTH WAVE COURT,南濤閣,True,3.0,980.0,POINT Z (22.2449078 114.1664619 0),22.2449078,114.1664619
135,"TOHO COURT,PING LAN ST|東寶閣,平瀾街",HA,4373490.0,13377.0,319.0,4472061.0,13444.0,319.0,4783212.0,14330.0,342.0,7,14,20,"['A', 'B']",4562135.833333333,13811.0,330.5,20,40,1989/04,34,blank,,False,,,POINT Z (22.2447094 114.1571147 0),22.244709399999998,114.15711470000001
136,"FUNG KING COURT(Block 29,Phase 4,SOUTH HORIZONS),29 YI NAM RD|海怡半島,4期,29座(豐景閣),29 怡南路",HA,6830736.0,12559.0,528.0,7040880.0,13007.0,528.0,9519913.0,15147.0,689.0,8,16,25,"['A', 'B', 'C', 'D', 'E', 'F', 'G', 'H']",8111124.791666667,13435.583333333334,604.5,26,208,1994/12,29,SOUTH HORIZONS,海怡半島,True,34.0,9921.0,POINT Z (22.243803 114.150128 0),22.243803,114.15012800000001
137,"YUK FAI HSE(Block A,Phase 1,YUE FAI COURT),45 YUE KWONG RD|漁暉苑,1期,A座(旭暉閣),45 漁光道",HA,4197120.0,10344.0,384.0,4371840.0,10983.0,384.0,4850344.0,11935.0,419.0,5,14,23,"['1', '2', '3', '4', '5', '6', '7', '8']",4522739.541666667,11271.291666666666,401.5,29,232,1980/04,43,YUE FAI COURT,漁暉苑,True,6.0,1320.0,POINT Z (22.248283 114.156683 0),22.248282999999997,114.156683
138,"KING FAI HSE(Block E,Phase 1,YUE FAI COURT),45 YUE KWONG RD|漁暉苑,1期,E座(景暉閣),45 漁光道",HA,4238976.0,10996.0,384.0,4391040.0,11419.0,384.0,5133588.0,12252.0,419.0,5,14,23,"['1', '2', '3', '4', '5', '6', '7', '8']",4651728.0,11587.416666666666,401.5,27,216,1980/08,43,YUE FAI COURT,漁暉苑,True,6.0,1320.0,POINT Z (22.2499061 114.156947 0),22.2499061,114.156947
139,"YAT FAI HSE(Block B,Phase 1,YUE FAI COURT),45 YUE KWONG RD|漁暉苑,1期,B座(日暉閣),45 漁光道",HA,4332672.0,10788.0,384.0,4531584.0,11035.0,384.0,5270601.0,12939.0,419.0,6,14,23,"['1', '2', '3', '4', '5', '6', '7', '8']",4760500.541666667,11867.583333333334,401.5,28,224,1980/04,43,YUE FAI COURT,漁暉苑,True,6.0,1320.0,POINT Z (22.2486357 114.1566154 0),22.248635699999998,114.1566154
140,"TIN FAI HSE(Block F,Phase 2,YUE FAI COURT),45 YUE KWONG RD|漁暉苑,2期,F座(天暉閣),45 漁光道",HA,4128768.0,10243.0,384.0,4231296.0,10658.0,384.0,5058587.0,12073.0,419.0,5,14,22,"['1', '2', '3', '4', '5', '6', '7', '8']",4458077.208333333,11112.166666666666,401.5,28,224,1981/03,42,YUE FAI COURT,漁暉苑,True,6.0,1320.0,POINT Z (22.2505287 114.1566386 0),22.250528699999997,114.1566386
141,"BROADVIEW COURT(Block 4),SHUM WAN RD|雅濤閣4座,深灣道",HA,4330142.0,9142.0,422.0,4314950.0,10225.0,422.0,6902880.0,11680.0,591.0,7,20,33,"['A', 'B', 'C', 'D', 'E', 'F', 'G', 'H', 'J', 'K']",5643413.666666667,10692.133333333333,527.2,37,370,2001/07,22,BROADVIEW COURT,雅濤閣,True,4.0,1510.0,POINT Z (22.2423903 114.1659742 0),22.2423903,114.16597420000001
142,"ON FAI HSE(Block D,Phase 1,YUE FAI COURT),45 YUE KWONG RD|漁暉苑,1期,D座(安暉閣),45 漁光道",HA,4183680.0,10705.0,384.0,4353792.0,11163.0,384.0,5007050.0,12164.0,419.0,6,14,23,"['1', '2', '3', '4', '5', '6', '7', '8']",4575726.958333333,11402.208333333334,401.5,26,208,1980/08,43,YUE FAI COURT,漁暉苑,True,6.0,1320.0,POINT Z (22.2499061 114.156947 0),22.2499061,114.156947
143,"KINGSTON MANSION,HUNG SHING ST|金利豐大廈,洪聖街",HA,6280298.0,11398.0,551.0,6512269.0,11819.0,551.0,6830196.0,12396.0,551.0,8,16,22,"['A', 'B']",6566267.0,11917.0,551.0,20,40,9999,-7976,blank,,False,,,POINT Z (22.2439014 114.1563599 0),22.2439014,114.15635990000001
144,"TIN WAN COURT,TIN WAN ST|田灣畔,田灣街",HA,4934718.0,10659.0,423.0,5099687.999999999,11646.0,423.0,6954717.0,12397.0,561.0,7,16,23,"['A', 'B', 'C', 'D']",5857415.0,11931.166666666666,492.0,24,96,9999,-7976,blank,,False,,,POINT Z (22.2499634 114.1492768 0),22.2499634,114.1492768
145,"SHAM WAN TOWERS(Block 2),AP LEI CHAU DR|深灣軒2座,鴨利洲徑",HA,7230432.0,14696.0,476.0,7394730.0,15310.0,476.0,19326580.0,19721.0,980.0,13,29,45,"['A', 'AB', 'B', 'C', 'D', 'E', 'F', 'G', 'H']",9702976.814814815,16949.296296296296,564.7777777777778,43,387,2004/04,19,SHAM WAN TOWERS,深灣軒,True,3.0,1127.0,POINT Z (22.2438379 114.1588448 0),22.2438379,114.15884479999998
146,"SHAM WAN TOWERS(Block 1),AP LEI CHAU DR|深灣軒1座,鴨利洲徑",HA,6967310.0,14187.0,483.0,7249550.0,14795.0,483.0,10415784.0,17902.0,591.0,13,29,45,"['A', 'B', 'C', 'D', 'E', 'F', 'G', 'H']",8090339.875,16147.208333333334,501.125,43,344,2004/04,19,SHAM WAN TOWERS,深灣軒,True,3.0,1127.0,POINT Z (22.243799 114.1588541 0),22.243799,114.1588541
147,"SHAM WAN TOWERS(Block 3),AP LEI CHAU DR|深灣軒3座,鴨利洲徑",HA,7297972.0,14116.0,502.0,7967688.0,15177.0,502.0,21446418.0,20842.0,1029.0,14,30,46,"['A', 'AB', 'B', 'C', 'D', 'E', 'F', 'G', 'H']",10552823.074074075,17063.48148148148,606.3333333333334,44,396,2004/03,19,SHAM WAN TOWERS,深灣軒,True,3.0,1127.0,POINT Z (22.243799 114.1588541 0),22.243799,114.1588541
148,"BROADVIEW COURT(Block 1),SHUM WAN RD|雅濤閣1座,深灣道",HA,4388378.0,9393.0,422.0,4634826.0,9839.0,422.0,7439508.0,12905.0,591.0,7,20,32,"['A', 'B', 'C', 'D', 'E', 'F', 'G', 'H', 'J', 'K']",5722653.633333333,10855.966666666667,527.2,38,380,2001/07,22,BROADVIEW COURT,雅濤閣,True,4.0,1510.0,POINT Z (22.2431797 114.164697 0),22.2431797,114.164697
149,"MEI FAI HSE(Block C,Phase 1,YUE FAI COURT),45 YUE KWONG RD|漁暉苑,1期,C座(美暉閣),45 漁光道",HA,4215936.0,10311.0,384.0,4358400.0,10689.0,384.0,4842383.0,11759.0,419.0,5,14,23,"['1', '2', '3', '4', '5', '6', '7', '8']",4451736.416666667,11099.0,401.5,27,216,1980/08,43,YUE FAI COURT,漁暉苑,True,6.0,1320.0,POINT Z (22.2499061 114.156947 0),22.2499061,114.156947
150,"BROADVIEW COURT(Block 3),SHUM WAN RD|雅濤閣3座,深灣道",HA,4442394.0,9149.0,422.0,4634826.0,9787.0,422.0,6547392.0,11690.0,591.0,7,20,33,"['A', 'B', 'C', 'D', 'E', 'F', 'G', 'H', 'J', 'K']",5481842.866666667,10446.333333333334,527.2,39,390,2001/07,22,BROADVIEW COURT,雅濤閣,True,4.0,1510.0,POINT Z (22.2427721 114.1656259 0),22.242772100000003,114.16562590000001
151,"OCEAN COURT(Block 3),ABERDEEN PRAYA RD|逸港居3座,香港仔海傍道",HA,4069808.690576297,10371.0,431.0,4259750.207984939,10838.0,431.0,6260955.924181195,12431.0,592.0,8,18,27,"['A', 'B', 'C', 'D', 'E', 'F']",5397560.7954782965,11577.72222222222,547.1666666666666,28,168,1999/12,24,OCEAN COURT,逸港居,True,3.0,418.0,POINT Z (22.2474854 114.159495 0),22.2474854,114.15949499999999
152,"OCEAN COURT(Block 1),ABERDEEN PRAYA RD|逸港居1座,香港仔海傍道",HA,4360746.0,8722.0,481.0,4564209.0,9029.0,481.0,5934208.0,10024.0,592.0,8,18,27,"['A', 'B', 'C', 'D', 'E']",4945121.333333333,9466.4,523.0666666666667,26,130,1999/12,24,OCEAN COURT,逸港居,True,3.0,418.0,POINT Z (22.2472388 114.1588448 0),22.2472388,114.15884479999998
153,"BROADVIEW COURT(Block 2),SHUM WAN RD|雅濤閣2座,深灣道",HA,4174846.0,8896.0,422.0,4381204.0,9415.0,422.0,6456960.0,11210.0,591.0,7,20,32,"['A', 'B', 'C', 'D', 'E', 'F', 'G', 'H', 'J', 'K']",5293981.666666667,10078.199999999999,527.2,37,370,2001/07,22,BROADVIEW COURT,雅濤閣,True,4.0,1510.0,POINT Z (22.2429469 114.1650685 0),22.2429469,114.1650685
154,8 PING LAN ST|8 平瀾街,HA,5199388.915711256,19463.0,314.0,5199388.915711256,19463.0,314.0,5489238.218159323,20548.0,314.0,2,3,4,['whole floor'],5296005.349860611,19824.666666666668,314.0,5,5,1964/10,59,blank,,False,,,POINT Z (22.2447677 114.1568694 0),22.2447677,114.15686940000002
155,"HUNG FUK COURT(Block B),TIN WAN NEW ST|鴻褔苑B座,田灣新街",HA,2729700.0,6740.0,405.0,2870640.0,7088.0,405.0,5132910.0,7958.0,645.0,8,19,29,"['1', '10', '2', '3', '4', '5', '6', '8', '9']",3757209.592592593,7335.592592592592,509.6666666666667,31,279,1997/11,26,HUNG FUK COURT,鴻褔苑,True,2.0,549.0,POINT Z (22.251137 114.150695 0),22.251137,114.150695
156,"MAN KING BLDG,HING WO ST|萬景樓,興和街",HA,4650078.16307037,10400.0,520.0,4749176.013753251,10471.0,520.0,5281520.683475886,10954.0,584.0,8,13,18,"['A', 'B', 'C']",4853973.250825704,10409.72222222222,537.2222222222222,17,51,1974/06,49,blank,,False,,,POINT Z (22.2498335 114.1478834 0),22.249833499999998,114.1478834
157,"JADEWATER,ABERDEEN MAIN RD|南灣御園,香港仔大道",HA,6764448.0,12150.0,496.0,6823968.0,11972.0,496.0,10111555.0,14630.0,695.0,12,26,38,"['A', 'B', 'C', 'D', 'E']",7901119.066666666,13434.266666666668,591.0,36,180,2008/04,15,blank,,False,,,POINT Z (22.2484894 114.1523025 0),22.248489399999997,114.15230249999999
158,"SUN MING BLDG,SHAN MING ST|新明大樓,山明街",HA,5190836.0,13880.0,356.0,5229640.0,14176.0,356.0,8440320.0,15072.0,560.0,2,4,6,"['A', 'B', 'C', 'D', 'E', 'F']",6519325.472763467,15028.611111111111,445.8333333333333,7,42,1966/03,57,blank,,False,,,POINT Z (22.2443331 114.1573585 0),22.244333100000002,114.1573585
159,"HUNG LAI HSE(Block A,HUNG FUK COURT),TIN WAN NEW ST|鴻褔苑,A座(鴻麗閣),田灣新街",HA,3022501.4612555313,7802.0,405.0,3070740.1986672706,8004.0,405.0,4696159.0,9622.0,645.0,10,20,29,"['1', '10', '2', '3', '4', '5', '6', '7', '8', '9']",3483330.657536358,8883.422222222222,514.6,27,270,1997/11,26,HUNG FUK COURT,鴻褔苑,True,2.0,549.0,POINT Z (22.251137 114.150695 0),22.251137,114.150695
160,"TAI TAK HSE,KA WO ST|大德樓,嘉禾街",HA,2425474.280265542,8364.0,288.0,2435623.921562684,8399.0,288.0,2447223.5116165606,8439.0,337.0,2,3,4,"['2', '3', '4', '5', '6']",2436107.237814929,8400.666666666666,312.8,5,25,1971/03,52,blank,,False,,,POINT Z (22.2498659 114.1483711 0),22.2498659,114.14837109999999
161,81 MAIN ST AP LEI CHAU|81 鴨利洲大街,HA,,,495.0,,,495.0,,,495.0,3,4,5,['whole floor'],,,495.0,2,2,1965/11,58,blank,,False,,,POINT Z (22.2439202 114.1552265 0),22.243920199999998,114.15522649999998
162,"LARVOTTO(Block 3),AP LEI CHAU PRAYA RD|南灣3座,鴨利洲海旁道",HA,13573988.0,17767.0,764.0,14200468.0,18587.0,764.0,34082608.0,24101.0,1582.0,11,22,31,"['A', 'B', 'C']",26861019.89327449,21097.333333333332,1301.6666666666667,26,78,2010/12,13,LARVOTTO,南灣,True,9.0,755.0,POINT Z (22.2401736 114.1596309 0),22.240173600000002,114.15963090000001
163,"LARVOTTO(Block 1),AP LEI CHAU PRAYA RD|南灣1座,鴨利洲海旁道",HA,41302500.0,22028.0,1875.0,43781250.0,23350.0,1875.0,50994900.0,25245.0,2020.0,11,22,32,"['A', 'B']",46065136.666666664,23640.833333333332,1947.5,27,54,2010/12,13,LARVOTTO,南灣,True,9.0,755.0,POINT Z (22.2401736 114.1596309 0),22.240173600000002,114.15963090000001
164,"LARVOTTO(Block 5),AP LEI CHAU PRAYA RD|南灣5座,鴨利洲海旁道",HA,13246232.0,17300.0,764.0,13844444.0,18121.0,764.0,25186056.0,21308.0,1182.0,12,22,32,"['A', 'B', 'C']",20213182.0,19341.55555555556,1036.3333333333333,28,84,2010/12,13,LARVOTTO,南灣,True,9.0,755.0,POINT Z (22.2401736 114.1596309 0),22.240173600000002,114.15963090000001
165,"LARVOTTO(Block 6),AP LEI CHAU PRAYA RD|南灣6座,鴨利洲海旁道",HA,14006412.0,16283.0,764.0,14648172.0,17109.0,764.0,21385584.0,19994.0,1189.0,12,22,32,"['A', 'B', 'C']",18533186.444444448,17947.0,1042.111111111111,28,84,2010/12,13,LARVOTTO,南灣,True,9.0,755.0,POINT Z (22.2401736 114.1596309 0),22.240173600000002,114.15963090000001
166,"LARVOTTO(Block 7),AP LEI CHAU PRAYA RD|南灣7座,鴨利洲海旁道",HA,13891986.0,17742.0,783.0,14550489.0,18583.0,783.0,23401380.0,19748.0,1377.0,11,22,32,"['A', 'B', 'C']",21526486.833333332,19809.61111111111,1116.3333333333333,27,81,2010/12,13,LARVOTTO,南灣,True,9.0,755.0,POINT Z (22.2401736 114.1596309 0),22.240173600000002,114.15963090000001
167,"LARVOTTO(Block 10),AP LEI CHAU PRAYA RD|南灣10座,鴨利洲海旁道",HA,7376292.0,15966.0,462.0,7520046.0,16242.0,462.0,19177326.0,18155.0,1071.0,11,22,32,"['A', 'B', 'C', 'D']",13080733.583333334,17031.833333333332,762.1666666666666,27,108,2010/12,13,LARVOTTO,南灣,True,9.0,755.0,POINT Z (22.2410147 114.1589145 0),22.2410147,114.15891450000001
168,"LARVOTTO(Block 8),AP LEI CHAU PRAYA RD|南灣8座,鴨利洲海旁道",HA,10692836.0,15862.0,596.0,10412715.999999998,17465.0,596.0,19335630.0,19098.0,1054.0,12,22,32,"['A', 'B', 'C', 'D']",14571011.166666666,17785.083333333332,824.5,28,112,2010/12,13,LARVOTTO,南灣,True,9.0,755.0,POINT Z (22.240702 114.1592396 0),22.240702,114.15923959999999
169,"LARVOTTO(Block 9),AP LEI CHAU PRAYA RD|南灣9座,鴨利洲海旁道",HA,7613109.0,16443.0,463.0,8070090.0,17430.0,463.0,19446008.0,18811.0,1061.0,11,22,32,"['A', 'B', 'C', 'D']",14019039.583333334,17642.5,793.5,27,108,2010/12,13,LARVOTTO,南灣,True,9.0,755.0,POINT Z (22.240862 114.1590538 0),22.240862,114.1590538
170,"LARVOTTO(Block 2),AP LEI CHAU PRAYA RD|南灣2座,鴨利洲海旁道",HA,38182500.0,20364.0,1875.0,40278750.0,21482.0,1875.0,46855818.0,24366.0,1923.0,11,22,31,"['A', 'B']",42505993.5,22371.166666666668,1899.0,26,52,2010/12,13,LARVOTTO,南灣,True,9.0,755.0,POINT Z (22.2401736 114.1596309 0),22.240173600000002,114.15963090000001
171,"TUNG HING HSE(LEI TUNG EST),LEI TUNG EST RD|利東村(東興樓),利東村道",HA,1492687.0,5197.0,287.0,1496992.0,5216.0,287.0,1687560.0,5740.0,296.0,10,19,29,"['1', '16', '17', '21', '23', '24', '25', '26', '29', '3', '30', '31', '32', '34', '36', '5', '6', '7', '9']",1569830.0701754384,5351.035087719299,293.36842105263156,29,551,1987/06,36,LEI TUNG EST,利東村,True,8.0,2770.0,POINT Z (22.24059 114.155296 0),22.24059,114.15529599999999
172,132 MAIN ST AP LEI CHAU|132 鴨利洲大街,HA,2783187.9789530965,11175.0,277.0,2720737.1055896273,11251.0,277.0,4298826.988373979,11906.0,443.0,4,5,6,"['A', 'B', 'C', 'D', 'E', 'F']",3538167.041606419,11481.833333333334,363.0555555555556,5,30,1966/06,57,blank,,False,,,POINT Z (22.2439202 114.1552265 0),22.243920199999998,114.15522649999998
173,"TUNG ON HSE(LEI TUNG EST),LEI TUNG EST RD|利東村(東安樓),利東村道",HA,2261616.0,5936.0,381.0,2359152.0,6192.0,381.0,3434410.0,7901.0,490.0,13,22,31,"['10', '11', '13', '14', '15', '18', '19', '2', '20', '22', '24', '3', '4', '5']",2860199.401098901,7012.186813186813,412.14285714285717,28,392,1988/06,35,LEI TUNG EST,利東村,True,8.0,2770.0,POINT Z (22.2407409 114.1570547 0),22.2407409,114.1570547
174,"TUNG SING HSE(LEI TUNG EST),LEI TUNG EST RD|利東村(東昇樓),利東村道",HA,2135886.0,5606.0,381.0,2235708.0,5868.0,381.0,3441760.0,7085.0,490.0,9,20,30,"['11', '12', '13', '14', '15', '16', '17', '18', '22', '23', '24', '3', '5', '6', '8', '9']",2545953.1666666665,6330.229166666667,401.4375,32,512,1988/06,35,LEI TUNG EST,利東村,True,8.0,2770.0,POINT Z (22.241485 114.1566154 0),22.241485,114.1566154
175,"MARINELLA(Block 6),WELFARE RD|深灣9號6座,惠福道",HA,48610824.82837455,30506.0,1703.0,52338751.0387232,33077.0,1703.0,65719317.99999999,38452.0,1858.0,8,19,29,"['A', 'B']",56752968.91970261,34513.5,1780.5,27,54,2012/04,11,MARINELLA,深灣9號,True,7.0,437.0,POINT Z (22.2460193 114.1636832 0),22.2460193,114.1636832
176,"MARINELLA(Block 8),WELFARE RD|深灣9號8座,惠福道",HA,26699733.0,24119.0,1107.0,28168722.0,25446.0,1107.0,38386969.0,28583.0,1343.0,8,19,29,"['A', 'B', 'C']",33034531.444444448,26575.55555555556,1240.0,27,81,2012/04,11,MARINELLA,深灣9號,True,7.0,437.0,POINT Z (22.2460193 114.1636832 0),22.2460193,114.1636832
177,"MARINELLA(Block 9),WELFARE RD|深灣9號9座,惠福道",HA,18144279.876521837,19551.0,596.0,19186478.551849645,20674.0,596.0,44798936.0,29204.0,1534.0,8,18,28,"['A', 'B', 'C']",31564456.638156384,24964.0,1126.3333333333333,26,78,2012/04,11,MARINELLA,深灣9號,True,7.0,437.0,POINT Z (22.2460193 114.1636832 0),22.2460193,114.1636832
178,"MARINELLA(Block 3),WELFARE RD|深灣9號3座,惠福道",HA,25419900.0,23109.0,1100.0,26647500.0,24225.0,1100.0,36856952.0,33094.0,1388.0,8,19,29,"['A', 'B', 'C']",32734627.589923996,27388.111111111113,1252.3333333333333,27,81,2012/04,11,MARINELLA,深灣9號,True,7.0,437.0,POINT Z (22.2460193 114.1636832 0),22.2460193,114.1636832
179,"MARINELLA(Block 1),WELFARE RD|深灣9號1座,惠福道",HA,34476092.01714963,23705.0,1421.0,36399553.81344881,25519.0,1421.0,81808426.02265699,28831.0,2000.0,8,18,28,"['A', 'B']",57384103.32740554,26273.833333333332,1710.5,26,52,2012/04,11,MARINELLA,深灣9號,True,7.0,437.0,POINT Z (22.2460193 114.1636832 0),22.2460193,114.1636832
180,"MARINELLA(Block 2),WELFARE RD|深灣9號2座,惠福道",HA,28663970.0,23845.0,1121.0,26778448.0,23888.0,1121.0,36215135.0,28765.0,1317.0,8,19,29,"['A', 'B', 'C']",32279697.0,26199.222222222223,1232.3333333333333,27,81,2012/04,11,MARINELLA,深灣9號,True,7.0,437.0,POINT Z (22.2460193 114.1636832 0),22.2460193,114.1636832
181,174-176 ABERDEEN MAIN RD|174-176 香港仔大道,HA,2532400.993780561,10331.0,283.0,2543476.3356434535,10390.0,283.0,3297947.2041907096,11236.0,350.0,2,3,4,"['A', 'B', 'C', 'D']",2873737.845961288,10708.5,315.25,5,20,1968/01,55,blank,,False,,,POINT Z (22.2485078 114.155716 0),22.248507800000002,114.155716
182,"TUNG PING HSE(LEI TUNG EST),LEI TUNG EST RD|利東村(東平樓),利東村道",HA,2332101.0,6090.0,381.0,2435733.0,6378.0,381.0,3263890.0,6704.0,490.0,9,19,28,"['1', '11', '13', '15', '18', '23', '3', '4', '5', '6']",2656243.0000000005,6423.333333333333,413.7,27,270,1987/10,36,LEI TUNG EST,利東村,True,8.0,2770.0,POINT Z (22.2419349 114.1576372 0),22.2419349,114.1576372
183,"TUNG YAT HSE(LEI TUNG EST),LEI TUNG EST RD|利東村(東逸樓),利東村道",HA,2281808.9999999995,5720.0,381.0,2391918.0,5948.0,381.0,3544660.0,7572.0,490.0,9,20,29,"['1', '11', '12', '13', '15', '18', '19', '20', '21', '23', '24', '3', '4', '5', '6', '7', '9']",2692692.31372549,6413.647058823529,419.47058823529414,30,510,1988/07,35,LEI TUNG EST,利東村,True,8.0,2770.0,POINT Z (22.2406848 114.157823 0),22.2406848,114.157823
184,"TUNG CHEONG HSE(LEI TUNG EST),LEI TUNG EST RD|利東村(東昌樓),利東村道",HA,2371725.0,6225.0,381.0,2479929.0,6509.0,381.0,3766630.0,7922.0,490.0,9,19,29,"['1', '11', '12', '13', '14', '17', '19', '21', '22', '24', '6']",2941676.606060606,7155.424242424243,410.72727272727275,29,319,1987/01,36,LEI TUNG EST,利東村,True,8.0,2770.0,POINT Z (22.2416169 114.1540655 0),22.2416169,114.1540655
185,"TUNG YIP HSE(LEI TUNG EST),LEI TUNG EST RD|利東村(東業樓),利東村道",HA,2409444.0,6289.0,381.0,2537841.0,6661.0,381.0,3564260.0,7274.0,490.0,9,20,30,"['1', '10', '11', '14', '16', '18', '19', '2', '21', '22', '24', '4', '5', '7', '8', '9']",2699526.1041666665,6721.041666666667,401.4375,29,464,1987/01,36,LEI TUNG EST,利東村,True,8.0,2770.0,POINT Z (22.2411576 114.1543615 0),22.2411576,114.1543615
186,"TUNG MAU HSE(LEI TUNG EST),LEI TUNG EST RD|利東村(東茂樓),利東村道",HA,1631021.0,5646.0,287.0,1697892.0,5874.0,287.0,1897476.0,6454.0,296.0,9,19,29,"['11', '13', '14', '18', '19', '2', '20', '22', '23', '24', '26', '3', '31', '32', '34', '5', '7', '9']",1731228.8333333333,5937.925925925927,291.55555555555554,29,522,1987/06,36,LEI TUNG EST,利東村,True,8.0,2770.0,POINT Z (22.241631 114.1556865 0),22.241630999999998,114.1556865
187,"H. BONAIRE,MAIN ST AP LEI CHAU|倚南,鴨利洲大街",HA,5912000.0,17303.0,320.0,6076800.0,18254.0,320.0,11354175.0,20457.0,674.0,8,19,29,"['A', 'B', 'C', 'D']",8809682.0,18952.166666666668,502.75,27,108,2016/10,7,blank,,False,,,POINT Z (22.2442365 114.1556764 0),22.2442365,114.15567639999999
188,26 MAIN ST AP LEI CHAU|26 鴨利洲大街,HA,5499374.308415469,20327.0,318.0,5524264.475994266,20419.0,318.0,5562952.453861311,20562.0,318.0,2,3,4,['whole floor'],5528863.746090349,20436.0,318.0,3,3,1964/10,59,blank,,False,,,POINT Z (22.2439202 114.1552265 0),22.243920199999998,114.15522649999998
189,31 TUNG SING RD|31 東勝道,HA,2884444.2366344538,7242.0,429.0,2896488.6071024956,7268.0,429.0,3318113.038280136,7979.0,498.0,4,5,6,"['1', '2', '3', '4', '5', '6']",3089994.289424664,7790.111111111112,466.6666666666667,5,30,1962/03,61,blank,,False,,,POINT Z (22.2488412 114.1552623 0),22.248841199999998,114.15526229999999
190,"SOUTH COAST,TANG FUNG ST|登峰南岸,登豐街",HA,2946994.0,12908.0,214.0,3081386.0,13560.0,214.0,12042299.633692257,21243.0,606.0,8,18,27,"['A', 'B', 'BC', 'C', 'D', 'E', 'EF', 'F']",5953960.665221554,15988.166666666666,377.625,25,200,2016/11,7,blank,,False,,,POINT Z (22.2493987 114.1495351 0),22.2493987,114.14953510000001
191,210-210A ABERDEEN MAIN RD|210-210A 香港仔大道,HA,,,354.0,,,354.0,,,354.0,2,2,3,['B'],,,354.0,2,2,1971/10,52,blank,,False,,,POINT Z (22.2485078 114.155716 0),22.248507800000002,114.155716
192,"MARINA SOUTH(Block 1),AP LEI CHAU DR|南區．左岸1座,鴨利洲徑",HA,44396631.72640237,29202.0,1787.0,46716652.95832107,30728.0,1787.0,54093635.46873589,34001.0,3657.0,8,18,28,"['A', 'AB', 'B']",48794473.04806847,31357.166666666668,2438.0,28,84,2016/06,7,MARINA SOUTH,南區．左岸,True,2.0,375.0,POINT Z (22.2430567 114.1589563 0),22.243056699999997,114.15895630000001
193,"MARINA SOUTH(Block 2),AP LEI CHAU DR|南區．左岸2座,鴨利洲徑",HA,45666785.0,25555.0,1787.0,48987031.0,27413.0,1787.0,61044977.0,32011.0,3694.0,8,18,28,"['A', 'AB', 'B']",53775505.666666664,29070.333333333332,2462.6666666666665,28,84,2016/06,7,MARINA SOUTH,南區．左岸,True,2.0,375.0,POINT Z (22.2430567 114.1589563 0),22.243056699999997,114.15895630000001
194,106 ABERDEEN MAIN RD|106 香港仔大道,HA,,,377.0,,,377.0,,,377.0,3,4,4,['whole floor'],,,377.0,4,4,1985/03,38,blank,,False,,,POINT Z (22.2485078 114.155716 0),22.248507800000002,114.155716
195,"SOUTH WALK．AURA,TIN WAN ST|南津．迎岸,田灣街",HA,3121146.0,16514.0,183.0,3267154.0,16841.0,183.0,5371320.0,22367.0,265.0,7,16,24,"['A', 'B', 'C', 'D', 'E', 'F']",4323503.166666667,20237.333333333332,214.05555555555557,23,138,2019/06,4,blank,,False,,,POINT Z (22.2495096 114.1492778 0),22.249509600000003,114.1492778
196,30 MAIN ST AP LEI CHAU|30 鴨利洲大街,HA,,,1943.0,,,1943.0,,,970.0,2,2,4,['whole floor'],,,1618.6666666666667,4,4,1964/12,59,blank,,False,,,POINT Z (22.2439202 114.1552265 0),22.243920199999998,114.15522649999998
197,126 MAIN ST AP LEI CHAU|126 鴨利洲大街,HA,,,513.0,,,513.0,,,513.0,1,2,3,['whole floor'],,,513.0,3,3,1975/08,48,blank,,False,,,POINT Z (22.2439202 114.1552265 0),22.243920199999998,114.15522649999998
