,final_address,district,lowZone_value,lowZone_npsf_min,lowZone_nfa_min,midZone_value,midZone_npsf_min,midZone_nfa_min,highZone_value,highZone_npsf_max,highZone_nfa_max,oneSixth_floor,middle_floor,fifthSixth_floor,unit_list,value_avg,npsf_avg,unitSize_avg,noStorey,noFlat,op_date,bldgAge,est_name_en,est_name_ch,est_orNot,est_bldgNo,est_flatNo,final_coords,lat,long
0,"ABBA HSE(Block B),ABERDEEN MAIN RD|福群大樓B座,香港仔大道",HA,4951980.0,15035.0,305,5137725.0,15661.0,305,7752600.000000001,17442.0,450,10.0,19.0,28.0,"['1', '2', '3', '4', '5', '6', '7', '8']",6062224.166666667,16576.25,366.875,29,232,1983/03,38,ABBA HSE,福群大樓,True,2.0,464.0,POINT Z (22.2483297 114.1525978 0),22.2483297,114.1525978
1,"YEE TSUI COURT(Block 16,Phase 2,SOUTH HORIZONS),16 SOUTH HORIZON DR|海怡半島,2期,16座(怡翠閣),16 海怡路",HA,9556875.0,15062.0,625,9594375.0,15351.0,625,17739492.0,20022.0,897,8.0,20.0,33.0,"['A', 'B', 'C', 'D', 'E', 'F', 'G', 'H']",13086291.625,17009.041666666668,760.875,40,320,1993/00,28,SOUTH HORIZONS,海怡半島,True,34.0,9921.0,POINT Z (22.2431304 114.1465931 0),22.2431304,114.14659309999999
2,"COBLE COURT,MAIN ST AP LEI CHAU|高寶閣,鴨利洲大街",HA,4520370.0,14761.0,265,4578670.0,15363.0,265,6217300.0,17685.0,395,6.0,13.0,20.0,"['A', 'B', 'C', 'D', 'E', 'F', 'G', 'H']",5560287.125,16042.375,348.875,23,184,1987/02,34,blank,,False,,,POINT Z (22.2434521 114.1545021 0),22.243452100000003,114.1545021
3,"MEI WAH COURT(Block 22,Phase 3,SOUTH HORIZONS),22 SOUTH HORIZON DR|海怡半島,3期,22座(美華閣),22 海怡路",HA,8769760.0,14864.0,589,9707270.0,16453.0,589,17916416.0,19996.0,896,7.0,18.0,30.0,"['A', 'B', 'C', 'D', 'E', 'F', 'G', 'H']",13110030.375,17552.958333333332,739.75,36,288,1994/08,27,SOUTH HORIZONS,海怡半島,True,34.0,9921.0,POINT Z (22.2429446 114.1475257 0),22.2429446,114.1475257
4,"YEE FAI COURT(Block 13A,Phase 2,SOUTH HORIZONS),13A SOUTH HORIZON DR|海怡半島,2期,13A座(怡暉閣),13A 海怡路",HA,9886448.0,15496.0,624,10080400.0,15800.0,624,19308822.0,21526.0,897,8.0,20.0,33.0,"['A', 'B', 'C', 'D', 'E', 'F', 'G', 'H']",14290992.666666666,18485.666666666668,760.375,40,320,1993/07,28,SOUTH HORIZONS,海怡半島,True,34.0,9921.0,POINT Z (22.2432615 114.1457236 0),22.2432615,114.1457236
5,"CAMBRIDGE COURT(Block 33A,Phase 4,SOUTH HORIZONS),33A YI NAM RD|海怡半島,4期,33A座(御翠居),33A 怡南路",HA,8099347.999999999,15398.0,526,8536980.0,16047.0,526,11308784.0,17626.0,656,10.0,18.0,26.0,"['A', 'B', 'C', 'D', 'E', 'F', 'G', 'H']",9739822.875,16463.333333333332,591.25,25,200,1995/03,26,SOUTH HORIZONS,海怡半島,True,34.0,9921.0,POINT Z (22.2429142 114.1491839 0),22.242914199999998,114.14918390000001
6,"KIN FAI BLDG,ABERDEEN MAIN RD|建輝大廈,香港仔大道",HA,4524520.0,14991.0,280,4475520.0,15131.0,280,5389020.0,17108.0,315,7.0,13.0,19.0,"['A', 'B', 'C', 'D', 'E', 'F']",4813249.777777777,16202.933333333334,291.6666666666667,19,114,1979/11,42,blank,,False,,,POINT Z (22.2478893 114.1587287 0),22.2478893,114.1587287
7,"YEE KING COURT(Block 8,Phase 2,SOUTH HORIZONS),8 SOUTH HORIZON DR|海怡半島,2期,8座(怡景閣),8 海怡路",HA,10580647.0,16303.0,648,11036088.0,17031.0,648,34844854.0,23122.0,1507,8.0,21.0,34.0,"['A', 'AB', 'B', 'C', 'D', 'E', 'F', 'G', 'H']",15241788.666666666,18332.518518518522,813.888888888889,41,369,1992/10,29,SOUTH HORIZONS,海怡半島,True,34.0,9921.0,POINT Z (22.2443926 114.1450302 0),22.2443926,114.14503020000001
8,"YEE LOK COURT(Block 13,Phase 2,SOUTH HORIZONS),13 SOUTH HORIZON DR|海怡半島,2期,13座(怡樂閣),13 海怡路",HA,9759360.0,15249.0,631,9763071.0,15231.0,631,14133812.0,18524.0,763,6.0,17.0,28.0,"['A', 'B', 'C', 'D', 'E', 'F', 'G', 'H']",11029869.333333334,16444.041666666668,668.625,33,264,1992/10,29,SOUTH HORIZONS,海怡半島,True,34.0,9921.0,POINT Z (22.2436581 114.1456689 0),22.2436581,114.1456689
9,"ABBA HSE(Block A),ABERDEEN MAIN RD|福群大樓A座,香港仔大道",HA,4980955.0,14884.0,305,5187440.0,15674.0,305,7488000.0,17933.0,450,10.0,19.0,28.0,"['1', '2', '3', '4', '5', '6', '7', '8']",6329431.25,16584.208333333332,383.125,29,232,1983/03,38,ABBA HSE,福群大樓,True,2.0,464.0,POINT Z (22.2482423 114.1528764 0),22.2482423,114.1528764
10,"ALBERT HSE,CHENGTU RD|添喜大廈,成都道",HA,3628299.2679529493,5279.0,390,4172647.254355438,6071.0,390,5515675.126512861,13045.0,780,7.0,15.0,22.0,"['A', 'AC', 'B', 'C', 'D']",4494405.392461541,7921.583333333333,468.0,21,105,1973/08,48,blank,,False,,,POINT Z (22.248646 114.154863 0),22.248646,114.15486299999999
11,"MEI HIN COURT(Block 23,Phase 3,SOUTH HORIZONS),23 SOUTH HORIZON DR|海怡半島,3期,23座(美軒閣),23 海怡路",HA,9444615.0,16035.0,589,9600480.0,16272.0,589,15752765.000000002,19915.0,791,7.0,20.0,33.0,"['A', 'B', 'C', 'D', 'E', 'F', 'G', 'H']",12035795.666666666,17385.875,687.875,39,312,1994/08,27,SOUTH HORIZONS,海怡半島,True,34.0,9921.0,POINT Z (22.2420243 114.1486033 0),22.2420243,114.1486033
12,"KONG FU COURT(Block E,ABERDEEN CTR),NAM NING ST|香港仔中心,E座(港富閣),南寧街",HA,6169563.0,13383.0,450,6432794.0,13954.0,450,8407812.0,15444.0,553,6.0,15.0,24.0,"['1', '2', '3', '4', '5', '6']",7079342.444444444,14496.944444444445,488.0,27,162,1982/01,39,ABERDEEN CTR,香港仔中心,True,20.0,2778.0,POINT Z (22.249187 114.154169 0),22.249187,114.154169
13,"WAI KING COURT(Block 30,Phase 4,SOUTH HORIZONS),30 YI NAM RD|海怡半島,4期,30座(慧景閣),30 怡南路",HA,7875648.000000001,14916.0,528,8177136.000000001,15487.0,528,11601382.0,17216.0,7254,8.0,17.0,26.0,"['A', 'A-H', 'B', 'C', 'D', 'E', 'F', 'G', 'H']",,,1343.3333333333333,27,243,1994/12,27,SOUTH HORIZONS,海怡半島,True,34.0,9921.0,POINT Z (22.243881 114.149743 0),22.243881,114.14974299999999
14,"SHUN FUNG COURT,KA WO ST|順豐大廈,嘉禾街",HA,3823611.0,11693.0,327,3952122.0000000005,12086.0,327,4738127.068536155,13365.0,327,5.0,12.0,21.0,"['A', 'B']",4191235.905704163,12444.5,327.0,21,42,1994/11,27,blank,,False,,,POINT Z (22.2497168 114.1486429 0),22.2497168,114.1486429
15,"ON FAI BLDG,OLD MAIN ST ABERDEEN|安輝大廈,香港仔舊大街",HA,4375427.42596763,13408.0,301,4333657.235743595,13280.0,301,6641232.0,15052.0,467,7.0,12.0,16.0,"['A', 'B', 'C', 'D', 'E', 'F']",5926221.9111519875,13999.611111111111,419.1666666666667,16,96,1977/04,44,blank,,False,,,POINT Z (22.2482727 114.1561509 0),22.248272699999998,114.15615090000001
16,"HOI YAT COURT(Block 6,Phase 1,SOUTH HORIZONS),6 SOUTH HORIZON DR|海怡半島,1期,6座(海逸閣),6 海怡路",HA,8796644.0,14492.0,600,9264034.0,15262.0,600,13173195.0,17374.0,763,7.0,18.0,29.0,"['A', 'B', 'C', 'D', 'E', 'F', 'G', 'H']",10827297.625,16057.375,674.0,35,280,1992/03,29,SOUTH HORIZONS,海怡半島,True,34.0,9921.0,POINT Z (22.2446038 114.1462959 0),22.2446038,114.1462959
17,"FENTON COURT(Block 27,Phase 4,SOUTH HORIZONS),27 YI NAM RD|海怡半島,4期,27座(御雅居),27 怡南路",HA,7606718.0,14434.0,526,7941890.0,15070.0,526,21581235.0,20495.0,1053,7.0,18.0,29.0,"['A', 'A & B', 'B', 'C', 'D', 'E', 'F', 'G', 'H']",12006505.370370371,17299.85185185185,682.3333333333334,35,315,1995/07,26,SOUTH HORIZONS,海怡半島,True,34.0,9921.0,POINT Z (22.2429245 114.1500896 0),22.2429245,114.1500896
18,"KONG HING COURT(Block J,ABERDEEN CTR),NAM NING ST|香港仔中心,J座(港興閣),南寧街",HA,6213001.391880881,12673.0,450,6325890.838451117,12657.0,450,8391103.017382184,15175.0,553,6.0,15.0,24.0,"['1', '2', '3', '4', '5', '6']",7052847.293026008,13496.833333333334,488.0,27,162,1981/12,40,ABERDEEN CTR,香港仔中心,True,20.0,2778.0,POINT Z (22.2491936 114.1537589 0),22.2491936,114.15375890000001
19,"MAY COURT,OLD MAIN ST ABERDEEN|美倫閣,香港仔舊大街",HA,4812600.0,15425.0,312,4944264.0,15847.0,312,5557032.0,17811.0,312,7.0,15.0,22.0,"['A', 'B']",5140772.0,16476.833333333332,312.0,23,46,1996/11,25,blank,,False,,,POINT Z (22.2475454 114.1561441 0),22.2475454,114.15614409999999
20,"GRANDVIEW GARDEN(Block 1),NAM LONG SHAN RD|金寶花園1座,南朗山道",HA,5070050.0,15507.0,307,5428854.0,16047.0,307,6169750.0,18779.0,370,6.0,14.0,21.0,"['A', 'B', 'C', 'D', 'E', 'F']",5591097.888888888,16968.777777777777,330.5,24,144,1985/03,36,GRANDVIEW GARDEN,金寶花園,True,2.0,294.0,POINT Z (22.244926 114.16684 0),22.244926,114.16684
21,"KONG KAI BLDG,ABERDEEN MAIN RD|港基大廈,香港仔大道",HA,5081115.0,14313.0,355,5191875.0,14625.0,355,5461320.0,15384.0,355,6.0,13.0,20.0,"['A', 'B']",5260153.333333333,14817.333333333334,355.0,21,42,1990/01,31,blank,,False,,,POINT Z (22.2496212 114.1554774 0),22.2496212,114.1554774
22,"EVER SECURE MANSION,KA WO ST|永穩大廈,嘉禾街",HA,4333668.077258916,12113.0,330,4428834.898735913,12379.0,330,4546899.000568278,12709.0,330,6.0,11.0,16.0,"['A', 'B']",4517681.116781481,12627.333333333334,330.0,15,30,1986/01,35,blank,,False,,,POINT Z (22.2498077 114.148464 0),22.249807699999998,114.14846399999999
23,"YEE WAN COURT(Block 15,Phase 2,SOUTH HORIZONS),15 SOUTH HORIZON DR|海怡半島,2期,15座(怡韻閣),15 海怡路",HA,9532500.0,15252.0,625,9948125.0,15917.0,625,19179654.0,21382.0,897,8.0,20.0,33.0,"['A', 'B', 'C', 'D', 'E', 'F', 'G', 'H']",13823379.25,17891.5,759.5,40,320,1993/07,28,SOUTH HORIZONS,海怡半島,True,34.0,9921.0,POINT Z (22.243179 114.146127 0),22.243179,114.146127
24,"PAK KING COURT(Block 31,Phase 4,SOUTH HORIZONS),31 YI NAM RD|海怡半島,4期,31座(柏景閣),31 怡南路",HA,8016738.000000001,14537.0,523,8382578.000000001,15091.0,523,11579666.0,17074.0,688,8.0,16.0,25.0,"['A', 'B', 'C', 'D', 'E', 'F', 'G', 'H']",9625183.125,16037.958333333334,600.125,26,208,1994/12,27,SOUTH HORIZONS,海怡半島,True,34.0,9921.0,POINT Z (22.243803 114.150128 0),22.243803,114.15012800000001
25,"MARINA HABITAT(Block 2),YUET HOI ST|悅海華庭2座,悅海街",HA,6554926.0,14887.0,422,6892634.0,15614.0,422,10375145.0,17439.0,605,10.0,24.0,37.0,"['A', 'B', 'C', 'D', 'E', 'F', 'G', 'H']",8081558.916666667,16346.75,495.25,42,336,1998/05,23,MARINA HABITAT,悅海華庭,True,3.0,992.0,POINT Z (22.244175 114.154286 0),22.244175,114.15428600000001
26,"MEI CHUN COURT(Block 21,Phase 3,SOUTH HORIZONS),21 SOUTH HORIZON DR|海怡半島,3期,21座(美浚閣),21 海怡路",HA,9621138.0,16062.0,589,9901380.0,16706.0,589,17609250.0,19875.0,896,7.0,18.0,30.0,"['A', 'B', 'C', 'D', 'E', 'F', 'G', 'H']",13382394.75,17904.958333333332,740.375,36,288,1993/12,28,SOUTH HORIZONS,海怡半島,True,34.0,9921.0,POINT Z (22.2420248 114.1477673 0),22.242024800000003,114.1477673
27,"YEE MEI COURT(Block 7,Phase 2,SOUTH HORIZONS),7 SOUTH HORIZON DR|海怡半島,2期,7座(怡美閣),7 海怡路",HA,10031588.0,14680.0,644,10131910.0,15305.0,644,13771200.0,18240.0,760,8.0,22.0,35.0,"['A', 'B', 'C', 'D', 'E', 'F', 'G', 'H']",11915078.958333334,16344.291666666666,728.625,42,336,1992/10,29,SOUTH HORIZONS,海怡半島,True,34.0,9921.0,POINT Z (22.2446716 114.145352 0),22.2446716,114.145352
28,"EATON COURT(Block 26,Phase 4,SOUTH HORIZONS),26 YI NAM RD|海怡半島,4期,26座(御盈居),26 怡南路",HA,7921864.0,15032.0,526,8325018.999999999,15797.0,526,13826780.0,18485.0,748,7.0,18.0,29.0,"['A', 'B', 'C', 'D', 'E', 'F', 'G', 'H']",10716677.333333334,16744.5,636.0,35,280,1995/03,26,SOUTH HORIZONS,海怡半島,True,34.0,9921.0,POINT Z (22.2427306 114.1496813 0),22.2427306,114.14968130000001
29,"MARINA HABITAT(Block 3),YUET HOI ST|悅海華庭3座,悅海街",HA,6710222.0,14342.0,422,6713176.0,15042.0,422,10435040.0,17986.0,605,10.0,23.0,36.0,"['A', 'B', 'C', 'D', 'E', 'F', 'G', 'H']",8012816.333333333,16270.083333333334,495.25,41,328,1998/05,23,MARINA HABITAT,悅海華庭,True,3.0,992.0,POINT Z (22.2442833 114.1546303 0),22.244283300000003,114.15463030000001
30,"DOVER COURT(Block 25,Phase 4,SOUTH HORIZONS),25 YI NAM RD|海怡半島,4期,25座(御柳居),25 怡南路",HA,8221727.0,15360.0,526,8611146.0,15716.0,526,13561988.0,18131.0,748,7.0,18.0,29.0,"['A', 'B', 'C', 'D', 'E', 'F', 'G', 'H']",10619369.208333334,16693.5,635.25,35,280,1995/03,26,SOUTH HORIZONS,海怡半島,True,34.0,9921.0,POINT Z (22.2425571 114.1494557 0),22.242557100000003,114.1494557
31,"SILVER MANSION,SHEK PAI WAN RD|兆暉大廈,石排灣道",HA,5377089.120331691,12493.0,397,5593584.423903839,12996.0,397,5975247.0,15051.0,397,6.0,15.0,24.0,"['A', 'B']",5671628.735767358,13739.5,397.0,27,54,1997/02,24,blank,,False,,,POINT Z (22.2493714 114.1487427 0),22.249371399999998,114.14874270000001
32,"YEE MOON COURT(Block 12,Phase 2,SOUTH HORIZONS),12 SOUTH HORIZON DR|海怡半島,2期,12座(怡滿閣),12 海怡路",HA,9453642.0,14982.0,631,9988062.0,15582.0,631,15053003.999999998,19524.0,781,6.0,17.0,28.0,"['A', 'B', 'C', 'D', 'E', 'F', 'G', 'H']",10889112.0,16192.833333333334,671.0,33,264,1992/10,29,SOUTH HORIZONS,海怡半島,True,34.0,9921.0,POINT Z (22.243179 114.146127 0),22.243179,114.146127
33,"YEE LAI COURT(Block 10,Phase 2,SOUTH HORIZONS),10 SOUTH HORIZON DR|海怡半島,2期,10座(怡麗閣),10 海怡路",HA,10049116.0,15484.0,648,11088814.0,17086.0,648,18077016.0,20357.0,893,8.0,22.0,35.0,"['A', 'B', 'C', 'D', 'E', 'F', 'G', 'H']",14474836.166666666,18084.083333333332,796.25,42,336,1992/10,29,SOUTH HORIZONS,海怡半島,True,34.0,9921.0,POINT Z (22.243875 114.144527 0),22.243875,114.144527
34,"MARINA HABITAT(Block 1),YUET HOI ST|悅海華庭1座,悅海街",HA,6632152.0,14935.0,422,6286112.0,14006.0,422,9893565.0,16621.0,605,10.0,23.0,36.0,"['A', 'B', 'C', 'D', 'E', 'F', 'G', 'H']",7915612.958333333,16023.75,495.25,41,328,1998/05,23,MARINA HABITAT,悅海華庭,True,3.0,992.0,POINT Z (22.2440158 114.1538286 0),22.2440158,114.15382859999998
35,"HOI NGAR COURT(Block 3,Phase 1,SOUTH HORIZONS),3 SOUTH HORIZON DR|海怡半島,1期,3座(海雅閣),3 海怡路",HA,9284065.0,15218.0,600,9681295.0,15845.0,600,23360523.0,19101.0,1223,7.0,18.0,29.0,"['A', 'B', 'C', 'D', 'E', 'EF', 'F', 'G', 'H']",12250262.444444446,16496.592592592595,735.0,35,315,1991/11,30,SOUTH HORIZONS,海怡半島,True,34.0,9921.0,POINT Z (22.2447503 114.1473493 0),22.2447503,114.1473493
36,"HOI FAI COURT(Block 2,Phase 1,SOUTH HORIZONS),2 SOUTH HORIZON DR|海怡半島,1期,2座(海暉閣),2 海怡路",HA,7482937.0,13883.0,526,7826280.000000001,14520.0,526,11292640.0,17599.0,652,8.0,20.0,33.0,"['A', 'B', 'C', 'D', 'E', 'F', 'G', 'H']",8976708.25,16066.791666666666,559.0,40,320,1991/11,30,SOUTH HORIZONS,海怡半島,True,34.0,9921.0,POINT Z (22.244541 114.147874 0),22.244541,114.147874
37,"FULL JADE MANSION,SHEK PAI WAN RD|富澤大廈,石排灣道",HA,4141691.9999999995,16158.0,243,4315680.0,17184.0,243,4714428.0,19033.0,262,5.0,12.0,20.0,"['A', 'B', 'C', 'D']",4423612.833333333,17732.833333333332,249.66666666666666,24,96,1992/06,29,blank,,False,,,POINT Z (22.2495028 114.1479066 0),22.249502800000002,114.14790659999998
38,"MEI KA COURT(Block 23A,Phase 3,SOUTH HORIZONS),23A SOUTH HORIZON DR|海怡半島,3期,23A座(美家閣),23A 海怡路",HA,9086503.0,15427.0,589,9493308.0,15982.0,589,14980680.0,19206.0,791,7.0,20.0,33.0,"['A', 'B', 'C', 'D', 'E', 'F', 'G', 'H']",11785834.958333334,17050.416666666668,687.875,39,312,1994/02,27,SOUTH HORIZONS,海怡半島,True,34.0,9921.0,POINT Z (22.2421636 114.1488258 0),22.2421636,114.1488258
39,"GRANDVIEW GARDEN(Block 2),NAM LONG SHAN RD|金寶花園2座,南朗山道",HA,5633450.0,16434.0,307,5792169.0,16839.0,307,6664764.0,19576.0,373,6.0,14.0,22.0,"['A', 'B', 'C', 'D', 'E', 'F']",6075876.666666667,18159.333333333332,335.5,25,150,1985/03,36,GRANDVIEW GARDEN,金寶花園,True,2.0,294.0,POINT Z (22.244926 114.16684 0),22.244926,114.16684
40,"YEE ON BLDG,MAIN ST AP LEI CHAU|怡安大廈,鴨利洲大街",HA,4990540.0,13133.0,380,5190420.0,13659.0,380,5419940.0,14263.0,380,7.0,12.0,18.0,"['A', 'B']",5250966.666666667,13818.333333333334,380.0,18,36,1984/09,37,blank,,False,,,POINT Z (22.2433801 114.1535731 0),22.2433801,114.15357309999999
41,"HOI LEE BLDG,MAIN ST AP LEI CHAU|海利大廈,鴨利洲大街",HA,4546888.0,16922.0,268,4729664.0,17071.0,268,5337300.0,18101.0,300,5.0,12.0,19.0,"['A', 'B', 'C', 'D']",4948113.333333333,17520.333333333332,282.5,23,92,1991/09,30,blank,,False,,,POINT Z (22.2440977 114.1562206 0),22.244097699999998,114.1562206
42,"HOI NING COURT(Block 5,Phase 1,SOUTH HORIZONS),5 SOUTH HORIZON DR|海怡半島,1期,5座(海寧閣),5 海怡路",HA,9158400.0,14762.0,600,9636600.0,15488.0,600,12077534.0,17734.0,742,7.0,18.0,29.0,"['A', 'B', 'C', 'D', 'E', 'F', 'G', 'H']",10689636.791666666,16060.291666666666,666.75,35,280,1991/11,30,SOUTH HORIZONS,海怡半島,True,34.0,9921.0,POINT Z (22.244734 114.146632 0),22.244734,114.14663200000001
43,"MEI HAY COURT(Block 18,Phase 3,SOUTH HORIZONS),18 SOUTH HORIZON DR|海怡半島,3期,18座(美晞閣),18 海怡路",HA,8766087.0,14876.0,589,9137920.0,15488.0,589,27793060.880606513,19551.0,1263,8.0,20.0,33.0,"['A', 'B', 'C', 'D', 'E', 'E & F', 'F', 'G', 'H']",13018464.086301023,16533.62962962963,739.888888888889,40,360,1993/12,28,SOUTH HORIZONS,海怡半島,True,34.0,9921.0,POINT Z (22.2427771 114.1478342 0),22.2427771,114.14783419999999
44,"MEI FAI COURT(Block Q,ABERDEEN CTR),NAM NING ST|香港仔中心,Q座(美輝閣),南寧街",HA,9409160.0,13837.0,605,9785880.0,14391.0,605,10107520.0,14864.0,720,7.0,15.0,22.0,"['1', '2', '3', '4']",9767520.0,14364.0,662.5,23,92,1981/05,40,ABERDEEN CTR,香港仔中心,True,20.0,2778.0,POINT Z (22.2482784 114.1532016 0),22.2482784,114.15320159999999
45,"ABERDEEN HARBOUR MANSION,ABERDEEN MAIN RD|雙喜大廈,香港仔大道",HA,4988511.0,12813.0,369,5150502.0,13048.0,369,12257660.070482403,15203.0,788,7.0,12.0,18.0,"['A', 'AB', 'B', 'C', 'D', 'E', 'E & F', 'F', 'G', 'H', 'I', 'J', 'K']",6637898.495593596,13771.380341880342,466.8205128205129,17,221,1972/10,49,blank,,False,,,POINT Z (22.2475013 114.1577301 0),22.2475013,114.1577301
46,"PORT CTR,CHENGTU RD|利港中心,成都道",HA,5936895.0,14445.0,411,6143628.0,14948.0,411,7473384.0,16662.0,456,9.0,16.0,22.0,"['A', 'B', 'C', 'D', 'E', 'F', 'G', 'H']",6818482.375,15730.291666666666,433.5,22,176,1989/07,32,blank,,False,,,POINT Z (22.2490583 114.1550362 0),22.2490583,114.1550362
47,"YEE NGAR COURT(Block 9,Phase 2,SOUTH HORIZONS),9 SOUTH HORIZON DR|海怡半島,2期,9座(怡雅閣),9 海怡路",HA,10172304.0,15698.0,648,10713692.0,16508.0,648,14290640.0,18928.0,755,8.0,22.0,35.0,"['A', 'B', 'C', 'D', 'E', 'F', 'G', 'H']",12600787.541666666,17268.25,728.7083333333334,42,336,1992/10,29,SOUTH HORIZONS,海怡半島,True,34.0,9921.0,POINT Z (22.2440632 114.1447667 0),22.2440632,114.14476670000002
48,"HUNG FOOK COURT,HUNG SHING ST|鴻福閣,洪聖街",HA,4770696.0,16338.0,292,5278484.0,18077.0,292,5256292.0,18001.0,292,6.0,12.0,19.0,"['A', 'B']",5212638.0,17851.5,292.0,22,44,1992/03,29,blank,,False,,,POINT Z (22.2444612 114.1561277 0),22.2444612,114.1561277
49,"KONG SHING COURT(Block F,ABERDEEN CTR),NAM NING ST|香港仔中心,F座(港盛閣),南寧街",HA,5850240.0,12188.0,450,5965440.0,12428.0,450,6927360.0,14503.0,480,6.0,15.0,24.0,"['1', '2', '3', '4', '5', '6']",6313841.055555556,13625.5,463.6666666666667,27,162,1982/01,39,ABERDEEN CTR,香港仔中心,True,20.0,2778.0,POINT Z (22.2493679 114.1540376 0),22.249367899999996,114.1540376
50,"PAT LEUNG BLDG,LEE MAN RD|百良大廈,利民道",HA,5392380.0,14574.0,370,5667448.0,15073.0,370,6100224.0,16224.0,376,5.0,13.0,21.0,"['A', 'B', 'C', 'D']",5751662.166666667,15441.416666666666,372.5,25,100,1986/08,35,blank,,False,,,POINT Z (22.2435479 114.1525049 0),22.2435479,114.15250490000001
51,"BILLION COURT,MAIN ST AP LEI CHAU|利豐大廈,鴨利洲大街",HA,5638268.0,14655.0,373,5853862.0,15049.0,373,6499944.0,16669.0,413,5.0,12.0,20.0,"['A', 'B', 'C', 'D', 'E', 'F']",6165398.944444445,15663.0,394.0,24,144,1990/10,31,blank,,False,,,POINT Z (22.243282 114.1540055 0),22.243282,114.1540055
52,"HIP SING MANSION,OLD MAIN ST ABERDEEN|協勝大廈,香港仔舊大街",HA,5516464.388828141,12626.0,403,5810992.583065912,13105.0,403,6163969.554695661,14108.0,403,5.0,12.0,20.0,"['A', 'B']",5846123.4293081155,13348.0,404.0,24,48,1990/03,31,blank,,False,,,POINT Z (22.2477477 114.1560929 0),22.247747699999998,114.1560929
53,"PELENE MANSION,YUE KO ST|碧麗大廈,漁歌街",HA,4081907.9999999995,14800.0,268,4196880.0,15174.0,268,4438371.0,16174.0,290,6.0,14.0,21.0,"['A', 'B', 'C', 'D', 'E', 'F']",4283738.333333333,15389.388888888889,278.5,24,144,1979/09,42,blank,,False,,,POINT Z (22.2490628 114.1483479 0),22.2490628,114.1483479
54,"COMFORT CTR,OLD MAIN ST ABERDEEN|港暉中心,香港仔舊大街",HA,5556208.0,14174.0,380,5713400.0,14575.0,380,7875380.0,16717.0,515,6.0,15.0,24.0,"['A', 'B', 'C', 'D', 'E', 'F']",6523101.833333333,15244.5,429.0,29,174,1992/08,29,blank,,False,,,POINT Z (22.2486215 114.1561509 0),22.2486215,114.15615090000001
55,"KAM FUNG BLDG,ABERDEEN MAIN RD|金豐大廈,香港仔大道",HA,5999360.0,13792.0,430,6337340.0,14724.0,430,9311580.0,16110.0,578,6.0,17.0,28.0,"['A', 'B', 'C', 'D', 'E', 'F', 'G', 'H']",7259665.0,14960.333333333334,485.2083333333333,33,264,1986/04,35,blank,,False,,,POINT Z (22.2483749 114.1555007 0),22.248374899999998,114.1555007
56,"SOUTH VIEW GARDEN,SHEK PAI WAN RD|南景花園,石排灣道",HA,4385322.0,14502.0,261,4560192.0,14931.0,261,6669362.0,18429.0,406,9.0,18.0,27.0,"['A', 'B', 'C', 'D', 'E', 'F']",5515220.5,16367.72222222222,340.3333333333333,25,150,1995/06,26,blank,,False,,,POINT Z (22.2491127 114.1485465 0),22.249112699999998,114.14854650000001
57,"GROSVENOR COURT(Block 28,Phase 4,SOUTH HORIZONS),28 YI NAM RD|海怡半島,4期,28座(御意居),28 怡南路",HA,8154009.000000001,15711.0,519,8079079.999999999,14824.0,519,13497504.0,18339.0,1485,6.0,16.0,25.0,"['A', 'B', 'C', 'D', 'E', 'EF', 'F', 'G', 'H']",10763602.166666666,16842.458333333332,729.3333333333334,30,270,1995/03,26,SOUTH HORIZONS,海怡半島,True,34.0,9921.0,POINT Z (22.243154 114.150396 0),22.243154,114.150396
58,"JUMBO BLDG,ABERDEEN MAIN RD|珍寶大廈,香港仔大道",HA,5062439.073660415,13222.0,314,5176480.973309144,13587.0,314,6107342.151877404,17801.0,398,8.0,15.0,22.0,"['A', 'B', 'C', 'D']",5569346.305518701,15098.75,356.0,23,92,1988/05,33,blank,,False,,,POINT Z (22.2494217 114.1549433 0),22.2494217,114.1549433
59,"MEI HONG COURT(Block 19,Phase 3,SOUTH HORIZONS),19 SOUTH HORIZON DR|海怡半島,3期,19座(美康閣),19 海怡路",HA,8887760.0,15064.0,589,9097105.0,15445.0,589,15303715.999999998,17157.0,898,8.0,20.0,33.0,"['A', 'B', 'C', 'D', 'E', 'F', 'G', 'H']",11075768.041666666,16337.0,674.5,40,320,1994/02,27,SOUTH HORIZONS,海怡半島,True,34.0,9921.0,POINT Z (22.242928 114.148272 0),22.242928,114.14827199999999
60,"KONG CHEUNG COURT(Block G,ABERDEEN CTR),NAM NING ST|香港仔中心,G座(港昌閣),南寧街",HA,6183393.0,13413.0,450,6430489.0,13949.0,450,8035643.0,14789.0,553,6.0,15.0,24.0,"['1', '2', '3', '4', '5', '6']",6936383.611111111,14214.77777777778,488.0,27,162,1982/01,39,ABERDEEN CTR,香港仔中心,True,20.0,2778.0,POINT Z (22.2487869 114.1538679 0),22.2487869,114.1538679
61,"MANLY HSE,MAIN ST AP LEI CHAU|文麗大樓,鴨利洲大街",HA,3414616.9532957957,6268.0,295,3421375.4825882507,6346.0,295,4078168.8305305303,6731.0,360,6.0,9.0,12.0,"['A', 'B', 'C', 'D', 'E']",3747786.893652493,6495.8,328.0,9,45,1980/01,41,blank,,False,,,POINT Z (22.243704 114.154861 0),22.243704,114.15486100000001
62,"AP LEI CHAU CTR(Block B),LEE CHI RD|鴨利洲中心B座,利枝道",HA,4856320.0,14561.0,320,5029120.0,15353.0,320,7340480.0,16352.0,452,7.0,16.0,25.0,"['1', '2', '3', '4', '5', '6', '7', '8']",5731047.291666667,15627.791666666666,366.7916666666667,27,216,1983/12,38,AP LEI CHAU CTR,鴨利洲中心,True,2.0,400.0,POINT Z (22.243399 114.1532905 0),22.243399,114.1532905
63,"YEE FUNG COURT(Block 11,Phase 2,SOUTH HORIZONS),11 SOUTH HORIZON DR|海怡半島,2期,11座(怡豐閣),11 海怡路",HA,9707442.0,15027.0,631,9708540.0,15265.0,631,25619352.0,20141.0,1272,6.0,17.0,28.0,"['A', 'B', 'C', 'D', 'E', 'EF', 'F', 'G', 'H']",12479502.111111112,16584.074074074073,740.0,33,297,1992/10,29,SOUTH HORIZONS,海怡半島,True,34.0,9921.0,POINT Z (22.244399 114.145846 0),22.244398999999998,114.14584599999999
64,"HOI WAN COURT(Block 4,Phase 1,SOUTH HORIZONS),4 SOUTH HORIZON DR|海怡半島,1期,4座(海韻閣),4 海怡路",HA,9359940.0,15142.0,600,9644623.0,15703.0,600,12296424.0,17594.0,742,7.0,18.0,29.0,"['A', 'B', 'C', 'D', 'E', 'F', 'G', 'H']",10877438.583333334,16330.958333333334,666.75,35,280,1991/11,30,SOUTH HORIZONS,海怡半島,True,34.0,9921.0,POINT Z (22.244454 114.146952 0),22.244454,114.146952
65,"HAPPY VIEW BLDG,MAIN ST AP LEI CHAU|樂景大廈,鴨利洲大街",HA,5285112.0,16088.0,326,5338576.0,16376.0,326,5788800.0,17338.0,335,6.0,12.0,19.0,"['A', 'B', 'C', 'D']",5510259.333333333,16672.666666666668,330.5,20,80,1981/10,40,blank,,False,,,POINT Z (22.2436381 114.153457 0),22.243638100000002,114.153457
66,"SHUN KING COURT,MAIN ST AP LEI CHAU|順景閣,鴨利洲大街",HA,4416720.0,16730.0,264,4465824.0,16916.0,264,5194280.0,18551.0,280,7.0,15.0,22.0,"['A', 'B', 'C']",4807462.222222223,17494.55555555555,274.6666666666667,21,63,1995/11,26,blank,,False,,,POINT Z (22.2442864 114.1566851 0),22.244286399999996,114.1566851
67,"MEI CHEUNG COURT(Block 20,Phase 3,SOUTH HORIZONS),20 SOUTH HORIZON DR|海怡半島,3期,20座(美祥閣),20 海怡路",HA,8920994.0,15146.0,589,9131267.0,15503.0,589,11430408.0,17916.0,640,8.0,20.0,33.0,"['A', 'B', 'C', 'D', 'E', 'F', 'G', 'H']",9987478.916666666,16310.541666666666,612.0,40,320,1994/00,27,SOUTH HORIZONS,海怡半島,True,34.0,9921.0,POINT Z (22.2426274 114.1486498 0),22.242627399999996,114.14864979999999
68,"JING HUI GARDEN(Block 1),ABERDEEN MAIN RD|景惠花園1座,香港仔大道",HA,5382855.0,12773.0,405,5221260.0,12892.0,405,6764780.0,13948.0,485,5.0,12.0,20.0,"['A', 'B', 'C', 'D']",5952188.333333333,13380.333333333334,445.0,24,96,1989/02,32,JING HUI GARDEN,景惠花園,True,2.0,192.0,POINT Z (22.248027 114.1592396 0),22.248027,114.15923959999999
69,"MEI FAI COURT(Block 17,Phase 3,SOUTH HORIZONS),17 SOUTH HORIZON DR|海怡半島,3期,17座(美暉閣),17 海怡路",HA,9695000.0,15224.0,625,10183750.0,15984.0,625,17856730.0,19885.0,898,8.0,20.0,33.0,"['A', 'B', 'C', 'D', 'E', 'F', 'G', 'H']",13586582.0,17649.666666666668,760.875,40,320,1993/12,28,SOUTH HORIZONS,海怡半島,True,34.0,9921.0,POINT Z (22.2429446 114.1475257 0),22.2429446,114.1475257
70,"HOI SING COURT(Block 1,Phase 1,SOUTH HORIZONS),1 SOUTH HORIZON DR|海怡半島,1期,1座(海昇閣),1 海怡路",HA,8447346.0,14169.0,526,8716482.0,15318.0,526,24466320.0,19280.0,1269,8.0,20.0,33.0,"['A', 'AB', 'B', 'C', 'D', 'E', 'F', 'G', 'H']",11161345.148148147,16744.62962962963,660.2222222222222,40,360,1991/11,30,SOUTH HORIZONS,海怡半島,True,34.0,9921.0,POINT Z (22.2450552 114.1479066 0),22.2450552,114.14790659999998
71,"AP LEI CHAU CTR(Block A),LEE CHI RD|鴨利洲中心A座,利枝道",HA,5217280.0,15508.0,320,5025280.0,15704.0,320,7664563.999999999,17689.0,452,7.0,14.0,21.0,"['1', '2', '3', '4', '5', '6', '7', '8']",5964168.791666667,16442.916666666668,363.0,23,184,1983/12,38,AP LEI CHAU CTR,鴨利洲中心,True,2.0,400.0,POINT Z (22.243318 114.152938 0),22.243318,114.15293799999999
72,"HOI FAI MANSION,ABERDEEN MAIN RD|海暉大廈,香港仔大道",HA,7118435.96456967,13765.0,477,7367697.579892779,14247.0,477,7660916.11907992,14814.0,477,5.0,13.0,21.0,"['A', 'B']",7386400.82004669,14283.166666666666,477.0,25,50,1992/09,29,blank,,False,,,POINT Z (22.2473433 114.1575559 0),22.2473433,114.1575559
73,"KA NING MANSION,ABERDEEN MAIN RD|嘉寧大廈,香港仔大道",HA,7639576.764476005,11097.0,635,7866072.281779113,11426.0,635,11027609.9302404,12781.0,830,6.0,13.0,20.0,"['A', 'B', 'C', 'D']",9439114.26769539,11884.833333333334,732.5,23,92,1979/12,42,blank,,False,,,POINT Z (22.2472655 114.1571495 0),22.2472655,114.15714950000002
74,"NGAN FUNG BLDG,ABERDEEN MAIN RD|銀輝大廈,香港仔大道",HA,5338936.7437698655,12627.0,390,5487769.066079756,12979.0,390,5821920.0,14928.0,390,5.0,12.0,20.0,"['A', 'B']",5576132.7240145905,13750.833333333334,390.0,24,48,1988/07,33,blank,,False,,,POINT Z (22.2472004 114.1567315 0),22.247200399999997,114.15673149999999
75,"KA WO BLDG(Block B),KA WO ST|嘉和大廈B座,嘉禾街",HA,4505820.0,13078.0,330,4678740.0,13483.0,330,6666545.0,15064.0,445,6.0,14.0,21.0,"['1', '2', '3', '4', '5', '6', '7', '8']",4928330.208333333,13948.958333333334,353.3333333333333,23,184,1978/05,43,KA WO BLDG,嘉和大廈,True,2.0,360.0,POINT Z (22.2499491 114.1488123 0),22.249949100000002,114.14881229999999
76,"ALBANY COURT(Block 32,Phase 4,SOUTH HORIZONS),32 YI NAM RD|海怡半島,4期,32座(御泉居),32 怡南路",HA,8293810.0,15167.0,526,8499634.0,15446.0,526,11667526.0,16934.0,689,10.0,18.0,26.0,"['A', 'B', 'C', 'D', 'E', 'F', 'G', 'H']",9672090.791666666,16109.333333333334,600.0,25,200,1995/03,26,SOUTH HORIZONS,海怡半島,True,34.0,9921.0,POINT Z (22.2435972 114.1492768 0),22.243597199999996,114.1492768
77,"BERKELEY COURT(Block 33,Phase 4,SOUTH HORIZONS),33 YI NAM RD|海怡半島,4期,33座(御林居),33 怡南路",HA,7914196.0,15046.0,526,8203496.0,15596.0,526,12163606.0,17654.0,689,10.0,18.0,26.0,"['A', 'B', 'C', 'D', 'E', 'F', 'G', 'H']",9836450.625,16346.375,600.0,25,200,1995/03,26,SOUTH HORIZONS,海怡半島,True,34.0,9921.0,POINT Z (22.2425571 114.1494557 0),22.242557100000003,114.1494557
78,"NING FUNG MANSION,MAIN ST AP LEI CHAU|年豐大廈,鴨利洲大街",HA,4462932.0,15826.0,271,4649898.0,16489.0,271,5116890.0,18145.0,287,6.0,12.0,19.0,"['A', 'B', 'C', 'D', 'E', 'F']",4801697.388888889,17151.55555555555,280.0,20,120,1981/08,40,blank,,False,,,POINT Z (22.2442317 114.1568941 0),22.244231699999997,114.15689409999999
79,"OCEAN HSE,OLD MAIN ST ABERDEEN|海洋大廈,香港仔舊大街",HA,4878508.429654281,12640.0,356,5001629.01423179,12959.0,356,5556636.53969404,14397.0,356,5.0,10.0,15.0,"['A', 'B', 'C', 'D']",5310725.856064354,13542.416666666666,361.8333333333333,15,60,1983/08,38,blank,,False,,,POINT Z (22.2478548 114.1561741 0),22.247854800000002,114.15617409999999
80,"KONG TAI COURT(Block H,ABERDEEN CTR),NAM NING ST|香港仔中心,H座(港泰閣),南寧街",HA,5788350.0,12863.0,450,6033600.0,13408.0,450,7881909.0,14436.0,553,6.0,15.0,24.0,"['1', '2', '3', '4', '5', '6']",6638477.277777777,13597.333333333334,488.0,27,162,1981/12,40,ABERDEEN CTR,香港仔中心,True,20.0,2778.0,POINT Z (22.24953 114.153739 0),22.24953,114.15373899999999
81,"JUMBO COURT,WELFARE RD|珍寶閣,惠福道",HA,5703588.0,13688.0,391,5892084.0,13694.0,391,7481622.0,16828.0,1133,8.0,12.0,17.0,"['A', 'B', 'C', 'D', 'E', 'F', 'G', 'H', 'I', 'J', 'J & K & L', 'K', 'L']",6322481.25,14932.138888888889,478.84615384615387,14,182,1979/05,42,blank,,False,,,POINT Z (22.245874 114.164656 0),22.245874,114.16465600000001
82,"SIU KWAN MANSION,OLD MAIN ST ABERDEEN|兆群大廈,香港仔舊大街",HA,5408726.0,17618.0,307,5648186.0,18398.0,307,5900540.0,19220.0,440,6.0,13.0,20.0,"['A', 'B', 'C', 'D']",5652484.0,18412.0,374.75,23,92,1993/10,28,blank,,False,,,POINT Z (22.2488831 114.1561509 0),22.2488831,114.15615090000001
83,"SEAVIEW COURT,ABERDEEN MAIN RD|海光閣,香港仔大道",HA,4811100.0,16037.0,300,4911000.0,16370.0,300,5214600.0,17382.0,300,6.0,14.0,21.0,"['A', 'B']",4980750.0,16602.5,300.0,24,48,1992/07,29,blank,,False,,,POINT Z (22.247766 114.1584036 0),22.247766,114.15840359999999
84,74-76 OLD MAIN ST ABERDEEN|74-76 香港仔舊大街,HA,4731160.0,16897.0,280,4749640.0,16963.0,280,6106786.0,21278.0,287,2.0,3.0,4.0,"['A', 'B', 'C', 'D']",5193834.916666667,18316.25,283.5,5,20,1971/07,50,blank,,False,,,POINT Z (22.2481686 114.1560401 0),22.248168600000003,114.15604009999998
85,"WAI KING MANSION,ABERDEEN MAIN RD|偉景大廈,香港仔大道",HA,6183202.402872944,11592.0,492,6438168.823557319,12070.0,492,7007309.34839043,13137.0,492,7.0,15.0,22.0,"['A', 'B']",6668332.025493108,12501.5,492.0,23,46,1994/07,27,blank,,False,,,POINT Z (22.2478004 114.1585313 0),22.2478004,114.1585313
86,"JING HUI GARDEN(Block 2),ABERDEEN MAIN RD|景惠花園2座,香港仔大道",HA,5176710.0,12394.0,405,5436720.0,13085.0,405,6725980.0,14485.0,485,5.0,12.0,20.0,"['E', 'F', 'G', 'H']",5959283.75,13416.75,445.0,24,96,1989/02,32,JING HUI GARDEN,景惠花園,True,2.0,192.0,POINT Z (22.2481503 114.1595647 0),22.2481503,114.15956470000002
87,"HUNG SHING BLDG,HUNG SHING ST|鴻勝大廈,洪聖街",HA,4021837.9087223136,16561.0,224,4021696.0,16692.0,224,4326200.441506654,18465.0,234,4.0,6.0,9.0,"['A', 'B', 'C']",4135719.2103040046,17248.777777777777,227.33333333333334,10,30,1986/04,35,blank,,False,,,POINT Z (22.2446502 114.1560348 0),22.2446502,114.1560348
88,"MEI KWONG COURT(Block P,ABERDEEN CTR),NAM NING ST|香港仔中心,P座(美光閣),南寧街",HA,8029020.0,14086.0,570,8309460.0,14578.0,570,9119400.0,15199.0,600,7.0,15.0,23.0,"['1', '2', '3', '4', '5', '6']",8628741.666666666,14624.27777777778,590.0,25,150,1981/05,40,ABERDEEN CTR,香港仔中心,True,20.0,2778.0,POINT Z (22.248508 114.1532394 0),22.248507999999998,114.1532394
89,"KA FOOK COURT,KA WO ST|嘉福閣,嘉禾街",HA,8185951.1912891185,11510.0,656,8409980.263856977,11825.0,656,9011120.605307942,12480.0,666,7.0,13.0,19.0,"['A', 'B', 'C']",8448517.554076442,11008.444444444445,662.6666666666666,19,57,1981/07,40,blank,,False,,,POINT Z (22.2496907 114.1489952 0),22.249690700000002,114.1489952
90,"YEN CHING BLDG,MAIN ST AP LEI CHAU|仁正大廈,鴨利洲大街",HA,4581732.78929072,14087.0,260,4463343.441998761,13723.0,260,7221912.807539277,14803.0,450,4.0,10.0,17.0,"['A', 'B', 'C', 'D']",5422329.679609586,14204.333333333334,293.75,19,76,1985/03,36,blank,,False,,,POINT Z (22.243637 114.1551291 0),22.243637,114.1551291
91,"ON TAI BLDG,WU NAM ST|安泰大廈,湖南街",HA,4269440.0,15248.0,275,4363800.0,15585.0,275,5133000.0,17700.0,290,8.0,13.0,18.0,"['A', 'B', 'C']",4669766.111111111,16571.55555555556,281.6666666666667,17,51,1984/02,37,blank,,False,,,POINT Z (22.2478262 114.1555239 0),22.2478262,114.1555239
92,"FORTUNE MANSION,MAIN ST AP LEI CHAU|利是大廈,鴨利洲大街",HA,5702687.0,13843.0,409,5852790.0,14211.0,409,6561587.0,16043.0,442,5.0,12.0,19.0,"['A', 'B', 'C', 'D', 'E', 'F']",6129590.222222223,14487.555555555557,423.3333333333333,23,138,1987/03,34,blank,,False,,,POINT Z (22.2439544 114.1559535 0),22.2439544,114.1559535
93,"TSUNG MAN COURT,TSUNG MAN ST|崇文閣,崇文街",HA,3402595.552681628,5931.0,328,3417030.011254516,6219.0,328,3611039.0239137565,9735.0,330,3.0,4.0,5.0,"['A', 'B', 'C']",3490416.0435043056,7298.333333333333,329.1111111111111,5,15,1976/01,45,blank,,False,,,POINT Z (22.249956 114.1547343 0),22.249956,114.15473429999999
94,"COMMAND TOWER,MAIN ST AP LEI CHAU|僑民大廈,鴨利洲大街",HA,4839230.0,13483.0,319,4949923.0,13844.0,319,6191355.0,16175.0,435,6.0,12.0,19.0,"['1', '2', '3', '4']",5435186.583333333,14910.166666666666,367.0,20,80,1986/08,35,blank,,False,,,POINT Z (22.243347 114.1542002 0),22.243347,114.1542002
95,"TUNG NAM BLDG,MAIN ST AP LEI CHAU|東南大廈,鴨利洲大街",HA,5246269.579491381,9995.0,396,4956394.104964504,9325.0,396,5780132.209708167,12730.0,420,4.0,7.0,10.0,"['A', 'B', 'C', 'D']",5452190.760435952,11303.583333333334,404.75,9,36,1980/12,41,blank,,False,,,POINT Z (22.243859 114.1546879 0),22.243859,114.1546879
96,"ROUSSEAU HEIGHTS,MAIN ST AP LEI CHAU|亨利閣,鴨利洲大街",HA,4484148.309897413,12845.0,322,4542447.474377979,13012.0,322,4776660.0,14049.0,340,5.0,8.0,10.0,"['A', 'B']",4632720.650986003,13451.833333333334,331.0,8,16,1973/09,48,blank,,False,,,POINT Z (22.2444894 114.1573353 0),22.244489399999996,114.15733529999999
97,"WAH LEE BLDG,TSUNG MAN ST|華利大廈,崇文街",HA,4908604.476181979,9391.0,400,5041304.623696043,9644.0,400,5046891.135181576,12100.0,380,6.0,12.0,17.0,"['A', 'B']",5012320.112584755,10683.166666666666,393.3333333333333,18,36,1978/12,43,blank,,False,,,POINT Z (22.2497883 114.1555239 0),22.2497883,114.1555239
98,"SZE HEI BLDG,SHEK PAI WAN RD|四喜大廈,石排灣道",HA,3893394.0,12282.0,315,3991663.9999999995,12592.0,315,4512375.0,14325.0,317,7.0,12.0,18.0,"['A', 'B', 'C']",4248976.111111112,13462.11111111111,315.6666666666667,18,54,1975/05,46,blank,,False,,,POINT Z (22.2488626 114.1489285 0),22.248862600000002,114.1489285
99,"YEE HING BLDG,MAIN ST AP LEI CHAU|怡慶大廈,鴨利洲大街",HA,5098560.0,14888.0,320,5224640.0,15314.0,320,5729920.0,17906.0,349,6.0,12.0,19.0,"['A', 'B', 'C', 'D']",5386713.666666667,16371.22222222222,334.5,22,88,1985/05,36,blank,,False,,,POINT Z (22.2435543 114.1538518 0),22.2435543,114.1538518
100,"KAM TSEUK MANSION,KA WO ST|金爵大廈,嘉禾街",HA,4129136.385842141,14054.0,271,3897010.883977706,10849.0,271,4522835.173164503,15394.0,271,5.0,7.0,9.0,"['A', 'B']",4231838.198892484,13595.166666666666,271.0,7,14,1980/11,41,blank,,False,,,POINT Z (22.2494804 114.148882 0),22.249480399999996,114.148882
101,"KONG WING COURT(Block I,ABERDEEN CTR),NAM NING ST|香港仔中心,I座(港榮閣),南寧街",HA,6009596.0,13036.0,450,6258075.0,13575.0,450,6828000.0,14508.0,480,6.0,15.0,24.0,"['1', '2', '3', '4', '5', '6']",6389223.555555556,13782.88888888889,463.6666666666667,27,162,1981/12,40,ABERDEEN CTR,香港仔中心,True,20.0,2778.0,POINT Z (22.2493534 114.1538518 0),22.249353399999997,114.1538518
102,"KAM FAT BLDG,LEE CHI RD|金發大廈,利枝道",HA,6196844.0,16021.0,386,6443498.0,16631.0,386,7935765.999999999,17640.0,458,6.0,14.0,23.0,"['A', 'B', 'C', 'D', 'E', 'F']",6935704.833333333,16743.94444444444,414.3333333333333,28,168,1986/08,35,blank,,False,,,POINT Z (22.2436059 114.1526907 0),22.2436059,114.15269070000001
103,"HOI CHUN COURT(Block A,Phase 4,ABERDEEN CTR),4 NAM NING ST|香港仔中心,4期,A座(海珍閣),4 南寧街",HA,6525200.0,14486.0,440,6383080.0,14507.0,440,9453450.0,16585.0,570,6.0,14.0,23.0,"['1', '2', '3', '4', '5', '6']",7489110.555555555,15485.27777777778,483.3333333333333,26,156,1979/12,42,ABERDEEN CTR,香港仔中心,True,20.0,2778.0,POINT Z (22.2482557 114.1544556 0),22.2482557,114.15445559999999
104,"MEI FUNG COURT(Block R,ABERDEEN CTR),NAM NING ST|香港仔中心,R座(美豐閣),南寧街",HA,9326807.512914505,9773.0,685,9633152.055188684,10094.0,685,12028556.420011707,12604.0,720,7.0,15.0,23.0,"['1', '2', '3', '4']",10550916.45275659,11693.11111111111,700.0,25,100,1981/05,40,ABERDEEN CTR,香港仔中心,True,20.0,2778.0,POINT Z (22.2481257 114.1533409 0),22.2481257,114.1533409
105,"KWUN HOI COURT(Block S,Phase 3,ABERDEEN CTR),5 NAM NING ST|香港仔中心,3期,S座(觀海閣),5 南寧街",HA,10165590.205649655,12671.0,715,10589992.164357623,13200.0,715,11759249.591595514,14935.0,750,7.0,16.0,24.0,"['1', '2', '3']",10936967.032183783,13876.77777777778,727.2222222222223,25,75,1981/06,40,ABERDEEN CTR,香港仔中心,True,20.0,2778.0,POINT Z (22.2479071 114.1541769 0),22.247907100000003,114.15417690000001
106,"HOI LUNG COURT(Block N,Phase 5,ABERDEEN CTR),6 NAM NING ST|香港仔中心,5期,N座(海龍閣),6 南寧街",HA,6128760.0,13929.0,440,6342600.0,14415.0,440,8760330.0,16144.0,570,6.0,14.0,23.0,"['1', '2', '3', '4', '5', '6']",7220472.777777777,14961.666666666666,483.3333333333333,26,156,1979/12,42,ABERDEEN CTR,香港仔中心,True,20.0,2778.0,POINT Z (22.2483157 114.1537136 0),22.2483157,114.15371359999999
107,"YEE TIAM BLDG,KA WO ST|益添大廈,嘉禾街",HA,4310870.0,11652.0,305,4402065.0,12322.0,305,5022895.0,14725.0,355,8.0,13.0,18.0,"['A', 'B', 'C']",4645641.701845867,13427.111111111111,338.3333333333333,16,48,1979/04,42,blank,,False,,,POINT Z (22.2495822 114.1487891 0),22.2495822,114.14878909999999
108,"HOI WU COURT(Block D,Phase 4,ABERDEEN CTR),14 NAM NING ST|香港仔中心,4期,D座(海湖閣),14 南寧街",HA,6244920.0,14193.0,440,6476800.0,14720.0,440,9184980.0,16114.0,570,6.0,14.0,23.0,"['1', '2', '3', '4', '5', '6']",7265797.777777777,14994.27777777778,483.3333333333333,26,156,1979/12,42,ABERDEEN CTR,香港仔中心,True,20.0,2778.0,POINT Z (22.2485926 114.1545448 0),22.248592600000002,114.15454479999998
109,"HOI TSING COURT(Block K,Phase 5,ABERDEEN CTR),12 NAM NING ST|香港仔中心,5期,K座(海晶閣),12 南寧街",HA,5973880.0,13017.0,440,6172760.0,13518.0,440,9430166.85544794,15260.0,570,6.0,14.0,23.0,"['1', '2', '3', '4', '5', '6']",7304476.303284728,14066.77777777778,483.3333333333333,26,156,1979/12,42,ABERDEEN CTR,香港仔中心,True,20.0,2778.0,POINT Z (22.2483157 114.1537136 0),22.2483157,114.15371359999999
110,"KA WO BLDG(Block A),KA WO ST|嘉和大廈A座,嘉禾街",HA,4388340.0,13220.0,330,4560930.0,13482.0,330,6565085.0,15409.0,445,6.0,13.0,20.0,"['1', '2', '3', '4', '5', '6', '7', '8']",4992136.666666667,14342.333333333334,348.5416666666667,22,176,1978/05,43,KA WO BLDG,嘉和大廈,True,2.0,360.0,POINT Z (22.249981 114.148647 0),22.249981,114.148647
111,"HOI TIN COURT(Block M,Phase 5,ABERDEEN CTR),8 NAM NING ST|香港仔中心,5期,M座(海天閣),8 南寧街",HA,6126120.0,13923.0,440,6354480.0,14442.0,440,9102330.0,15969.0,570,6.0,14.0,23.0,"['1', '2', '3', '4', '5', '6']",7191168.333333333,14848.777777777776,483.3333333333333,26,156,1979/12,42,ABERDEEN CTR,香港仔中心,True,20.0,2778.0,POINT Z (22.2483157 114.1537136 0),22.2483157,114.15371359999999
112,"HOI SHAN COURT(Block C,Phase 4,ABERDEEN CTR),16 NAM NING ST|香港仔中心,4期,C座(海珊閣),16 南寧街",HA,6081680.0,13822.0,440,6332040.0,14391.0,440,8841840.0,15512.0,570,6.0,14.0,23.0,"['1', '2', '3', '4', '5', '6']",7088583.888888889,14648.0,483.3333333333333,26,156,1979/12,42,ABERDEEN CTR,香港仔中心,True,20.0,2778.0,POINT Z (22.2485899 114.1545485 0),22.2485899,114.1545485
113,"KWUN KING COURT(Block U,Phase 3,ABERDEEN CTR),1 NAM NING ST|香港仔中心,3期,U座(觀景閣),1 南寧街",HA,10137087.861873964,12467.0,740,11838121.615546886,14559.0,740,12417940.0,16781.0,750,7.0,16.0,24.0,"['1', '2', '3']",11572419.404193366,14796.944444444445,746.6666666666666,25,75,1981/06,40,ABERDEEN CTR,香港仔中心,True,20.0,2778.0,POINT Z (22.247878 114.154547 0),22.247878,114.154547
114,"HOI CHU COURT(Block B,Phase 4,ABERDEEN CTR),2 NAM NING ST|香港仔中心,4期,B座(海珠閣),2 南寧街",HA,6152960.0,13984.0,440,6451280.0,14662.0,440,8802510.0,15493.0,570,6.0,14.0,23.0,"['1', '2', '3', '4', '5', '6']",7178886.111111112,14838.0,483.3333333333333,26,156,1979/12,42,ABERDEEN CTR,香港仔中心,True,20.0,2778.0,POINT Z (22.248411 114.154576 0),22.248410999999997,114.154576
115,"SHUN LEE BLDG,MAIN ST AP LEI CHAU|順利大廈,鴨利洲大街",HA,4324057.073927933,11769.0,321,4313294.701669992,11815.0,318,4809716.846647235,12575.0,374,3.0,4.0,5.0,"['1', '2', '3', '4', '5']",4628602.177830257,12027.866666666669,355.3333333333333,5,25,1981/03,40,blank,,False,,,POINT Z (22.2437066 114.1542698 0),22.243706600000003,114.15426979999998
116,"HOI YING COURT(Block L,Phase 5,ABERDEEN CTR),10 NAM NING ST|香港仔中心,5期,L座(海瑩閣),10 南寧街",HA,5974320.0,13578.0,440,6329840.0,14386.0,440,9036780.0,15854.0,570,6.0,14.0,23.0,"['1', '2', '3', '4', '5', '6']",7205535.555555556,14768.22222222222,483.3333333333333,26,156,1979/12,42,ABERDEEN CTR,香港仔中心,True,20.0,2778.0,POINT Z (22.2485544 114.1537173 0),22.2485544,114.1537173
117,"NGAN ON HSE(Block A,YUE ON COURT),YUE ON COURT RD|漁安苑,A座(銀安閣),漁安苑道",HA,5582038.0,11902.0,469,5877039.0,12531.0,469,6810552.0,13806.0,504,7.0,18.0,29.0,"['1', '2', '3', '4', '5', '6', '7', '8']",6140633.791666667,12694.708333333334,483.75,35,280,1988/08,33,YUE ON COURT,漁安苑,True,7.0,1904.0,POINT Z (22.2430112 114.1563367 0),22.243011199999998,114.15633670000001
118,"YEN SHING MANSION,SHEK PAI WAN RD|仁勝大廈,石排灣道",HA,4085050.4479458025,12993.0,290,4154219.3156859754,13213.0,290,4790654.210260472,15603.0,295,4.0,10.0,16.0,"['A', 'B', 'C', 'D']",4416040.604039062,14275.666666666666,292.5,19,76,1988/02,33,blank,,False,,,POINT Z (22.2494766 114.1480764 0),22.2494766,114.1480764
119,"PIK ON HSE(Block C,YUE ON COURT),YUE ON COURT RD|漁安苑,C座(碧安閣),漁安苑道",HA,6076364.0,12770.0,469,6270999.0,12979.0,469,7044912.0,14175.0,504,8.0,18.0,29.0,"['1', '2', '3', '4', '5', '6', '7', '8']",6486447.083333333,13414.166666666666,483.75,34,272,1988/08,33,YUE ON COURT,漁安苑,True,7.0,1904.0,POINT Z (22.2427365 114.1569436 0),22.2427365,114.1569436
120,"TSE ON HSE(Block D,YUE ON COURT),YUE ON COURT RD|漁安苑,D座(紫安閣),漁安苑道",HA,6167350.0,13150.0,469,6326810.0,13490.0,469,7333868.0,14876.0,504,7.0,18.0,29.0,"['1', '2', '3', '4', '5', '6', '7', '8']",6703004.583333333,13854.958333333334,483.75,33,264,1988//1,33,YUE ON COURT,漁安苑,True,7.0,1904.0,POINT Z (22.2427365 114.1569436 0),22.2427365,114.1569436
121,"HAR ON HSE(Block E,YUE ON COURT),YUE ON COURT RD|漁安苑,E座(霞安閣),漁安苑道",HA,6202525.0,12842.0,469,6385435.0,13268.0,469,7099344.0,14524.0,504,8.0,18.0,29.0,"['1', '2', '3', '4', '5', '6', '7', '8']",6600236.541666667,13648.083333333334,483.75,34,272,1988/10,33,YUE ON COURT,漁安苑,True,7.0,1904.0,POINT Z (22.2427365 114.1569436 0),22.2427365,114.1569436
122,"CHOI ON HSE(Block B,YUE ON COURT),YUE ON COURT RD|漁安苑,B座(彩安閣),漁安苑道",HA,5997572.0,12788.0,469,6247549.0,13321.0,469,6808032.0,13969.0,504,8.0,18.0,29.0,"['1', '2', '3', '4', '5', '6', '7', '8']",6501316.875,13440.875,483.75,34,272,1988/00,33,YUE ON COURT,漁安苑,True,7.0,1904.0,POINT Z (22.243183 114.156574 0),22.243183,114.15657399999999
123,"SHAN ON HSE(Block F,YUE ON COURT),YUE ON COURT RD|漁安苑,F座(珊安閣),漁安苑道",HA,6055728.0,12912.0,469,6340411.0,13519.0,469,7065072.0,14494.0,504,7.0,18.0,29.0,"['1', '2', '3', '4', '5', '6', '7', '8']",6627161.916666667,13700.583333333334,483.75,35,280,1988/10,33,YUE ON COURT,漁安苑,True,7.0,1904.0,POINT Z (22.2429922 114.1573339 0),22.2429922,114.15733390000001
124,"WU ON HSE(Block G,YUE ON COURT),YUE ON COURT RD|漁安苑,G座(瑚安閣),漁安苑道",HA,5892516.0,11854.0,469,6124671.0,12641.0,469,7017855.0,14679.0,504,7.0,19.0,30.0,"['1', '2', '3', '4', '5', '6', '7', '8']",6364271.125,13166.5,483.75,33,264,1988//0,33,YUE ON COURT,漁安苑,True,7.0,1904.0,POINT Z (22.2429797 114.1563056 0),22.2429797,114.15630559999998
125,122 MAIN ST AP LEI CHAU|122 鴨利洲大街,HA,,,529,,,512,,,490,3.0,4.0,5.0,['whole floor'],,,510.3333333333333,3,3,1967/04,54,blank,,False,,,POINT Z (22.2439202 114.1552265 0),22.243920199999998,114.15522649999998
126,"BAYSHORE APT,ABERDEEN MAIN RD|海峰華軒,香港仔大道",HA,6885480.0,13297.0,490,7518560.0,14088.0,490,8778756.0,16894.0,575,7.0,20.0,34.0,"['50 UNIT', 'A', 'B', 'C', 'D']",7872889.399999999,15081.4,523.8,38,190,2000/10,21,blank,,False,,,POINT Z (22.2484356 114.1517849 0),22.248435600000004,114.15178490000001
127,"KWUN CHIU COURT(Block T,Phase 3,ABERDEEN CTR),3 NAM NING ST|香港仔中心,3期,T座(觀潮閣),3 南寧街",HA,11144362.208719071,13710.0,740,11529951.542582242,14180.0,740,12141413.006617632,14932.0,750,8.0,16.0,24.0,"['1', '2', '3']",11621256.375379771,14356.333333333334,746.6666666666666,22,66,1981/06,40,ABERDEEN CTR,香港仔中心,True,20.0,2778.0,POINT Z (22.2477907 114.1543627 0),22.2477907,114.15436270000001
128,"WATERFRONT SOUTH(Block 2),YUE WOK ST|港麗豪園2座,漁獲街",HA,6806590.0,13891.0,490,6684090.0,13641.0,490,7240240.0,14776.0,635,10.0,20.0,30.0,"['A', 'B', 'C', 'D']",7343842.5,14261.25,562.5,29,116,1999/06,22,WATERFRONT SOUTH,港麗豪園,True,2.0,236.0,POINT Z (22.2490595 114.1479531 0),22.2490595,114.1479531
129,"WATERFRONT SOUTH(Block 1),YUE WOK ST|港麗豪園1座,漁獲街",HA,6962410.0,13483.0,490,7275030.0,13945.0,490,9507080.0,15527.0,620,10.0,20.0,31.0,"['A', 'B', 'C', 'D']",8033618.083333333,14531.916666666666,554.25,30,120,1999/06,22,WATERFRONT SOUTH,港麗豪園,True,2.0,236.0,POINT Z (22.2492631 114.1477673 0),22.249263100000004,114.1477673
130,"SOUTH WAVE COURT(Block 3),SHUM WAN RD|南濤閣3座,深灣道",HA,4562300.0,10205.0,430,4782030.0,10651.0,430,6571473.0,11774.0,590,7.0,18.0,29.0,"['A', 'B', 'C', 'D', 'E', 'F', 'G', 'H', 'J', 'K']",5498220.444444444,11010.333333333334,536.2,30,300,1995/10,26,SOUTH WAVE COURT,南濤閣,True,3.0,980.0,POINT Z (22.2448246 114.1660206 0),22.2448246,114.1660206
131,"SOUTH WAVE COURT(Block 1),SHUM WAN RD|南濤閣1座,深灣道",HA,4572190.0,10592.0,430,4813420.0,10878.0,430,7083903.0,12027.0,590,7.0,18.0,28.0,"['A', 'B', 'C', 'D', 'E', 'F', 'G', 'H', 'J', 'K']",6027127.699999999,11222.166666666666,536.2,34,340,1995/10,26,SOUTH WAVE COURT,南濤閣,True,3.0,980.0,POINT Z (22.2444541 114.1658813 0),22.244454100000002,114.16588130000001
132,"SOUTH WAVE COURT(Block 2),SHUM WAN RD|南濤閣2座,深灣道",HA,4558430.0,9006.0,430,4442278.377732436,9417.0,430,6681777.6727926945,11769.0,590,8.0,18.0,29.0,"['A', 'B', 'C', 'D', 'E', 'F', 'G', 'H', 'J', 'K']",5638109.806562554,9843.62962962963,536.2,34,340,1995/10,26,SOUTH WAVE COURT,南濤閣,True,3.0,980.0,POINT Z (22.2449078 114.1664619 0),22.2449078,114.1664619
133,"TOHO COURT,PING LAN ST|東寶閣,平瀾街",HA,4990696.430183327,13460.0,319,5202782.4894749215,14032.0,319,5542944.0,17376.0,342,7.0,14.0,20.0,"['A', 'B']",5274638.666134786,15409.666666666666,330.5,20,40,1989/04,32,blank,,False,,,POINT Z (22.2447094 114.1571147 0),22.244709399999998,114.15711470000001
134,"FUNG KING COURT(Block 29,Phase 4,SOUTH HORIZONS),29 YI NAM RD|海怡半島,4期,29座(豐景閣),29 怡南路",HA,8199524.999999999,15045.0,528,8500272.0,15802.0,528,12009270.0,17837.0,689,8.0,16.0,25.0,"['A', 'B', 'C', 'D', 'E', 'F', 'G', 'H']",9926376.333333334,16382.083333333334,604.5,26,208,1994/12,27,SOUTH HORIZONS,海怡半島,True,34.0,9921.0,POINT Z (22.243803 114.150128 0),22.243803,114.15012800000001
135,"YUK FAI HSE(Block A,Phase 1,YUE FAI COURT),45 YUE KWONG RD|漁暉苑,1期,A座(旭暉閣),45 漁光道",HA,5149056.0,13338.0,384,5361024.0,13380.0,384,6059578.0,14894.0,419,5.0,14.0,23.0,"['1', '2', '3', '4', '5', '6', '7', '8']",5557295.791666667,13849.625,401.5,29,232,1980/04,41,YUE FAI COURT,漁暉苑,True,6.0,1320.0,POINT Z (22.248283 114.156683 0),22.248282999999997,114.156683
136,"KING FAI HSE(Block E,Phase 1,YUE FAI COURT),45 YUE KWONG RD|漁暉苑,1期,E座(景暉閣),45 漁光道",HA,5163264.0,13446.0,384,5545344.0,13994.0,384,6207066.0,15495.0,419,5.0,14.0,23.0,"['1', '2', '3', '4', '5', '6', '7', '8']",5783844.541666667,14411.5,401.5,27,216,1980/08,41,YUE FAI COURT,漁暉苑,True,6.0,1320.0,POINT Z (22.2499061 114.156947 0),22.2499061,114.156947
137,"YAT FAI HSE(Block B,Phase 1,YUE FAI COURT),45 YUE KWONG RD|漁暉苑,1期,B座(日暉閣),45 漁光道",HA,4889088.0,12732.0,384,5408256.0,13555.0,384,6087168.0,15852.0,419,6.0,14.0,23.0,"['1', '2', '3', '4', '5', '6', '7', '8']",5673750.708333333,14150.333333333334,401.5,28,224,1980/04,41,YUE FAI COURT,漁暉苑,True,6.0,1320.0,POINT Z (22.2486357 114.1566154 0),22.248635699999998,114.1566154
138,"TIN FAI HSE(Block F,Phase 2,YUE FAI COURT),45 YUE KWONG RD|漁暉苑,2期,F座(天暉閣),45 漁光道",HA,5343744.0,13287.0,384,5442816.0,13295.0,384,5988348.0,15065.0,419,5.0,14.0,22.0,"['1', '2', '3', '4', '5', '6', '7', '8']",5638593.25,14058.416666666666,401.5,28,224,1981/03,40,YUE FAI COURT,漁暉苑,True,6.0,1320.0,POINT Z (22.2505287 114.1566386 0),22.250528699999997,114.1566386
139,"BROADVIEW COURT(Block 4),SHUM WAN RD|雅濤閣4座,深灣道",HA,5084678.0,11212.0,422,5204526.0,11912.0,422,7875473.0,13889.0,591,7.0,20.0,33.0,"['A', 'B', 'C', 'D', 'E', 'F', 'G', 'H', 'J', 'K']",6695361.025925927,12754.407407407407,527.2,37,370,2001/07,20,BROADVIEW COURT,雅濤閣,True,4.0,1510.0,POINT Z (22.2423903 114.1659742 0),22.2423903,114.16597420000001
140,"ON FAI HSE(Block D,Phase 1,YUE FAI COURT),45 YUE KWONG RD|漁暉苑,1期,D座(安暉閣),45 漁光道",HA,5174016.0,12782.0,384,5386368.0,13131.0,384,6174384.0,15108.0,419,6.0,14.0,23.0,"['1', '2', '3', '4', '5', '6', '7', '8']",5587000.958333333,13933.833333333334,401.5,26,208,1980/08,41,YUE FAI COURT,漁暉苑,True,6.0,1320.0,POINT Z (22.2499061 114.156947 0),22.2499061,114.156947
141,"KINGSTON MANSION,HUNG SHING ST|金利豐大廈,洪聖街",HA,8195022.999999999,14873.0,551,8469972.0,15372.0,551,8766961.0,15911.0,551,8.0,16.0,22.0,"['A', 'B']",8488889.666666666,15406.333333333334,551.0,20,40,9999,-7978,blank,,False,,,POINT Z (22.2439014 114.1563599 0),22.2439014,114.15635990000001
142,"TIN WAN COURT,TIN WAN ST|田灣畔,田灣街",HA,5612757.643746863,12207.0,423,5827839.213721313,12708.0,423,8173112.668847438,13438.0,561,7.0,16.0,23.0,"['A', 'B', 'C', 'D']",6758313.750408427,12964.083333333334,492.0,24,96,9999,-7978,blank,,False,,,POINT Z (22.2499634 114.1492768 0),22.2499634,114.1492768
143,"SHAM WAN TOWERS(Block 2),AP LEI CHAU DR|深灣軒2座,鴨利洲徑",HA,8099427.000000001,16536.0,476,8523060.0,17394.0,476,23523920.0,24004.0,980,13.0,29.0,45.0,"['A', 'AB', 'B', 'C', 'D', 'E', 'F', 'G', 'H']",10570890.518518517,18994.560185185186,564.7777777777778,43,387,2004/04,17,SHAM WAN TOWERS,深灣軒,True,3.0,1127.0,POINT Z (22.2438379 114.1588448 0),22.2438379,114.15884479999998
144,"SHAM WAN TOWERS(Block 1),AP LEI CHAU DR|深灣軒1座,鴨利洲徑",HA,7936040.000000001,16196.0,483,8150170.0,16633.0,483,11357247.0,19919.0,591,13.0,29.0,45.0,"['A', 'B', 'C', 'D', 'E', 'F', 'G', 'H']",9045481.666666666,18054.375,501.125,43,344,2004/04,17,SHAM WAN TOWERS,深灣軒,True,3.0,1127.0,POINT Z (22.243799 114.1588541 0),22.243799,114.1588541
145,"SHAM WAN TOWERS(Block 3),AP LEI CHAU DR|深灣軒3座,鴨利洲徑",HA,8702144.0,16832.0,502,8965725.0,17275.0,502,23353155.0,22695.0,1029,14.0,30.0,46.0,"['A', 'AB', 'B', 'C', 'D', 'E', 'F', 'G', 'H']",11763709.185185185,19086.55555555556,606.3333333333334,44,396,2004/03,17,SHAM WAN TOWERS,深灣軒,True,3.0,1127.0,POINT Z (22.243799 114.1588541 0),22.243799,114.1588541
146,"BROADVIEW COURT(Block 1),SHUM WAN RD|雅濤閣1座,深灣道",HA,5434094.0,11826.0,422,5322686.0,12460.0,422,8307096.0,14297.0,591,7.0,20.0,32.0,"['A', 'B', 'C', 'D', 'E', 'F', 'G', 'H', 'J', 'K']",7052678.866666667,13364.333333333334,527.2,38,380,2001/07,20,BROADVIEW COURT,雅濤閣,True,4.0,1510.0,POINT Z (22.2431797 114.164697 0),22.2431797,114.164697
147,"MEI FAI HSE(Block C,Phase 1,YUE FAI COURT),45 YUE KWONG RD|漁暉苑,1期,C座(美暉閣),45 漁光道",HA,5037401.678180924,12100.0,384,5185193.2150201155,12344.0,384,6062092.0,14468.0,419,5.0,14.0,23.0,"['1', '2', '3', '4', '5', '6', '7', '8']",5510267.448882192,12975.5,401.5,27,216,1980/08,41,YUE FAI COURT,漁暉苑,True,6.0,1320.0,POINT Z (22.2499061 114.156947 0),22.2499061,114.156947
148,"BROADVIEW COURT(Block 3),SHUM WAN RD|雅濤閣3座,深灣道",HA,5426920.0,10760.0,422,5646782.0,11392.0,422,8049024.0,14305.0,591,7.0,20.0,33.0,"['A', 'B', 'C', 'D', 'E', 'F', 'G', 'H', 'J', 'K']",6722024.466666666,12823.766666666668,527.2,39,390,2001/07,20,BROADVIEW COURT,雅濤閣,True,4.0,1510.0,POINT Z (22.2427721 114.1656259 0),22.242772100000003,114.16562590000001
149,"OCEAN COURT(Block 2),ABERDEEN PRAYA RD|逸港居2座,香港仔海傍道",HA,4836237.361422472,9554.0,431,5028752.317258806,9982.0,431,8032990.419945456,12516.0,592,8.0,18.0,27.0,"['A', 'B', 'C', 'D', 'E']",6233313.549046633,10883.733333333332,527.6,25,125,1999/12,22,OCEAN COURT,逸港居,True,3.0,418.0,POINT Z (22.2473548 114.1592164 0),22.2473548,114.1592164
150,"LEE FAT MANSION,MAIN ST AP LEI CHAU|利發大廈,鴨利洲大街",HA,5618702.0465966975,12860.0,401,5724871.921971736,13103.0,401,5998608.258129239,13798.0,403,5.0,10.0,17.0,"['A', 'B']",5799690.66472889,13307.666666666666,402.0,18,36,1982/06,39,blank,,False,,,POINT Z (22.2440186 114.1550594 0),22.2440186,114.1550594
151,"OCEAN COURT(Block 3),ABERDEEN PRAYA RD|逸港居3座,香港仔海傍道",HA,5014685.0,10825.0,431,5233202.0,11495.0,431,7582336.0,12808.0,592,8.0,18.0,27.0,"['A', 'B', 'C', 'D', 'E', 'F']",6566514.111111111,12005.777777777776,547.1666666666666,28,168,1999/12,22,OCEAN COURT,逸港居,True,3.0,418.0,POINT Z (22.2474854 114.159495 0),22.2474854,114.15949499999999
152,"OCEAN COURT(Block 1),ABERDEEN PRAYA RD|逸港居1座,香港仔海傍道",HA,4655941.313687247,8150.0,431,4847320.49651979,8485.0,431,7095105.018760529,11289.0,592,8.0,17.0,26.0,"['A', 'B', 'C', 'D', 'E']",5889065.3260077275,9373.733333333335,516.0,25,125,1999/12,22,OCEAN COURT,逸港居,True,3.0,418.0,POINT Z (22.2472388 114.1588448 0),22.2472388,114.15884479999998
153,"BROADVIEW COURT(Block 2),SHUM WAN RD|雅濤閣2座,深灣道",HA,5323530.0,10490.0,422,5359880.0,10775.0,422,7941887.999999999,14149.0,591,7.0,20.0,32.0,"['A', 'B', 'C', 'D', 'E', 'F', 'G', 'H', 'J', 'K']",6368006.0,12147.4,527.2,37,370,2001/07,20,BROADVIEW COURT,雅濤閣,True,4.0,1510.0,POINT Z (22.2429469 114.1650685 0),22.2429469,114.1650685
154,8 PING LAN ST|8 平瀾街,HA,6285338.0,20017.0,314,6285338.0,20017.0,314,6622260.0,21090.0,314,2.0,3.0,4.0,['whole floor'],6397645.333333333,20374.666666666668,314.0,5,5,1964/10,57,blank,,False,,,POINT Z (22.2447677 114.1568694 0),22.2447677,114.15686940000002
155,"HUNG FUK COURT(Block B),TIN WAN NEW ST|鴻褔苑B座,田灣新街",HA,3577770.0,8726.0,405,3787560.0000000005,8683.0,405,5881110.0,9919.0,645,8.0,19.0,29.0,"['1', '10', '2', '3', '4', '5', '6', '8', '9']",4728976.148148148,9305.703703703703,509.6666666666667,31,279,1997/11,24,HUNG FUK COURT,鴻褔苑,True,2.0,549.0,POINT Z (22.251137 114.150695 0),22.251137,114.150695
156,"MAN KING BLDG,HING WO ST|萬景樓,興和街",HA,5767320.0,11091.0,520,5898880.0,11344.0,520,6030440.0,11597.0,584,8.0,13.0,18.0,"['A', 'B', 'C']",5596593.847807798,10534.5,537.2222222222222,17,51,1974/06,47,blank,,False,,,POINT Z (22.2498335 114.1478834 0),22.249833499999998,114.1478834
157,"JADEWATER,ABERDEEN MAIN RD|南灣御園,香港仔大道",HA,7705856.0,14749.0,496,8137872.0,15326.0,496,11629435.0,16733.0,695,12.0,26.0,38.0,"['A', 'B', 'C', 'D', 'E']",9463653.8,16000.266666666668,591.0,36,180,2008/04,13,blank,,False,,,POINT Z (22.2484894 114.1523025 0),22.248489399999997,114.15230249999999
158,"LEE FAT MANSION,ABERDEEN MAIN RD|利發大廈,香港仔大道",HA,,,280,,,280,,,354,3.0,4.0,5.0,"['A', 'B', 'C']",,,329.3333333333333,3,9,1971/05,50,blank,,False,,,POINT Z (22.250331 114.153841 0),22.250331,114.15384099999999
159,"SUN MING BLDG,SHAN MING ST|新明大樓,山明街",HA,6385216.0,17261.0,356,6421172.0,17527.0,356,10294480.0,18383.0,560,2.0,4.0,6.0,"['A', 'B', 'C', 'D', 'E', 'F']",7978229.388888889,17875.833333333332,445.8333333333333,7,42,1966/03,55,blank,,False,,,POINT Z (22.2443331 114.1573585 0),22.244333100000002,114.1573585
160,17 HUNG SHING ST|17 洪聖街,HA,,,279,,,279,,,378,3.0,4.0,6.0,"['B', 'C', 'D']",,,317.6666666666667,6,18,1968/03,53,blank,,False,,,POINT Z (22.2444566 114.1559128 0),22.244456600000003,114.1559128
161,"HUNG LAI HSE(Block A,HUNG FUK COURT),TIN WAN NEW ST|鴻褔苑,A座(鴻麗閣),田灣新街",HA,3620295.0,8860.0,405,3792015.0000000005,8595.0,405,6164910.0,9876.0,645,10.0,20.0,29.0,"['1', '10', '2', '3', '4', '5', '6', '7', '8', '9']",4777599.433333334,9305.566666666666,514.6,27,270,1997/11,24,HUNG FUK COURT,鴻褔苑,True,2.0,549.0,POINT Z (22.251137 114.150695 0),22.251137,114.150695
162,"TAI TAK HSE,KA WO ST|大德樓,嘉禾街",HA,,,288,2820816.6218449078,6865.0,288,,,310,2.0,3.0,4.0,"['2', '3', '4', '6']",2820816.6218449078,6865.0,306.75,5,20,1971/03,50,blank,,False,,,POINT Z (22.2498659 114.1483711 0),22.2498659,114.14837109999999
163,"TAI LOK HSE,SHEK PAI WAN RD|大樂樓,石排灣道",HA,,,307,,,307,,,380,3.0,4.0,5.0,"['1', '2', '3', '4', '5']",,,335.6666666666667,3,15,1971/03,50,blank,,False,,,POINT Z (22.2497206 114.1481853 0),22.2497206,114.1481853
164,81 MAIN ST AP LEI CHAU|81 鴨利洲大街,HA,,,495,,,495,,,495,3.0,4.0,5.0,['whole floor'],,,495.0,2,2,1965/11,56,blank,,False,,,POINT Z (22.2439202 114.1552265 0),22.243920199999998,114.15522649999998
165,"LARVOTTO(Block 3),AP LEI CHAU PRAYA RD|南灣3座,鴨利洲海旁道",HA,17849240.572963227,17626.0,764,18357598.61038678,18128.0,764,40622596.0,25678.0,1582,11.0,22.0,31.0,"['A', 'B', 'C']",32339294.077289414,22764.0,1301.6666666666667,26,78,2010/12,11,LARVOTTO,南灣,True,9.0,755.0,POINT Z (22.2401736 114.1596309 0),22.240173600000002,114.15963090000001
166,"LARVOTTO(Block 1),AP LEI CHAU PRAYA RD|南灣1座,鴨利洲海旁道",HA,51243750.0,27330.0,1875,53870625.0,28731.0,1875,57576924.41299295,30100.0,2020,11.0,22.0,32.0,"['A', 'B']",54040529.06883216,28085.5,1947.5,27,54,2010/12,11,LARVOTTO,南灣,True,9.0,755.0,POINT Z (22.2401736 114.1596309 0),22.240173600000002,114.15963090000001
167,"LARVOTTO(Block 5),AP LEI CHAU PRAYA RD|南灣5座,鴨利洲海旁道",HA,16152488.0,20145.0,764,16842380.0,20437.0,764,28145784.0,23812.0,1182,11.0,22.0,32.0,"['A', 'B', 'C']",22526623.88888889,21828.88888888889,1032.5555555555554,27,81,2010/12,11,LARVOTTO,南灣,True,9.0,755.0,POINT Z (22.2401736 114.1596309 0),22.240173600000002,114.15963090000001
168,"LARVOTTO(Block 6),AP LEI CHAU PRAYA RD|南灣6座,鴨利洲海旁道",HA,16956216.0,21901.0,764,17753832.0,22528.0,764,30699980.0,25820.0,1189,11.0,22.0,32.0,"['A', 'B', 'C']",24459688.333333332,23433.666666666668,1042.111111111111,27,81,2010/12,11,LARVOTTO,南灣,True,9.0,755.0,POINT Z (22.2401736 114.1596309 0),22.240173600000002,114.15963090000001
169,"LARVOTTO(Block 7),AP LEI CHAU PRAYA RD|南灣7座,鴨利洲海旁道",HA,17480356.25529669,20592.0,783,18282557.91911057,21537.0,783,35011602.0,25426.0,1377,11.0,22.0,32.0,"['A', 'B', 'C']",26678398.273615833,23211.44444444444,1116.3333333333333,27,81,2010/12,11,LARVOTTO,南灣,True,9.0,755.0,POINT Z (22.2401736 114.1596309 0),22.240173600000002,114.15963090000001
170,"LARVOTTO(Block 10),AP LEI CHAU PRAYA RD|南灣10座,鴨利洲海旁道",HA,8638476.0,18698.0,462,8881950.0,19225.0,462,25149222.0,23482.0,1071,11.0,22.0,32.0,"['A', 'B', 'C', 'D']",16423422.416666666,21004.833333333332,762.1666666666666,27,108,2010/12,11,LARVOTTO,南灣,True,9.0,755.0,POINT Z (22.2410147 114.1589145 0),22.2410147,114.15891450000001
171,"LARVOTTO(Block 8),AP LEI CHAU PRAYA RD|南灣8座,鴨利洲海旁道",HA,11856228.0,19893.0,596,12427196.0,20851.0,596,23604776.0,23214.0,1054,12.0,22.0,32.0,"['A', 'B', 'C', 'D']",17503899.666666668,21210.0,824.5,28,112,2010/12,11,LARVOTTO,南灣,True,9.0,755.0,POINT Z (22.240702 114.1592396 0),22.240702,114.15923959999999
172,"LARVOTTO(Block 9),AP LEI CHAU PRAYA RD|南灣9座,鴨利洲海旁道",HA,8965995.0,19365.0,463,9314171.0,20117.0,463,22749962.0,22348.0,1061,11.0,22.0,32.0,"['A', 'B', 'C', 'D']",16512928.75,20837.083333333332,793.5,27,108,2010/12,11,LARVOTTO,南灣,True,9.0,755.0,POINT Z (22.240862 114.1590538 0),22.240862,114.1590538
173,"LARVOTTO(Block 2),AP LEI CHAU PRAYA RD|南灣2座,鴨利洲海旁道",HA,,,1875,56425745.21255078,27065.0,1875,58575198.13381958,28096.0,1923,11.0,22.0,31.0,"['A', 'B']",57500471.673185185,27580.5,1899.0,26,52,2010/12,11,LARVOTTO,南灣,True,9.0,755.0,POINT Z (22.2401736 114.1596309 0),22.240173600000002,114.15963090000001
174,"TUNG HING HSE(LEI TUNG EST),LEI TUNG EST RD|利東村(東興樓),利東村道",HA,1883581.0,6506.0,287,1953322.0000000002,6742.0,287,2190006.0,7449.0,296,10.0,19.0,29.0,"['1', '16', '17', '23', '24', '25', '26', '29', '3', '30', '31', '32', '36', '5', '6', '7', '9']",2015238.9215686275,6861.254901960784,293.70588235294116,29,493,1987/06,34,LEI TUNG EST,利東村,True,8.0,2743.0,POINT Z (22.24059 114.155296 0),22.24059,114.15529599999999
175,132 MAIN ST AP LEI CHAU|132 鴨利洲大街,HA,3193796.5772952805,10376.0,277,3234038.113859227,10325.0,277,5073668.71522864,11031.0,443,5.0,6.0,6.0,"['A', 'B', 'E', 'F']",3819345.5665678303,10618.611111111111,335.9166666666667,4,16,1966/06,55,blank,,False,,,POINT Z (22.2439202 114.1552265 0),22.243920199999998,114.15522649999998
176,"TUNG ON HSE(LEI TUNG EST),LEI TUNG EST RD|利東村(東安樓),利東村道",HA,2986659.0,7839.0,381,3105150.0,8150.0,381,4304160.0,8784.0,490,12.0,21.0,30.0,"['10', '13', '14', '15', '18', '19', '2', '22', '4', '5']",3714999.0666666664,8307.199999999999,413.7,25,250,1988/06,33,LEI TUNG EST,利東村,True,8.0,2743.0,POINT Z (22.2407409 114.1570547 0),22.2407409,114.1570547
177,"TUNG SING HSE(LEI TUNG EST),LEI TUNG EST RD|利東村(東昇樓),利東村道",HA,2840355.0,7455.0,381,3063621.0,8029.0,381,4186560.0,8789.0,490,9.0,20.0,30.0,"['11', '12', '13', '14', '15', '17', '18', '22', '23', '24', '5', '8', '9']",3347480.9743589745,8250.179487179486,406.15384615384613,32,416,1988/06,33,LEI TUNG EST,利東村,True,8.0,2743.0,POINT Z (22.241485 114.1566154 0),22.241485,114.1566154
178,"MARINELLA(Block 6),WELFARE RD|深灣9號6座,惠福道",HA,57736809.0,33903.0,1703,62345127.0,36366.0,1703,79887247.29725115,39659.0,1858,8.0,19.0,29.0,"['A', 'B']",68108877.64248915,36636.5,1780.5,27,54,2012/04,9,MARINELLA,深灣9號,True,7.0,437.0,POINT Z (22.2460193 114.1636832 0),22.2460193,114.1636832
179,"MARINELLA(Block 8),WELFARE RD|深灣9號8座,惠福道",HA,32186024.999999996,29075.0,1107,34258329.0,30947.0,1107,46040726.0,34282.0,1343,8.0,19.0,29.0,"['A', 'B', 'C']",39697156.77777778,31953.55555555555,1240.0,27,81,2012/04,9,MARINELLA,深灣9號,True,7.0,437.0,POINT Z (22.2460193 114.1636832 0),22.2460193,114.1636832
180,"MARINELLA(Block 9),WELFARE RD|深灣9號9座,惠福道",HA,22536260.412348054,21456.0,596,23830288.78800115,22688.0,596,52334067.34629,31468.0,1534,8.0,18.0,28.0,"['A', 'B', 'C']",37457083.765949816,27125.44444444444,1126.3333333333333,26,78,2012/04,9,MARINELLA,深灣9號,True,7.0,437.0,POINT Z (22.2460193 114.1636832 0),22.2460193,114.1636832
181,"MARINELLA(Block 3),WELFARE RD|深灣9號3座,惠福道",HA,31891199.999999996,28992.0,1100,33789800.0,30718.0,1100,45293216.0,32975.0,1388,8.0,19.0,29.0,"['A', 'B', 'C']",38966221.666666664,31085.11111111111,1252.3333333333333,27,81,2012/04,9,MARINELLA,深灣9號,True,7.0,437.0,POINT Z (22.2460193 114.1636832 0),22.2460193,114.1636832
182,"MARINELLA(Block 1),WELFARE RD|深灣9號1座,惠福道",HA,43371929.79134834,25280.0,1421,45732097.320220776,27213.0,1421,102599232.9460634,31306.0,2000,8.0,18.0,28.0,"['A', 'B']",70825407.09030695,28457.666666666668,1710.5,26,52,2012/04,9,MARINELLA,深灣9號,True,7.0,437.0,POINT Z (22.2460193 114.1636832 0),22.2460193,114.1636832
183,"MARINELLA(Block 2),WELFARE RD|深灣9號2座,惠福道",HA,50134441.48571622,31593.0,1121,53670791.052593455,33277.0,1121,64648583.836935125,38402.0,1317,8.0,19.0,29.0,"['A', 'B', 'C']",56878534.52204863,34876.333333333336,1232.3333333333333,27,81,2012/04,9,MARINELLA,深灣9號,True,7.0,437.0,POINT Z (22.2460193 114.1636832 0),22.2460193,114.1636832
184,174-176 ABERDEEN MAIN RD|174-176 香港仔大道,HA,3170625.0066023227,8277.0,283,3182590.78706076,8207.0,283,3812426.812410189,10446.0,350,2.0,3.0,4.0,"['A', 'B', 'D']",3484766.5670959014,9329.0,326.0,5,15,1968/01,53,blank,,False,,,POINT Z (22.2485078 114.155716 0),22.248507800000002,114.155716
185,"TUNG PING HSE(LEI TUNG EST),LEI TUNG EST RD|利東村(東平樓),利東村道",HA,3100197.0,8137.0,381,3222117.0,8457.0,381,4345320.0,8868.0,490,9.0,19.0,28.0,"['13', '15', '23', '4', '5', '6']",3759275.944444444,8636.888888888889,435.5,27,162,1987/10,34,LEI TUNG EST,利東村,True,8.0,2743.0,POINT Z (22.2419349 114.1576372 0),22.2419349,114.1576372
186,"TUNG YAT HSE(LEI TUNG EST),LEI TUNG EST RD|利東村(東逸樓),利東村道",HA,2880741.0,7561.0,381,3045333.0,7993.0,381,4424700.0,9030.0,490,9.0,18.0,26.0,"['1', '15', '18', '19', '23', '3', '4', '5', '6', '7', '9']",3383138.2121212124,8427.0,400.8181818181818,25,275,1988/07,33,LEI TUNG EST,利東村,True,8.0,2743.0,POINT Z (22.2406848 114.157823 0),22.2406848,114.157823
187,"TUNG CHEONG HSE(LEI TUNG EST),LEI TUNG EST RD|利東村(東昌樓),利東村道",HA,2936367.0,7699.0,381,3078099.0,8079.0,381,4214980.0,8602.0,490,9.0,19.0,29.0,"['1', '11', '12', '13', '17', '19', '21', '22', '24', '6']",3369153.966666667,8141.7,413.7,29,290,1987/01,34,LEI TUNG EST,利東村,True,8.0,2743.0,POINT Z (22.2416169 114.1540655 0),22.2416169,114.1540655
188,"TUNG YIP HSE(LEI TUNG EST),LEI TUNG EST RD|利東村(東業樓),利東村道",HA,2767584.0,7264.0,381,2878074.0,7554.0,381,4319840.0,8946.0,490,10.0,20.0,30.0,"['1', '10', '14', '16', '18', '19', '21', '22', '24', '4', '7', '8', '9']",3298776.9230769225,8287.74358974359,397.7692307692308,28,364,1987/01,34,LEI TUNG EST,利東村,True,8.0,2743.0,POINT Z (22.2411576 114.1543615 0),22.2411576,114.1543615
189,"MARINELLA,WELFARE RD|深灣9號,惠福道",HA,131848695.0,48614.0,2565,131848695.0,48614.0,2565,225598405.76173165,57569.0,3622,0.0,0.0,0.0,"['1', '10', '11', '12', '16', '18', '2', '3', '6', '8']",168363558.11078948,53838.555555555555,2944.1,1,10,2012/04,9,MARINELLA,深灣9號,True,7.0,437.0,POINT Z (22.2460193 114.1636832 0),22.2460193,114.1636832
190,"TUNG MAU HSE(LEI TUNG EST),LEI TUNG EST RD|利東村(東茂樓),利東村道",HA,1711768.0,5783.0,287,1785472.0,6032.0,287,2330538.0,7927.0,296,9.0,19.0,29.0,"['11', '13', '14', '15', '18', '19', '2', '20', '22', '24', '26', '3', '32', '34', '5', '7', '9']",2092047.450980392,7182.411764705882,291.29411764705884,29,493,1987/06,34,LEI TUNG EST,利東村,True,8.0,2743.0,POINT Z (22.241631 114.1556865 0),22.241630999999998,114.1556865
191,"H. BONAIRE,MAIN ST AP LEI CHAU|倚南,鴨利洲大街",HA,7196800.0,21224.0,320,8001920.0,22319.0,320,16417292.0,26888.0,674,8.0,19.0,29.0,"['A', 'B', 'C', 'D']",11983377.583333334,23905.583333333332,502.75,27,108,2016/10,5,blank,,False,,,POINT Z (22.2442365 114.1556764 0),22.2442365,114.15567639999999
192,58 MAIN ST AP LEI CHAU|58 鴨利洲大街,HA,,,377,,,377,,,377,3.0,3.0,3.0,['whole floor'],,,377.0,1,1,1976/04,45,blank,,False,,,POINT Z (22.2439202 114.1552265 0),22.243920199999998,114.15522649999998
193,26 MAIN ST AP LEI CHAU|26 鴨利洲大街,HA,6635388.0,20866.0,318,6664644.0,20958.0,318,6725064.0,21148.0,318,2.0,3.0,4.0,['whole floor'],6675032.0,20990.666666666668,318.0,3,3,1964/10,57,blank,,False,,,POINT Z (22.2439202 114.1552265 0),22.243920199999998,114.15522649999998
194,31 TUNG SING RD|31 東勝道,HA,,,429,,,429,,,498,4.0,6.0,6.0,"['1', '3', '4', '5', '6']",,,468.0,4,20,1962/03,59,blank,,False,,,POINT Z (22.2488412 114.1552623 0),22.248841199999998,114.15526229999999
195,"SOUTH COAST,TANG FUNG ST|登峰南岸,登豐街",HA,4155666.0,19237.0,214,,,214,,,606,22.0,68.0,102.0,"['A', 'B', 'BC', 'C', 'D', 'E', 'EF', 'F']",8049876.806123676,21037.375,377.625,96,768,2016/11,5,blank,,False,,,POINT Z (22.2493987 114.1495351 0),22.2493987,114.14953510000001
196,210-210A ABERDEEN MAIN RD|210-210A 香港仔大道,HA,,,354,,,354,,,354,2.0,2.0,3.0,['B'],,,354.0,2,2,1971/10,50,blank,,False,,,POINT Z (22.2485078 114.155716 0),22.248507800000002,114.155716
197,4 TANG FUNG ST|4 登豐街,HA,,,564,,,564,,,564,4.0,4.0,4.0,['whole floor'],,,564.0,1,1,1958/04,63,blank,,False,,,POINT Z (22.2494513 114.1491161 0),22.2494513,114.14911609999999
198,"MARINA SOUTH(Block 1),AP LEI CHAU DR|南區．左岸1座,鴨利洲徑",HA,,,1787,,,1787,,,3657,21.0,67.0,102.0,"['A', 'AB', 'B']",,,2438.0,97,291,2016/06,5,MARINA SOUTH,南區．左岸,True,2.0,375.0,POINT Z (22.2430567 114.1589563 0),22.243056699999997,114.15895630000001
199,"MARINA SOUTH(Block 2),AP LEI CHAU DR|南區．左岸2座,鴨利洲徑",HA,49656955.70610462,25631.0,1787,82336632.0,28972.0,1787,142733059.25522983,46441.0,3694,8.0,18.0,28.0,"['A', 'AB', 'B']",97737976.99243224,36026.944444444445,2462.6666666666665,28,84,2016/06,5,MARINA SOUTH,南區．左岸,True,2.0,375.0,POINT Z (22.2430567 114.1589563 0),22.243056699999997,114.15895630000001
200,11 TUNG SING RD|11 東勝道,HA,,,598,,,598,,,598,2.0,2.0,2.0,['whole floor'],,,598.0,1,1,1953/07,68,blank,,False,,,POINT Z (22.2488412 114.1552623 0),22.248841199999998,114.15526229999999
201,18 WU PAK ST|18 湖北街,HA,8507185.290214093,13188.0,595,8525892.324898368,13217.0,595,8569757.095882183,13285.0,595,3.0,4.0,5.0,['whole floor'],8534278.236998215,13230.0,595.0,3,3,1966/05,55,blank,,False,,,POINT Z (22.2481534 114.1548009 0),22.2481534,114.15480090000001
202,9 TUNG SING RD|9 東勝道,HA,,,598,,,598,,,598,2.0,2.0,3.0,['whole floor'],,,598.0,2,2,1953/07,68,blank,,False,,,POINT Z (22.2488412 114.1552623 0),22.248841199999998,114.15526229999999
203,69 MAIN ST AP LEI CHAU|69 鴨利洲大街,HA,,,821,,,821,,,821,5.0,5.0,5.0,['whole floor'],,,821.0,1,1,1963/04,58,blank,,False,,,POINT Z (22.2439202 114.1552265 0),22.243920199999998,114.15522649999998
204,16 WU PAK ST|16 湖北街,HA,,,595,,,595,,,595,5.0,5.0,5.0,['whole floor'],,,595.0,1,1,1966/05,55,blank,,False,,,POINT Z (22.2481534 114.1548009 0),22.2481534,114.15480090000001
205,106 ABERDEEN MAIN RD|106 香港仔大道,HA,,,377,,,377,,,377,3.0,4.0,4.0,['whole floor'],,,377.0,4,4,1985/03,36,blank,,False,,,POINT Z (22.2485078 114.155716 0),22.248507800000002,114.155716
206,"SOUTH WALK．AURA,TIN WAN ST|南津．迎岸,田灣街",HA,3735396.0,19764.0,183,3948676.0,20354.0,183,6575445.0,28616.0,265,7.0,16.0,24.0,"['A', 'B', 'C', 'D', 'E', 'F']",5155956.277777777,24124.0,214.05555555555557,23,138,2019/06,2,blank,,False,,,POINT Z (22.2495096 114.1492778 0),22.249509600000003,114.1492778
207,32 MAIN ST AP LEI CHAU|32 鴨利洲大街,HA,,,494,,,494,,,494,4.0,4.0,4.0,['whole floor'],,,494.0,1,1,1964/12,57,blank,,False,,,POINT Z (22.2439202 114.1552265 0),22.243920199999998,114.15522649999998
208,30 MAIN ST AP LEI CHAU|30 鴨利洲大街,HA,,,1943,,,1943,,,970,2.0,2.0,4.0,['whole floor'],,,1618.6666666666667,4,4,1964/12,57,blank,,False,,,POINT Z (22.2439202 114.1552265 0),22.243920199999998,114.15522649999998
209,124 MAIN ST AP LEI CHAU|124 鴨利洲大街,HA,,,513,,,513,,,513,5.0,5.0,5.0,['whole floor'],,,513.0,1,1,1975/08,46,blank,,False,,,POINT Z (22.2439202 114.1552265 0),22.243920199999998,114.15522649999998
210,126 MAIN ST AP LEI CHAU|126 鴨利洲大街,HA,,,513,,,513,,,513,1.0,2.0,3.0,['whole floor'],,,513.0,3,3,1975/08,46,blank,,False,,,POINT Z (22.2439202 114.1552265 0),22.243920199999998,114.15522649999998
211,120 MAIN ST AP LEI CHAU|120 鴨利洲大街,HA,,,512,,,512,,,512,2.0,2.0,2.0,['whole floor'],,,512.0,1,1,1967/04,54,blank,,False,,,POINT Z (22.2439202 114.1552265 0),22.243920199999998,114.15522649999998
