,final_address,district,lowZone_value,lowZone_npsf_min,lowZone_nfa_min,midZone_value,midZone_npsf_min,midZone_nfa_min,highZone_value,highZone_npsf_max,highZone_nfa_max,oneSixth_floor,middle_floor,fifthSixth_floor,unit_list,value_avg,npsf_avg,unitSize_avg,noStorey,noFlat,op_date,bldgAge,est_name_en,est_name_ch,est_orNot,est_bldgNo,est_flatNo,final_coords,lat,long
0,"ILLUMINATION TERR(Block 2),TAI HANG RD|光明臺2座,大坑道",HCB,8116992.0,14092.0,576.0,9005184.0,15634.0,576.0,16816560.0,20508.0,820.0,8,22,37,"['A', 'B', 'C', 'D', 'E', 'F', 'G', 'H']",11842677.833333334,16860.083333333332,698.25,44,352,1993/05,30,ILLUMINATION TERR,光明臺,True,2.0,704.0,POINT Z (22.2774193 114.1931206 0),22.2774193,114.1931206
1,"RONSDALE GARDEN(Block 2),TAI HANG DR|龍華花園2座,大坑徑",HCB,12707882.0,17699.0,718.0,13745392.0,18233.0,718.0,19114836.0,21027.0,988.0,6,17,28,"['A', 'B', 'C', 'D', 'E', 'F']",16344166.766666666,19077.566666666666,892.8333333333334,33,198,1986/07,37,RONSDALE GARDEN,龍華花園,True,2.0,396.0,POINT Z (22.2747388 114.195884 0),22.2747388,114.195884
2,"ILLUMINATION TERR(Block 1),TAI HANG RD|光明臺1座,大坑道",HCB,8611200.0,14601.0,576.0,9301248.0,15738.0,576.0,16293400.0,19870.0,820.0,8,22,37,"['A', 'B', 'C', 'D', 'E', 'F', 'G', 'H']",12120432.208333334,17242.25,698.25,44,352,1993/05,30,ILLUMINATION TERR,光明臺,True,2.0,704.0,POINT Z (22.2775651 114.1927491 0),22.2775651,114.19274909999999
3,"DRAGON RISE,PENNINGTON ST|登龍閣,邊寧頓街",HCB,4900800.0,15315.0,310.0,5177920.0,16181.0,310.0,5624960.0,17826.0,320.0,7,14,20,"['A', 'B', 'C', 'D']",5746341.666666667,16755.583333333332,340.8333333333333,22,88,1986/08,37,blank,,False,,,POINT Z (22.2788334 114.1859452 0),22.278833399999996,114.1859452
4,"CHEE ON BLDG,EAST POINT RD|置安大廈,東角道",HCB,6197400.0,11268.0,480.0,6658079.999999999,12459.0,480.0,8136150.0,14793.0,555.0,7,16,24,"['5', '9', 'I', 'J', 'K', 'L', 'M', 'M17', 'N', 'O', 'P']",6826177.878787879,13343.90909090909,512.2727272727273,26,286,1972/09,51,blank,,False,,,POINT Z (22.2803599 114.1849412 0),22.280359899999997,114.1849412
5,"WAH YING BLDG,SHELTER ST|華英大廈,信德街",HCB,5816164.466213345,14198.0,410.0,6086531.3170163315,14858.0,410.0,11106864.042349285,16247.0,776.0,5,11,17,"['A', 'AB', 'B', 'C']",8383484.184610796,15250.833333333334,547.75,19,76,1980/01,43,blank,,False,,,POINT Z (22.2790231 114.1884764 0),22.279023100000003,114.1884764
6,"PAK TAK BLDG,JARDINE'S BAZAAR|八達大廈,渣甸街",HCB,6237609.672140565,14237.0,440.0,6521953.893340201,14886.0,440.0,6608264.851084928,15083.0,440.0,6,12,19,['whole floor'],6455942.805521898,14735.333333333334,440.0,20,20,1988/11,35,blank,,False,,,POINT Z (22.2792773 114.1853415 0),22.2792773,114.1853415
7,"CAROLINE HILL COURT,CAROLINE HILL RD|加路連大樓,加路連山道",HCB,6698692.0,11711.0,572.0,5514408.0,12093.0,456.0,7746596.0,13543.0,572.0,3,6,10,['whole floor'],6653232.0,12449.0,533.3333333333334,12,12,1959/07,64,blank,,False,,,POINT Z (22.277635 114.186533 0),22.277635,114.18653300000001
8,"BAY VIEW MANSION,MORETON TERR|灣景樓,摩頓臺",HCB,4886820.0,10647.0,340.0,4915520.0,11180.0,320.0,17572830.0,16137.0,1210.0,5,12,19,"['A1', 'A2', 'A3', 'A4', 'A5', 'A6', 'A7', 'A8', 'B1', 'B2', 'B3', 'B4', 'B5', 'C1', 'C2', 'C3', 'C4', 'C5']",8923811.981481481,12103.018518518518,736.7222222222223,21,378,1966/12,57,BAY VIEW MANSION,灣景樓,True,1.0,357.0,POINT Z (22.2795895 114.188755 0),22.2795895,114.188755
9,"CAUSEWAY BAY MANSION,PATERSON ST|銅鑼灣大廈,百德新街",HCB,11463633.760513155,15309.0,850.0,11720477.863972297,15652.0,850.0,14492817.261608202,17317.0,950.0,3,6,9,"['A', 'B', 'C', 'D']",12904125.700900475,16246.416666666666,900.0,11,44,1958/05,65,blank,,False,,,POINT Z (22.2817363 114.1852929 0),22.281736300000002,114.18529290000001
10,"MALAHON APTS,JAFFE RD|美漢大廈,謝斐道",HCB,3608960.0,11278.0,320.0,3718720.0,11334.0,320.0,9243650.0,14221.0,650.0,6,10,15,"['A', 'B', 'C', 'D', 'E', 'F', 'G', 'H', 'I', 'I-J', 'IJ', 'J', 'K', 'L', 'M', 'N', 'O', 'P']",4988039.574074074,12605.944444444445,392.1111111111111,16,288,1966/10,57,MALAHON APTS,美漢大廈,True,1.0,272.0,POINT Z (22.2812524 114.1831818 0),22.281252399999996,114.1831818
11,"HONG KONG MANSION,YEE WO ST|香港大廈,怡和街",HCB,5137066.0,9447.0,478.0,5426734.0,9999.0,478.0,8740060.0,13657.0,766.0,6,13,20,"['A', 'B', 'C', 'D', 'E', 'F', 'G', 'H', 'I', 'J', 'K', 'L', 'M', 'N', 'O', 'P', 'Q']",6301371.21672628,10847.372549019607,586.9803921568628,21,357,1966/03,57,HONG KONG MANSION,香港大廈,True,1.0,357.0,POINT Z (22.2799698 114.1855626 0),22.2799698,114.1855626
12,"AVALON,TAI HANG RD|雅景軒,大坑道",HCB,10702300.0,15289.0,700.0,12413800.0,17734.0,700.0,13107500.0,18725.0,700.0,9,17,24,"['A', 'B']",12244400.0,17492.0,700.0,23,46,1994/12,29,blank,,False,,,POINT Z (22.2751627 114.1937476 0),22.2751627,114.19374760000001
13,"H & S BLDG,LEIGHTON RD|嘉柏大廈,禮頓道",HCB,8406750.0,15285.0,530.0,8285200.0,15064.0,530.0,9022750.0,16405.0,585.0,11,16,21,"['A', 'B', 'C', 'D']",8830413.333333334,15871.333333333334,559.5833333333334,17,68,1968/05,55,blank,,False,,,POINT Z (22.2774446 114.1835534 0),22.277444600000003,114.1835534
14,"KINGSTON BLDG(Block B),KINGSTON ST|京士頓大廈B座,京士頓街",HCB,6300185.787011466,6292.0,487.0,6551512.333823271,6543.0,487.0,10239091.285599638,15317.0,1575.0,5,10,15,"['1', '2', '3', '34', '4', '5']",8262323.947888747,10609.033333333333,874.1111111111112,15,90,1965/12,58,KINGSTON BLDG,京士頓大廈,True,2.0,174.0,POINT Z (22.2815401 114.1857827 0),22.2815401,114.1857827
15,1 TAI HANG RD|1 大坑道,HCB,10311176.999999998,16194.0,567.0,9017568.0,15904.0,567.0,16170963.0,19129.0,879.0,5,14,22,"['A', 'B', 'C', 'D']",11999190.5,17197.94444444445,651.75,26,104,1990/10,33,blank,,False,,,POINT Z (22.2703638 114.1910735 0),22.270363800000002,114.19107350000002
16,"HOI KUNG COURT,GLOUCESTER RD|海宮大廈,告士打道",HCB,5867752.880918795,8430.0,465.0,6105804.065411586,8772.0,465.0,13217899.689716464,19348.0,776.0,4,10,16,"['A', 'B', 'C', 'D', 'E', 'F', 'G', 'H', 'I']",10834989.76173579,17471.782407407405,666.7407407407408,19,171,1966/01,57,blank,,False,,,POINT Z (22.2816344 114.1831357 0),22.281634399999998,114.18313570000001
17,"YUKON HEIGHTS,TAI HANG RD|煜康臺,大坑道",HCB,17696818.611752924,19503.0,1030.0,19582374.119891293,21581.0,1030.0,20489763.681074336,22581.0,1030.0,9,15,21,"['A', 'B']",19440216.421972614,21424.333333333332,1030.0,19,38,1982/09,41,blank,,False,,,POINT Z (22.2752066 114.193469 0),22.2752066,114.193469
18,"CAUSEWAY TOWER,CAUSEWAY RD|高威樓,高士威道",HCB,5757596.390528149,9158.0,410.0,5904075.538359418,9615.0,410.0,6700171.881539918,17586.0,420.0,15,18,20,"['A', 'B', 'C', 'D']",6236115.257469114,14542.75,415.0,10,40,1978/07,45,blank,,False,,,POINT Z (22.2795462 114.1884764 0),22.2795462,114.1884764
19,"LOK SING CTR(Block A),YEE WO ST|樂聲大廈A座,怡和街",HCB,4909450.0,13954.0,350.0,5192600.0,14769.0,350.0,13348499.999999998,17798.0,750.0,9,16,24,"['1', '2', '3', '4', '5', '5 & 6', '6', '7', '8']",6142370.833333333,15105.231481481482,416.6666666666667,24,216,1977/12,46,LOK SING CTR,樂聲大廈,True,2.0,408.0,POINT Z (22.2797597 114.1868144 0),22.2797597,114.1868144
20,"HOI DEEN COURT,GLOUCESTER RD|海殿大廈,告士打道",HCB,6850727.757758779,16067.0,484.0,6482864.981969261,16649.0,438.0,9614689.218766676,18561.0,1455.0,4,9,14,"['A', 'B', 'C', 'C & D', 'D', 'E', 'F', 'G', 'H']",8308468.33704602,16833.86111111111,690.4444444444445,17,153,1963/08,60,blank,,False,,,POINT Z (22.2818513 114.1836695 0),22.2818513,114.18366950000001
21,"KANFIELD MANSION,SUN CHUN ST|勤輝大廈,新村街",HCB,5149190.0,12559.0,410.0,5371000.000000001,13100.0,410.0,5686290.0,13869.0,410.0,5,12,19,"['A', 'B', 'C']",5413640.0,13204.0,410.0,21,63,1977/07,46,blank,,False,,,POINT Z (22.2777834 114.1924704 0),22.277783399999997,114.19247040000002
22,"LOK SING CTR(Block B),YEE WO ST|樂聲大廈B座,怡和街",HCB,5682949.999999999,15543.0,350.0,5716550.0,16235.0,350.0,7122800.0,18223.0,750.0,9,16,24,"['1', '2', '3', '3-4', '4', '5', '6', '7', '8']",6345408.333333333,16936.416666666668,416.6666666666667,24,216,1977/12,46,LOK SING CTR,樂聲大廈,True,2.0,408.0,POINT Z (22.2797597 114.1868144 0),22.2797597,114.1868144
23,"HAYWOOD MANSION,PATERSON ST|海華大廈,百德新街",HCB,17045426.054989275,13588.0,1060.0,17609927.212241646,14038.0,1060.0,20314645.157452483,14875.0,2410.0,3,8,12,"['A', 'A & B', 'B', 'C', 'D']",18968189.087846253,14248.833333333334,1381.2,14,70,1961/09,62,blank,,False,,,POINT Z (22.2820244 114.1847841 0),22.282024399999997,114.1847841
24,"LEE FAT BLDG,JARDINE'S CRES|利發大廈,渣甸坊",HCB,3579996.0,16422.0,218.0,3534216.0,16212.0,218.0,4521442.896908601,18330.0,280.0,8,12,17,"['A', 'B', 'C']",3938007.600782095,17206.666666666668,239.66666666666666,16,48,1983/03,40,blank,,False,,,POINT Z (22.2794014 114.1848306 0),22.2794014,114.18483059999998
25,"YEE ON BLDG,EAST POINT RD|怡安大廈,東角道",HCB,5947200.0,12390.0,480.0,6528000.0,13597.0,480.0,7935400.0,18355.0,1100.0,7,16,24,"['A', 'B', 'BC', 'C', 'D', 'E', 'F', 'F19', 'G', 'H']",7157415.3855050495,15090.62962962963,577.0,26,260,1972/09,51,blank,,False,,,POINT Z (22.2810475 114.1844823 0),22.2810475,114.18448229999998
26,"PATERSON BLDG(Block C),PATERSON ST|百德大廈C座,百德新街",HCB,4985046.723892538,13678.0,253.0,5411779.701066578,12189.0,253.0,15853750.078135658,16198.0,1111.0,4,9,14,"['1', '2', '3', '4', '5', 'C1', 'C2', 'C3', 'C3A', 'C3B', 'C4', 'C5']",10004629.855914822,14803.666666666666,710.3055555555557,15,180,1959/12,64,PATERSON BLDG,百德大廈,True,4.0,450.0,POINT Z (22.2809264 114.1852737 0),22.2809264,114.1852737
27,"PATERSON BLDG(Block B),PATERSON ST|百德大廈B座,百德新街",HCB,5418086.0,10793.0,502.0,5632440.0,11220.0,502.0,9467826.015887352,14538.0,790.0,4,9,14,"['1', '2', '3', '4', '5']",7831945.51392422,12614.333333333334,670.2,15,75,1959/12,64,PATERSON BLDG,百德大廈,True,4.0,450.0,POINT Z (22.2805976 114.1852341 0),22.280597600000004,114.1852341
28,"HAVEN COURT,LEIGHTON RD|希雲大廈,禮頓道",HCB,4304367.1231299685,10308.0,474.0,4749809.063518421,10855.0,474.0,12188486.494651297,15528.0,940.0,3,6,8,"['A', 'B', 'C', 'D', 'E', 'F', 'G', 'H', 'I', 'J', 'K', 'L', 'M']",7268707.780094832,12046.538461538461,671.7435897435898,10,130,1959/01,64,blank,,False,,,POINT Z (22.2781849 114.186676 0),22.2781849,114.186676
29,"DRAGON GARDEN,CHUN FAI TERR|龍園,春暉台",HCB,23256410.0,14813.0,1570.0,24372680.0,15524.0,1570.0,28027640.000000004,17852.0,1570.0,4,10,17,"['A', 'B', 'C', 'D']",25366359.166666668,16156.916666666666,1570.0,20,80,1976/10,47,blank,,False,,,POINT Z (22.2750494 114.1943281 0),22.275049399999997,114.19432809999999
30,"GREENFIELD MANSION,KINGSTON ST|新豪大廈,京士頓街",HCB,17789586.550900992,13976.0,1210.0,18720914.44531979,14330.0,1210.0,51985225.27062623,20883.0,2500.0,4,8,11,"['A', 'A & C', 'AC', 'B', 'C']",32016730.20845513,17357.866666666665,1768.4000000000003,12,60,1964/11,59,blank,,False,,,POINT Z (22.2816413 114.1862471 0),22.2816413,114.18624709999999
31,"CHESTERFIELD MANSION,KINGSTON ST|東寧大廈,京士頓街",HCB,10678844.146150725,6365.0,816.0,11002648.846890252,6558.0,816.0,20614637.39938161,17255.0,1330.0,4,8,13,"['A', 'B', 'C', 'D']",15681018.86705564,12964.0,1057.75,14,56,1994/08,29,blank,,False,,,POINT Z (22.28191 114.186138 0),22.28191,114.18613799999999
32,"MAYLAND COURT,SHELTER ST|美蘭閣,信德街",HCB,4532873.362497291,13144.0,375.0,4741220.577273786,13625.0,375.0,5040637.108445715,15258.0,395.0,5,12,18,"['A', 'B', 'C']",4789669.013115787,14254.888888888889,381.6666666666667,22,66,1976/09,47,blank,,False,,,POINT Z (22.2793827 114.188546 0),22.2793827,114.188546
33,"PO WING BLDG,LEE GARDEN RD|寶榮大樓,利園山道",HCB,3896740.0,10953.0,305.0,4136105.0,11166.0,305.0,6055868.0,13806.0,524.0,5,8,11,"['A', 'B', 'C', 'D', 'E', 'F', 'G', 'H', 'I', 'J', 'K', 'L', 'M', 'N', 'O', 'P', 'Q', 'R', 'T']",5380884.25297619,11859.375,425.8771929824561,11,209,1967/03,56,blank,,False,,,POINT Z (22.2782772 114.1837907 0),22.278277199999998,114.18379070000002
34,"JOLLY VILLA,TAI HANG RD|竹麗苑,大坑道",HCB,22100877.89499178,20873.0,1187.0,23277290.841850817,21951.0,1187.0,24616164.401473403,23524.0,1209.0,10,17,25,"['A', 'B']",23367406.811899852,22142.5,1198.0,23,46,1992/09,31,blank,,False,,,POINT Z (22.2773513 114.1923079 0),22.2773513,114.19230790000002
35,"MORENGO COURT,TAI HANG RD|昍逵閣,大坑道",HCB,15983040.0,16565.0,960.0,16396800.0,16990.0,960.0,17351856.0,17822.0,984.0,3,6,10,"['A', 'B', 'C', 'D']",16673830.0,17155.083333333332,972.0,12,48,1976/05,47,blank,,False,,,POINT Z (22.275472 114.1933064 0),22.275472,114.1933064
36,"PO HON BLDG,PERCIVAL ST|寶漢大廈,波斯富街",HCB,4958707.759717538,11831.0,395.0,5076672.807475029,12091.0,395.0,6594606.923066366,14802.0,523.0,7,10,12,"['A', 'B', 'C', 'D', 'E', 'F']",6017805.848459668,13828.72222222222,481.6666666666667,10,60,1967/11,56,blank,,False,,,POINT Z (22.2806573 114.1825316 0),22.2806573,114.18253159999999
37,"ROSEDALE,FUK KWAN AVE|玫瑰花園,福群道",HCB,26601857.66872465,14760.0,1810.0,27193010.061362974,15088.0,1810.0,27966618.426793065,17539.0,1810.0,3,6,10,['whole floor'],27253828.71896023,15795.666666666666,1810.0,12,12,1988/12,35,blank,,False,,,POINT Z (22.2760872 114.1937263 0),22.2760872,114.19372630000001
38,"SUN HO COURT,TUNG LO WAN RD|新豪閣,銅鑼灣道",HCB,4541669.755476332,18412.0,280.0,4673637.674180429,18947.0,280.0,5181775.828442935,21007.0,280.0,5,12,19,"['A', 'B']",4857241.638333856,19691.333333333332,280.0,23,46,1988/01,35,blank,,False,,,POINT Z (22.2787921 114.1887666 0),22.2787921,114.1887666
39,"WINWAY COURT,TAI HANG RD|永威閣,大坑道",HCB,8200410.0,12839.0,615.0,8679495.0,13656.0,615.0,14614050.0,15630.0,935.0,6,14,21,"['A', 'B', 'C', 'D', 'E', 'F']",9633302.722222222,14054.099999999999,723.0555555555555,23,138,1982/06,41,blank,,False,,,POINT Z (22.2777694 114.192006 0),22.2777694,114.192006
40,"VANCOUVER MANSION,KINGSTON ST|漢寧大廈,京士頓街",HCB,12807855.999999998,11686.0,1096.0,13089528.0,11943.0,1096.0,34387320.0,15774.0,2180.0,4,7,10,"['A', 'AB', 'B', 'C']",18835521.583333332,12957.666666666666,1403.5,11,44,1964/11,59,blank,,False,,,POINT Z (22.2816106 114.1860168 0),22.281610600000004,114.1860168
41,"GARDENVIEW HEIGHTS,TAI HANG DR|嘉景臺,大坑徑",HCB,19354128.0,18754.0,1032.0,22117504.0,20632.0,1072.0,23940976.0,22333.0,1072.0,7,18,29,"['A', 'B']",21632574.666666668,20550.666666666668,1052.0,33,66,1991/10,32,blank,,False,,,POINT Z (22.2747331 114.1945371 0),22.2747331,114.1945371
42,500 LOCKHART RD|500 駱克道,HCB,5825859.439146179,16695.0,364.0,5869982.3577596275,16756.0,364.0,6159479.734571548,18218.0,383.0,3,4,6,"['A', 'B', 'C']",6020584.315770513,17539.44444444444,372.6666666666667,6,18,1964/12,59,blank,,False,,,POINT Z (22.2785972 114.1766163 0),22.278597199999997,114.17661629999999
43,"PATERSON BLDG(Block D),PATERSON ST|百德大廈D座,百德新街",HCB,6113999.672858747,11442.0,502.0,6351041.540826363,11836.0,502.0,11030949.893547084,15850.0,790.0,4,9,14,"['1', '2', '3', '4', '5', 'D1', 'D2', 'D3', 'D4', 'D5']",8764225.288213722,14561.733333333332,673.5,15,150,1960/08,63,PATERSON BLDG,百德大廈,True,4.0,450.0,POINT Z (22.2805976 114.1852341 0),22.280597600000004,114.1852341
44,"LEI KWA COURT,CAROLINE HILL RD|禮加大樓,加路連山道",HCB,6543158.0,16215.0,394.0,6671996.0,16571.0,394.0,8018839.4115741,17411.0,553.0,3,6,10,"['17A', '19', '21', 'whole floor']",7560206.028364458,16483.0,493.1666666666667,12,48,1959/07,64,blank,,False,,,POINT Z (22.2773865 114.1868276 0),22.2773865,114.18682759999999
45,56 TUNG LO WAN RD|56 銅鑼灣道,HCB,4362156.385687721,12410.0,399.0,4423669.4692892805,12585.0,399.0,3843332.1776609924,13465.0,324.0,2,4,7,['whole floor'],4209719.344212664,12820.0,374.0,8,8,1965/11,58,blank,,False,,,POINT Z (22.278872 114.1896294 0),22.278872,114.1896294
46,"HIGHLAND MANSION,CLEVELAND ST|海倫大廈,加寧街",HCB,12478085.3480992,9693.0,860.0,13200277.226803796,10254.0,860.0,13268505.693062875,10307.0,1355.0,4,7,10,"['A', 'B', 'C', 'D']",12982289.42265529,10084.666666666666,1110.5,11,44,1964/08,59,blank,,False,,,POINT Z (22.2826589 114.1858756 0),22.282658899999998,114.1858756
47,"MIAMI MANSION,CLEVELAND ST|美亞美大廈,加寧街",HCB,12539749.327235598,13887.0,1025.0,12892816.3674134,14278.0,1025.0,13186286.413596995,14603.0,1297.0,4,7,10,"['A', 'B', 'C', 'D']",13988610.052047698,14733.77777777778,1145.25,9,36,1964/03,59,blank,,False,,,POINT Z (22.282486 114.185443 0),22.282486,114.18544299999999
48,"PO FOO BLDG,FOO MING ST|寶富大廈,富明街",HCB,3985460.0,9865.0,365.0,4094540.0,10135.0,348.0,8203594.0,13111.0,698.0,3,7,11,"['A', 'B', 'C', 'D', 'E', 'F', 'G', 'H', 'I', 'J', 'K', 'L', 'M', 'N', 'O', 'P', 'R']",5733807.11633987,11855.248366013073,480.6666666666667,13,221,1964/04,59,blank,,False,,,POINT Z (22.2788362 114.1834373 0),22.2788362,114.1834373
49,"WALDORF MANSION,CAUSEWAY RD|華都大廈,高士威道",HCB,7666247.209234628,12119.0,704.0,7900681.433414766,12502.0,704.0,8274313.621084078,13202.0,1199.0,4,8,13,"['A', 'B', 'C', 'D']",7959070.336582206,12646.333333333334,924.0,14,56,1964/07,59,blank,,False,,,POINT Z (22.2792598 114.1879423 0),22.2792598,114.18794229999999
50,"GOLD KING MANSION,TAI HANG DR|高景大廈,大坑徑",HCB,8441894.377662763,15971.0,567.0,8833040.945784386,16711.0,567.0,10238525.708805192,19370.0,600.0,4,10,17,"['A', 'B', 'C', 'D']",9012125.581346678,17563.22222222222,582.0,20,80,1967/03,56,blank,,False,,,POINT Z (22.2740735 114.1931903 0),22.2740735,114.1931903
51,"INTELLIGENT COURT,TUNG LO WAN RD|海麗軒,銅鑼灣道",HCB,6927134.0,15998.0,433.0,7305576.0,16872.0,433.0,7812168.0,17836.0,3051.0,6,13,20,"['A', 'AB', 'B']",7370317.666666667,16923.666666666668,1307.3333333333333,23,69,1988/06,35,blank,,False,,,POINT Z (22.2784284 114.1907288 0),22.2784284,114.19072879999999
52,"HOI TO COURT,GLOUCESTER RD|海都大廈,告士打道",HCB,5457126.805280012,13532.0,405.0,5603919.160964458,13896.0,405.0,6005522.016036029,14360.0,946.0,4,8,13,"['A', 'B', 'C', 'D', 'E', 'F', 'G', 'H', 'I', 'J1J2']",8575916.56884851,14639.111111111111,735.1333333333333,16,160,1964/10,59,blank,,False,,,POINT Z (22.281659 114.1833676 0),22.281659,114.1833676
53,"GOLD NING MANSION,TAI HANG DR|高寧大廈,大坑徑",HCB,8115453.494860881,14364.0,565.0,8559513.207849821,15100.0,565.0,10143381.948991824,19190.0,600.0,4,10,17,"['C', 'E', 'F', 'G', 'H']",8853021.192698037,16662.2,574.1999999999999,20,100,1967/03,56,blank,,False,,,POINT Z (22.2738628 114.1931439 0),22.2738628,114.1931439
54,"HARVEST MOON VILLA,FUK KWAN AVE|頌月花園,福群道",HCB,14534037.977265747,7768.0,910.0,14534037.977265747,7768.0,910.0,14642556.79841423,7826.0,936.0,2,2,3,"['A', 'B']",14570210.917648574,7787.333333333333,923.0,4,8,1991/08,32,blank,,False,,,POINT Z (22.2760998 114.1938869 0),22.2760998,114.1938869
55,"KINGSTON BLDG(Block A),KINGSTON ST|京士頓大廈A座,京士頓街",HCB,7168880.56192803,12311.0,661.0,6120141.731131142,12103.0,574.0,23282396.783519953,14931.0,1566.0,5,10,15,"['1', '2', '3', '4', '45', '5']",10805487.219052425,13244.333333333334,876.0555555555555,14,84,1965/12,58,KINGSTON BLDG,京士頓大廈,True,2.0,174.0,POINT Z (22.2815401 114.1857827 0),22.2815401,114.1857827
56,"LEI HA COURT,HAVEN ST|禮希大樓,希雲街",HCB,6146533.552950484,13380.0,440.0,6326002.874702144,14412.0,440.0,6408954.137887577,16534.0,440.0,2,6,10,"['11A', 'whole floor']",6316194.5942567,15425.0,438.5,12,24,1959/06,64,blank,,False,,,POINT Z (22.2777318 114.1867115 0),22.2777318,114.1867115
57,"PROSPECT MANSION,PATERSON ST|海灣大廈,百德新街",HCB,14704170.314426208,8060.0,920.0,15011345.466826621,8223.0,920.0,22084521.778973628,15731.0,1114.0,3,6,10,"['A', 'B', 'C', 'D']",17172622.38799523,10576.055555555555,1017.0,12,48,1960/09,63,blank,,False,,,POINT Z (22.2823655 114.1851092 0),22.2823655,114.1851092
58,"YEE WAH MANSION,YEE WO ST|怡華大廈,怡和街",HCB,4402908.0,10731.0,342.0,4265587.5042889565,11133.0,337.0,6541450.53100335,11485.0,572.0,5,10,14,"['A', 'B', 'C', 'D']",5597610.946472138,11832.77777777778,431.3333333333333,14,56,1965/03,58,blank,,False,,,POINT Z (22.279633 114.1855737 0),22.279633,114.18557369999999
59,"RIVIERA MANSION,PATERSON ST|海濱大廈,百德新街",HCB,10394015.279240927,13079.0,875.0,10710830.785008356,13473.0,875.0,16409972.831454955,14497.0,1285.0,3,7,11,"['A', 'B', 'C', 'D']",13307509.914887907,13822.666666666666,1092.0833333333333,13,52,1961/11,62,blank,,False,,,POINT Z (22.2822117 114.1846332 0),22.2822117,114.1846332
60,"TRAFALGAR COURT,TAI HANG RD|大寶閣,大坑道",HCB,69119552.0,27472.0,2516.0,73965368.0,29398.0,2516.0,82553438.9349092,37245.0,2516.0,6,15,24,"['A', 'B']",75521021.28160495,32087.666666666668,2516.0,29,58,1984/06,39,blank,,False,,,POINT Z (22.2771178 114.1913567 0),22.277117800000003,114.1913567
61,"CATHAY MANSION,TUNG LO WAN RD|國泰大廈,銅鑼灣道",HCB,6276585.0,11109.0,520.0,6243450.0,11439.0,520.0,7950740.0,17021.0,665.0,4,8,11,"['A', 'B', 'C', 'D', 'E', 'F', 'G', 'H']",7591599.574479222,12770.333333333334,621.6666666666666,12,96,1966/12,57,blank,,False,,,POINT Z (22.2791945 114.1881013 0),22.2791945,114.1881013
62,"MARCO POLO MANSION,CLEVELAND ST|海威大廈,加寧街",HCB,,,890.0,,,890.0,,,1277.0,4,8,13,"['A', 'B', 'C', 'D']",,,1071.75,14,56,1964/08,59,blank,,False,,,POINT Z (22.282715 114.185889 0),22.282715,114.18588899999999
63,"HYDE PARK MANSION,PATERSON ST|海德大廈,百德新街",HCB,6570705.444922825,10998.0,600.0,6718871.9252229575,11246.0,600.0,18048780.308663663,14524.0,1248.0,3,6,9,"['A', 'B', 'C', 'D', 'E', 'F']",10264971.387476264,12583.122222222222,853.5555555555557,11,66,1958/10,65,blank,,False,,,POINT Z (22.2815993 114.1848538 0),22.281599300000003,114.1848538
64,"CARNATION COURT,TAI HANG RD|康馨園,大坑道",HCB,34284764.89362469,21210.0,1668.0,35950689.84184129,22177.0,1668.0,38872740.0,25726.0,1672.0,12,18,25,"['A', 'B']",36561873.866730355,23350.166666666668,1670.0,22,44,1996/05,27,blank,,False,,,POINT Z (22.2758114 114.1928148 0),22.2758114,114.19281480000001
65,"VICTORIA PARK MANSION,KINGSTON ST|維德大廈,京士頓街",HCB,10591917.830964077,11806.0,901.0,10847609.562441694,12091.0,901.0,18446313.57968273,17163.0,1220.0,4,8,13,"['A', 'B', 'C', 'D']",13989348.411493318,13594.166666666666,1050.25,14,56,1964/08,59,blank,,False,,,POINT Z (22.2822672 114.1861726 0),22.2822672,114.1861726
66,"PATERSON BLDG(Block A),PATERSON ST|百德大廈A座,百德新街",HCB,7797810.675640764,12796.0,502.0,8081788.46360955,13262.0,502.0,9403851.527980993,14683.0,1113.0,4,9,14,"['1', '2', '3', '4', '5']",8573840.528810512,13708.666666666666,785.4666666666666,15,75,1959/12,64,PATERSON BLDG,百德大廈,True,4.0,450.0,POINT Z (22.2805976 114.1852341 0),22.280597600000004,114.1852341
67,"SUNRISE COURT,TAI HANG RD|兆暉閣,大坑道",HCB,18238450.0,16966.0,1075.0,18637605.39455194,19680.0,1075.0,19556227.205157395,20650.0,1075.0,7,14,21,['whole floor'],18810760.866569776,19098.666666666668,1075.0,23,23,1983/04,40,blank,,False,,,POINT Z (22.2757587 114.1935618 0),22.2757587,114.1935618
68,"RICH BLDG,ORMSBY ST|勵志大廈,安庶庇街",HCB,4837373.037133324,15916.0,345.0,5030673.442487482,16552.0,345.0,5216983.4243775755,17165.0,345.0,6,12,19,['whole floor'],5028343.301332794,16544.333333333332,345.0,22,22,1993/04,30,blank,,False,,,POINT Z (22.2779103 114.192633 0),22.277910300000002,114.192633
69,"FAIRVIEW MANSION,PATERSON ST|華爾大廈,百德新街",HCB,5853635.250286509,3015.0,600.0,6055301.258818332,10972.0,604.0,8308769.9523015935,11736.0,1255.0,3,6,9,"['A', 'B', 'C', 'D', 'E', 'F']",7513858.3721797345,10710.6,855.1666666666666,11,66,1958/10,65,blank,,False,,,POINT Z (22.2814102 114.1849467 0),22.2814102,114.1849467
70,"NEWTOWN MANSION,CLEVELAND ST|新唐大廈,加寧街",HCB,11025364.602461744,14899.0,840.0,11367247.846057778,15361.0,840.0,18247251.691095427,15933.0,1300.0,4,8,11,"['A', 'B', 'C', 'D']",13527379.239641083,15438.777777777776,1070.0,12,48,1963/12,60,blank,,False,,,POINT Z (22.2822647 114.18584 0),22.2822647,114.18583999999998
71,"LEI SHUN COURT,LEIGHTON RD|禮信大廈,禮頓道",HCB,14173481.327166459,19176.0,588.0,14483914.27237974,19596.0,588.0,14907433.504777862,20169.0,878.0,3,6,10,"['A', 'B', 'C', 'D', 'E', 'F', 'G', 'H', 'I', 'J']",14399219.490007276,19462.11111111111,720.1333333333332,12,120,1958/12,65,blank,,False,,,POINT Z (22.2778509 114.1862703 0),22.2778509,114.1862703
72,"TOWNING MANSION,PATERSON ST|唐寧大廈,百德新街",HCB,10359168.0,12216.0,848.0,10610176.0,12512.0,848.0,11009584.000000002,12983.0,1112.0,3,6,9,"['A', 'B', 'C', 'D']",11082840.888888888,12630.944444444445,977.3333333333334,11,44,1958/05,65,blank,,False,,,POINT Z (22.2819054 114.1852895 0),22.281905399999996,114.1852895
73,"SHINING BLDG,JAFFE RD|肇明大廈,謝斐道",HCB,4534410.638986868,11698.0,440.0,4708840.865311376,12148.0,440.0,5339115.416430596,13774.0,440.0,7,12,18,"['A', 'B']",4934954.121657959,12731.333333333334,440.0,18,36,1978/04,45,blank,,False,,,POINT Z (22.2811986 114.1825549 0),22.2811986,114.18255490000001
74,"CLEVELAND MANSION,CLEVELAND ST|加寧大廈,加寧街",HCB,12337455.0,9815.0,1257.0,13090398.000000002,10414.0,1257.0,13492638.0,10734.0,1257.0,3,6,9,"['A', 'B', 'C', 'D']",13090118.666666666,10413.777777777776,1257.0,11,44,1962/11,61,blank,,False,,,POINT Z (22.2820115 114.185519 0),22.2820115,114.185519
75,"SUN ON MANSION,CANNON ST|新安大廈,景隆街",HCB,7410566.427060645,24974.0,294.0,8881659.43220346,24313.0,347.0,13944920.468233317,33751.0,469.0,3,6,8,"['A', 'B', 'C', 'D', 'E', 'F', 'G', 'H']",10350605.152047189,27448.541666666668,386.5416666666667,10,80,1964/11,59,blank,,False,,,POINT Z (22.2816186 114.1837624 0),22.2816186,114.1837624
76,"SUNRISE COURT,TUNG LO WAN RD|金暉閣,銅鑼灣道",HCB,3093546.492687314,18008.0,195.0,3159341.0454804744,18391.0,195.0,3391425.747369666,19742.0,195.0,3,6,8,"['A', 'B']",3214370.2580429004,18711.333333333332,195.0,10,20,1983/08,40,blank,,False,,,POINT Z (22.2785681 114.1908798 0),22.2785681,114.19087979999999
77,"EAST SOUTH BLDG,HENNESSY RD|東南大廈,軒尼詩道",HCB,3953826.4608652284,9445.0,327.0,4653255.0,9717.0,327.0,8279209.34544225,10503.0,817.0,6,10,13,"['A', 'A1', 'B', 'C', 'D', 'E', 'F']",5432781.389335341,9834.793650793652,527.7142857142857,12,84,1965/10,58,blank,,False,,,POINT Z (22.2800434 114.1824155 0),22.280043399999997,114.1824155
78,"GREAT GEORGE BLDG,GREAT GEORGE ST|華登大廈,記利佐治街",HCB,7086365.0,11713.0,605.0,7301745.0,12069.0,605.0,18031355.0,15089.0,1195.0,4,8,13,"['A1', 'A2', 'A3', 'A4', 'A5', 'B1', 'B2', 'C1', 'C2', 'C3', 'C4', 'C5', 'D1', 'D2']",10510035.128205128,12896.358974358975,798.5714285714286,14,196,1959/12,64,GREAT GEORGE BLDG,華登大廈,True,1.0,196.0,POINT Z (22.280567 114.1853182 0),22.280567,114.1853182
79,"FONTANA GARDEN(Block B),KA NING PATH|豪園B座,嘉寧徑",HCB,51147030.01617466,22679.0,2560.0,53636836.49520181,23703.0,2560.0,62741583.35211249,25898.0,2750.0,3,10,16,"['3', '4', '5', '6', 'whole floor']",56086407.73535678,24033.733333333337,2648.6666666666665,20,100,1965/12,58,FONTANA GARDEN,豪園,True,3.0,295.0,POINT Z (22.277906 114.190356 0),22.277906,114.19035600000001
80,"PEARL CITY MANSION,PATERSON ST|珠城大廈,百德新街",HCB,3955289.9541391563,11216.0,246.0,4172497.872028641,11955.0,246.0,13320600.0,20881.0,3781.0,10,19,28,"['A1', 'A10', 'A1A', 'A1B', 'A2', 'A3', 'A3A', 'A4', 'A5', 'A5A', 'A6', 'A6A', 'A7', 'A7A', 'A7B', 'A8', 'A8A', 'A8B', 'A9', 'A9A', 'B1', 'B2', 'B3', 'B4', 'B5', 'B6', 'C1', 'C2', 'C2-C9', 'C3', 'C4', 'C5', 'C6', 'C7', 'C8', 'C9']",6522468.339405634,15667.971428571429,529.8055555555555,27,972,1970/08,53,PEARL CITY MANSION,珠城大廈,True,1.0,972.0,POINT Z (22.2810532 114.1858291 0),22.281053200000002,114.18582909999999
81,"CLARKE MANSION,KINGSTON ST|嘉賓大廈,京士頓街",HCB,10080440.768216176,12764.0,759.0,10376702.035358232,13372.0,759.0,25001372.907650378,17388.0,1444.0,4,8,11,"['A', 'B', 'C', 'D']",16714393.28580341,14961.083333333334,1090.6666666666667,12,48,1963/11,60,blank,,False,,,POINT Z (22.2820226 114.1860207 0),22.2820226,114.1860207
82,"VIENNA MANSION,PATERSON ST|華納大廈,百德新街",HCB,6781107.192476087,12468.0,600.0,6931222.9024038445,12758.0,600.0,14431471.560547056,13886.0,1255.0,3,6,9,"['A', 'B', 'C', 'D', 'E', 'F']",9681899.867005534,13039.944444444445,848.6666666666666,11,66,1958/11,65,blank,,False,,,POINT Z (22.2818462 114.1849467 0),22.2818462,114.1849467
83,"FONTANA GARDEN(Block C),KA NING PATH|豪園C座,嘉寧徑",HCB,51034267.04158104,22366.0,2560.0,52973790.20459133,23160.0,2560.0,61036043.36138397,25194.0,2750.0,3,8,14,"['14', '15', '16', '17', 'whole floor']",54842366.07544597,23614.2,2636.0,18,90,1966/06,57,FONTANA GARDEN,豪園,True,3.0,295.0,POINT Z (22.277906 114.190356 0),22.277906,114.19035600000001
84,"HIN WAH BLDG,HENNESSY RD|軒華大廈,軒尼詩道",HCB,4447168.216041705,10414.0,463.0,4474496.499126617,10621.0,463.0,5641136.948507787,11117.0,576.0,5,8,11,"['A', 'B', 'C']",4838061.678517842,9966.88888888889,504.8888888888889,9,27,1965/08,58,blank,,False,,,POINT Z (22.2793901 114.1818582 0),22.2793901,114.1818582
85,"KESWICK COURT,KESWICK ST|敬誠閣,敬誠街",HCB,7520615.999999999,14031.0,536.0,7338376.0,13691.0,536.0,8329440.0,15540.0,536.0,7,14,20,"['A', 'B']",7729477.333333333,14420.666666666666,536.0,20,40,1988/05,35,blank,,False,,,POINT Z (22.278673 114.1864097 0),22.278673,114.18640970000001
86,"HENNESSY APTS,PERCIVAL ST|軒尼詩大廈,波斯富街",HCB,4138563.0,9375.0,429.0,4523202.0,9782.0,454.0,7070280.0,10632.0,665.0,7,12,16,"['A', 'B', 'C', 'D', 'E', 'F', 'G', 'H', 'J', 'K', 'L', 'M']",5613604.944444444,10046.027777777776,557.8888888888889,16,192,1960/07,63,blank,,False,,,POINT Z (22.2797994 114.1829961 0),22.279799399999998,114.18299609999998
87,"LEI WEN COURT,HAVEN ST|禮雲大樓,希雲街",HCB,5629700.0,11852.0,475.0,5275027.0,12071.0,437.0,6399200.0,13472.0,475.0,3,6,10,['whole floor'],5767975.666666667,12465.0,462.3333333333333,12,12,1959/10,64,blank,,False,,,POINT Z (22.277545 114.186921 0),22.277545,114.186921
88,"KWONG ON BLDG,YEE WO ST|廣安大廈,怡和街",HCB,4705472.071445391,10056.0,442.0,4850455.304107661,10281.0,446.0,8646030.600106778,14177.0,774.0,5,8,12,"['A', 'B', 'C', 'D']",6404557.973365348,12117.583333333334,590.5,12,48,1966/01,57,blank,,False,,,POINT Z (22.279808 114.1850164 0),22.279808,114.18501640000001
89,58 TAI HANG RD|58 大坑道,HCB,25381876.975416303,17813.0,1431.0,27715875.430799,19451.0,1431.0,,,2862.0,5,18,29,['whole floor'],26548876.20310765,18632.0,1908.0,32,32,1957/07,66,blank,,False,,,POINT Z (22.2703638 114.1910735 0),22.270363800000002,114.19107350000002
90,"RONSDALE GARDEN(Block 1),TAI HANG DR|龍華花園1座,大坑徑",HCB,11456408.0,15956.0,718.0,12424272.0,17304.0,718.0,20920288.0,21089.0,992.0,6,17,28,"['A', 'B', 'C', 'D', 'E', 'F']",16955414.555555556,18855.94444444445,895.6666666666666,33,198,1986/05,37,RONSDALE GARDEN,龍華花園,True,2.0,396.0,POINT Z (22.2747538 114.1955124 0),22.2747538,114.19551240000001
91,"FLORIDA MANSION,CLEVELAND ST|華高大廈,加寧街",HCB,12321518.61392812,13672.0,1023.0,12587379.350551058,13967.0,1023.0,12762216.58073699,14161.0,1194.0,3,6,8,"['A', 'B', 'C', 'D']",12557038.181738721,13933.333333333334,1108.5,10,40,1964/03,59,blank,,False,,,POINT Z (22.2822718 114.1855729 0),22.2822718,114.18557290000001
92,"THE FIRST MANSION,TUNG LO WAN RD|第一閣,銅鑼灣道",HCB,5722938.0,17186.0,333.0,6435891.0,19327.0,333.0,6990669.0,20993.0,333.0,5,12,20,"['A', 'B']",6471300.0,19433.333333333332,333.0,24,48,1995/11,28,blank,,False,,,POINT Z (22.279103 114.19179 0),22.279103,114.19179
93,"LAI YUEN APTS,RUSSELL ST|麗園大廈,羅素街",HCB,4380180.0,10429.0,392.0,4090962.0000000005,10703.0,362.0,6958648.0,15617.0,1057.0,4,8,11,"['A', 'B', 'C', 'D', 'E', 'F', 'G', 'H', 'HI', 'I', 'J']",5846760.146902037,11222.419312169312,551.6363636363636,12,132,1964/04,59,blank,,False,,,POINT Z (22.2790248 114.1833996 0),22.279024800000002,114.1833996
94,"HAPPY MANSION,LEE GARDEN RD|HAPPY MANS,利園山道",HCB,16201195.04754877,31837.0,430.0,16246485.318592897,31926.0,430.0,16338083.619581016,32106.0,430.0,2,3,4,['whole floor'],16261921.328574227,31956.333333333332,430.0,5,5,1963/01,60,blank,,False,,,POINT Z (22.27947 114.183242 0),22.27947,114.18324199999999
95,"CHERRY COURT,TAI HANG RD|芝蘭閣,大坑道",HCB,18523864.553538013,15518.0,1355.0,18926142.060597062,15855.0,1355.0,21853640.66839157,17108.0,1450.0,3,6,10,"['12', 'whole floor']",20223407.404035706,16353.833333333334,1402.5,12,24,1965/12,58,blank,,False,,,POINT Z (22.2770601 114.1927723 0),22.277060100000003,114.1927723
96,"GRAND DECO TOWER,TAI HANG RD|帝后臺,大坑道",HCB,18233078.794726193,19093.0,1084.0,19523231.70163841,20444.0,1084.0,21385406.511763386,22394.0,1084.0,16,26,36,"['A', 'B']",19880864.761326518,20818.5,1084.0,27,54,1999/03,24,blank,,False,,,POINT Z (22.2768994 114.1935154 0),22.276899399999998,114.19351540000001
97,"FONTANA GARDEN(Block A),KA NING PATH|豪園A座,嘉寧徑",HCB,43553935.181214094,17086.0,773.0,45603412.17323658,17890.0,773.0,55837053.56010073,23048.0,2750.0,4,10,17,"['22', '22A', '23', '24', '25']",49615609.36504349,19388.0,2278.6,22,110,1971/05,52,FONTANA GARDEN,豪園,True,3.0,295.0,POINT Z (22.277906 114.190356 0),22.277906,114.19035600000001
98,"Y.I,TAI HANG RD|Y.I,大坑道",HCB,9507675.7561237,18222.0,524.0,10175018.379989477,19501.0,524.0,25147386.0,23859.0,1054.0,11,20,29,"['A', 'B', 'C']",16820049.504102614,20838.0,794.6666666666666,25,75,2001/03,22,blank,,False,,,POINT Z (22.276984 114.1925633 0),22.276984,114.19256329999999
99,"WELL-FOUND BLDG,JAFFE RD|匯創大廈,謝斐道",HCB,4806984.0,15407.0,312.0,5107439.999999999,16370.0,312.0,5385120.0,17260.0,312.0,9,18,26,['whole floor'],5099848.0,16345.666666666666,312.0,21,21,2001/02,22,blank,,False,,,POINT Z (22.2809367 114.1828335 0),22.2809367,114.1828335
100,"THE GRANDEUR,JARDINE'S BAZAAR|采怡閣,渣甸街",HCB,6605600.0,16514.0,394.0,6968800.0,17422.0,394.0,7733110.0,18634.0,419.0,9,16,24,"['A', 'B', 'C', 'D']",7220986.5,17741.916666666668,407.0,22,88,2002/11,21,blank,,False,,,POINT Z (22.2792194 114.1851557 0),22.2792194,114.18515570000001
101,"PO MING BLDG,FOO MING ST|寶明大廈,富明街",HCB,3680309.9999999995,9990.0,335.0,3658200.0,9805.0,335.0,7834050.0,11606.0,675.0,3,7,11,"['A', 'B', 'C', 'D', 'E', 'F', 'G', 'H', 'I', 'J', 'K', 'L', 'M', 'N', 'O']",4947176.888888889,10864.0,454.22222222222223,13,195,1964/04,59,blank,,False,,,POINT Z (22.2784909 114.1835534 0),22.278490899999998,114.1835534
102,"HAMILTON MANSION(Block A1),CLEVELAND ST|美登大廈A1座,加寧街",HCB,,,976.0,,,976.0,,,1238.0,3,6,9,"['A', 'B', 'C', 'D']",,,1093.5,11,44,1962/11,61,HAMILTON MANSION,美登大廈,True,1.0,44.0,POINT Z (22.2818061 114.1856908 0),22.2818061,114.1856908
103,8 PAK SHA RD|8 白沙道,HCB,13975649.259770816,18340.0,865.0,14097574.22605017,18500.0,865.0,13281837.177271785,18319.0,823.0,2,3,4,['whole floor'],13785020.221030923,18386.333333333332,851.0,5,5,1955/03,68,blank,,False,,,POINT Z (22.2791031 114.1841873 0),22.2791031,114.18418729999999
104,"PHOENIX APTS,LEE GARDEN RD|鳳鳴大廈,利園山道",HCB,7169301.012562787,9685.0,395.0,7306774.214422441,10038.0,395.0,11755155.143584361,12519.0,974.0,4,9,14,"['A', 'B', 'C', 'D', 'E', 'E1', 'F', 'G', 'H', 'I', 'J', 'K', 'L']",8455022.084424624,11021.63888888889,746.8717948717949,17,221,1959/07,64,blank,,False,,,POINT Z (22.2783546 114.1839585 0),22.2783546,114.1839585
105,"GRANDVIEW MANSION,WANG FUNG TERR|偉景大廈,宏豐臺",HCB,13881143.991653765,13302.0,1048.0,13980280.112478236,13397.0,1048.0,20273742.97153409,14927.0,1364.0,1,2,3,"['2', '3', '4', '5', '6', 'whole floor']",17740448.319323856,14153.944444444445,1261.5555555555554,3,18,1955/01,68,blank,,False,,,POINT Z (22.2764148 114.1916113 0),22.2764148,114.19161129999999
106,"THE LEGEND(Block 2),TAI HANG DR|名門2座,大坑徑",HCB,33987284.0,23834.0,1426.0,37364052.0,26202.0,1426.0,41226900.0,28830.0,1430.0,23,36,48,"['A', 'B']",37647869.0,26357.166666666668,1428.3333333333333,35,70,2006/11,17,THE LEGEND,名門,True,4.0,437.0,POINT Z (22.2752914 114.1949921 0),22.2752914,114.19499209999998
107,518 JAFFE RD|518 謝斐道,HCB,,,737.0,,,737.0,,,737.0,2,3,4,['whole floor'],,,737.0,3,3,1961/12,62,blank,,False,,,POINT Z (22.2790636 114.1768091 0),22.279063600000004,114.1768091
108,"RITA HSE,LEIGHTON RD|麗達大廈,禮頓道",HCB,,,219.0,,,219.0,6778165.0,12437.0,545.0,3,6,9,"['F.P.', 'R.P.', 'whole floor']",6778165.0,12437.0,377.77777777777777,9,27,1963/02,60,blank,,False,,,POINT Z (22.2782353 114.1863516 0),22.2782353,114.18635159999998
109,"JARDINE SUMMIT,TAI HANG RD|渣甸豪庭,大坑道",HCB,11637527.481747603,15553.0,767.0,12697695.89717244,16549.0,773.0,13489029.0,19540.0,782.0,10,18,26,"['A', 'B']",12673035.523340082,17469.0,773.8333333333334,22,44,2005/06,18,blank,,False,,,POINT Z (22.2758764 114.1938521 0),22.275876399999998,114.1938521
110,"THE LEGEND(Block 5),TAI HANG DR|名門5座,大坑徑",HCB,16933455.0,19005.0,891.0,18438354.0,20694.0,891.0,22585563.0,25185.0,1783.0,23,36,50,"['A', 'AB', 'B', 'C', 'D']",23624139.25,22770.983333333334,1071.2,36,180,2006/11,17,THE LEGEND,名門,True,4.0,437.0,POINT Z (22.2747146 114.1947926 0),22.2747146,114.1947926
111,17-17A SHELTER ST|17-17A 信德街,HCB,6853335.993322754,15950.0,431.0,6926294.044475917,16123.0,431.0,7824290.455282037,16614.0,487.0,2,4,7,"['A', 'B']",7445855.374422361,16155.0,463.5,8,16,1965/07,58,blank,,False,,,POINT Z (22.2793531 114.1884061 0),22.2793531,114.1884061
112,"THE LEGEND(Block 1),TAI HANG DR|名門1座,大坑徑",HCB,26282358.0,22914.0,1146.0,28276991.0,24653.0,1146.0,83033866.46912605,41105.0,2293.0,25,37,52,"['A', 'AB', 'B']",39985732.67169713,28292.833333333332,1528.6666666666667,33,99,2006/11,17,THE LEGEND,名門,True,4.0,437.0,POINT Z (22.2752914 114.1949921 0),22.2752914,114.19499209999998
113,"THE LEGEND(Block 3),TAI HANG DR|名門3座,大坑徑",HCB,29376706.20967521,20045.0,1491.0,32368887.59781025,21860.0,1491.0,39441218.38658545,27419.0,1796.0,22,34,51,"['A', 'B', 'C']",35958550.9317807,23509.777777777777,1618.3333333333333,32,96,2006/11,17,THE LEGEND,名門,True,4.0,437.0,POINT Z (22.274827 114.195048 0),22.274827,114.195048
114,"SAI SEE MANSION,WUN SHA ST|西施樓,浣紗街",HCB,,,360.0,,,360.0,,,465.0,2,4,6,"['A', 'B', 'C']",,,401.5555555555555,7,21,1964/05,59,blank,,False,,,POINT Z (22.2784843 114.1925865 0),22.2784843,114.1925865
115,32A JARDINE'S BAZAAR|32A 渣甸街,HCB,,,565.0,,,495.0,,,565.0,6,8,11,['whole floor'],,,541.6666666666666,10,10,1967/05,56,blank,,False,,,POINT Z (22.2795527 114.1852116 0),22.2795527,114.18521159999999
116,"WARRENWOODS,WARREN ST|尚巒,華倫街",HCB,4878915.0,16889.0,265.0,5362805.0,19264.0,265.0,12407304.0,22676.0,552.0,12,24,35,"['A', 'B', 'C', 'D', 'E', 'F']",7653151.666666667,20097.11111111111,380.6666666666667,30,180,2012/09,11,blank,,False,,,POINT Z (22.278161 114.191637 0),22.278160999999997,114.19163700000001
117,16D TAI HANG RD|16D 大坑道,HCB,12101618.480020214,16142.0,851.0,12140602.754643003,16194.0,851.0,12140602.754643003,16194.0,851.0,1,2,2,['whole floor'],12127607.996435406,16176.666666666666,851.0,4,4,1955/01,68,blank,,False,,,POINT Z (22.2703638 114.1910735 0),22.270363800000002,114.19107350000002
118,"THE WARREN,WARREN ST|瑆華,華倫街",HCB,7077314.0,18520.0,382.0,7751162.0,19273.0,382.0,50168552.86929039,41230.0,1222.0,10,20,30,"['A', 'AC', 'B', 'C', 'D']",17299209.01257975,23804.399999999998,641.6,26,130,2014/01,9,blank,,False,,,POINT Z (22.2784825 114.1915549 0),22.278482500000003,114.19155490000001
119,"PARK HAVEN,HAVEN ST|曦巒,希雲街",HCB,7420868.0,18524.0,377.0,7964879.0,20461.0,377.0,22701800.0,26708.0,850.0,7,18,27,"['A', 'B', 'C', 'D', 'E', 'F', 'G', 'H']",10359658.666666666,20863.5,492.9583333333333,26,208,2014/06,9,blank,,False,,,POINT Z (22.2775121 114.1874278 0),22.277512100000003,114.1874278
120,520 JAFFE RD|520 謝斐道,HCB,,,739.0,,,739.0,,,739.0,5,7,9,['whole floor'],,,739.0,7,7,1961/12,62,blank,,False,,,POINT Z (22.2790636 114.1768091 0),22.279063600000004,114.1768091
121,"SZE HAI BLDG,SHEPHERD ST|SZE HAI BLDG,施弼街",HCB,5230933.437679841,10915.0,460.0,5034197.285443533,11096.0,460.0,5080927.84784446,11199.0,544.0,3,4,5,"['A', 'B', 'C', 'D']",5115352.856989278,11070.0,510.5,3,12,1964/07,59,blank,,False,,,POINT Z (22.2782091 114.1918435 0),22.2782091,114.1918435
122,"YOO RESIDENCE,TUNG LO WAN RD|YOO RESIDENCE,銅鑼灣道",HCB,6257585.0,17627.0,349.0,6762395.0,19049.0,349.0,24241295.344926514,31665.0,2683.0,9,18,27,"['A', 'B', 'C', 'C-E', 'CD', 'CE', 'D', 'E', 'F', 'G']",10641342.05391386,23561.291666666668,799.5,24,240,2015/08,8,blank,,False,,,POINT Z (22.278856 114.1889699 0),22.278856,114.1889699
123,"JONES HIVE,JONES ST|雋琚,重士街",HCB,7071921.0,20697.0,333.0,8119872.0,22855.0,333.0,45444396.08292736,41042.0,1112.0,12,25,36,"['A', 'AB', 'B', 'C', 'D']",16887538.925560623,26207.533333333336,599.4,31,155,2016/11,7,blank,,False,,,POINT Z (22.2781929 114.1912159 0),22.278192899999997,114.1912159
124,533 LOCKHART RD|533 駱克道,HCB,,,543.0,,,543.0,,,543.0,4,4,5,['whole floor'],,,543.0,2,2,1955/07,68,blank,,False,,,POINT Z (22.2785972 114.1766163 0),22.278597199999997,114.17661629999999
125,55 JARDINE'S BAZAAR|55 渣甸街,HCB,8491395.561587885,17430.0,553.0,8501626.158650039,17451.0,553.0,8556676.514270201,17564.0,553.0,2,3,4,['whole floor'],8516566.078169376,17481.666666666668,553.0,3,3,1961/02,62,blank,,False,,,POINT Z (22.2795527 114.1852116 0),22.2795527,114.18521159999999
