,final_address,district,lowZone_value,lowZone_npsf_min,lowZone_nfa_min,midZone_value,midZone_npsf_min,midZone_nfa_min,highZone_value,highZone_npsf_max,highZone_nfa_max,oneSixth_floor,middle_floor,fifthSixth_floor,unit_list,value_avg,npsf_avg,unitSize_avg,noStorey,noFlat,op_date,bldgAge,est_name_en,est_name_ch,est_orNot,est_bldgNo,est_flatNo,final_coords,lat,long
0,"WINWAY COURT,TAI HANG RD|永威閣,大坑道",HCB,9199170.0,14908.0,615,9697935.0,15769.0,615,17576130.0,18798.0,935,6.0,14.0,21.0,"['A', 'B', 'C', 'D', 'E', 'F']",10994932.5,15983.722222222224,723.0555555555555,23,138,1982/06,39,blank,,False,,,POINT Z (22.2777694 114.192006 0),22.2777694,114.192006
1,"ILLUMINATION TERR(Block 1),TAI HANG RD|光明臺1座,大坑道",HCB,9560448.0,16598.0,576,10561536.0,18336.0,576,18491820.0,22718.0,820,8.0,22.0,37.0,"['A', 'B', 'C', 'D', 'E', 'F', 'G', 'H']",13957643.291666666,19849.916666666668,698.25,44,352,1993/05,28,ILLUMINATION TERR,光明臺,True,2.0,704.0,POINT Z (22.2775651 114.1927491 0),22.2775651,114.19274909999999
2,"HONG KONG MANSION,YEE WO ST|香港大廈,怡和街",HCB,6026796.0,11101.0,478,6478866.0,11653.0,478,9459334.0,14594.0,766,6.0,13.0,20.0,"['A', 'B', 'C', 'D', 'E', 'F', 'G', 'H', 'I', 'J', 'K', 'L', 'M', 'N', 'O', 'P', 'Q']",7291720.215686274,12458.509803921568,589.6470588235294,21,357,1966/03,55,HONG KONG MANSION,香港大廈,True,1.0,357.0,POINT Z (22.2799698 114.1855626 0),22.2799698,114.1855626
3,"CHEE ON BLDG,EAST POINT RD|置安大廈,東角道",HCB,7431840.0,15217.0,480,7782720.0,15850.0,480,9766890.0,17690.0,555,7.0,16.0,24.0,"['5', 'I', 'J', 'K', 'L', 'M', 'M17', 'N', 'O', 'P']",8480514.5,16456.166666666668,515.5,26,260,1972/09,49,blank,,False,,,POINT Z (22.2803599 114.1849412 0),22.280359899999997,114.1849412
4,"BAY VIEW MANSION,MORETON TERR|灣景樓,摩頓臺",HCB,6601360.0,13072.0,340,5917410.226106088,13716.0,320,19172450.0,15845.0,1210,5.0,12.0,19.0,"['A1', 'A2', 'A3', 'A4', 'A5', 'A6', 'A7', 'A8', 'B1', 'B2', 'B3', 'B4', 'B5', 'C1', 'C2', 'C4', 'C5']",10738470.055983782,14204.297794117645,741.3333333333334,21,357,1966/12,55,BAY VIEW MANSION,灣景樓,True,1.0,357.0,POINT Z (22.2795895 114.188755 0),22.2795895,114.188755
5,"RONSDALE GARDEN(Block 2),TAI HANG DR|龍華花園2座,大坑徑",HCB,14650790.0,20405.0,718,15825438.0,22041.0,718,24344320.0,24971.0,988,6.0,17.0,28.0,"['A', 'B', 'C', 'D', 'E', 'F']",20351244.944444444,22740.777777777777,892.8333333333334,33,198,1986/07,35,RONSDALE GARDEN,龍華花園,True,2.0,396.0,POINT Z (22.2747388 114.195884 0),22.2747388,114.195884
6,"ILLUMINATION TERR(Block 2),TAI HANG RD|光明臺2座,大坑道",HCB,9726912.0,16887.0,576,10047744.0,17444.0,576,18198260.0,22193.0,820,8.0,22.0,37.0,"['A', 'B', 'C', 'D', 'E', 'F', 'G', 'H']",13741301.833333334,19555.083333333332,698.25,44,352,1993/05,28,ILLUMINATION TERR,光明臺,True,2.0,704.0,POINT Z (22.2774193 114.1931206 0),22.2774193,114.1931206
7,"CATHAY MANSION,TUNG LO WAN RD|國泰大廈,銅鑼灣道",HCB,6804420.330715306,12211.0,520,7094885.446144339,12611.0,520,11749105.223152518,14332.0,765,4.0,8.0,11.0,"['A', 'B', 'C', 'D', 'E', 'F', 'G', 'H']",8972643.784231301,13285.416666666666,631.25,12,96,1966/12,55,blank,,False,,,POINT Z (22.2791945 114.1881013 0),22.2791945,114.1881013
8,"HOI TO COURT,GLOUCESTER RD|海都大廈,告士打道",HCB,,,405,,,420,,,946,4.0,8.0,13.0,"['A', 'B', 'C', 'D', 'E', 'F', 'G', 'H', 'I', 'J1J2']",,,735.6666666666666,16,160,1964/10,57,blank,,False,,,POINT Z (22.281659 114.1833676 0),22.281659,114.1833676
9,"YEE ON BLDG,EAST POINT RD|怡安大廈,東角道",HCB,6870240.0,14063.0,480,8062080.0,14982.0,480,9050800.0,17738.0,1100,7.0,16.0,24.0,"['A', 'B', 'BC', 'C', 'D', 'E', 'F', 'F19', 'G', 'H']",,,577.0,26,260,1972/09,49,blank,,False,,,POINT Z (22.2810475 114.1844823 0),22.2810475,114.18448229999998
10,"JOLLY VILLA,TAI HANG RD|竹麗苑,大坑道",HCB,25956021.0,21046.0,1187,27296802.0,22021.0,1187,28815306.0,23834.0,1209,10.0,17.0,25.0,"['A', 'B']",27595402.828852236,22254.833333333332,1198.0,23,46,1992/09,29,blank,,False,,,POINT Z (22.2773513 114.1923079 0),22.2773513,114.19230790000002
11,"HIGHLAND MANSION,CLEVELAND ST|海倫大廈,加寧街",HCB,14599182.099368818,9847.0,860,15131990.44196653,5804.0,860,27515843.63910426,12325.0,1355,5.0,8.0,10.0,"['A', 'B', 'C', 'D']",19053908.565337434,9310.333333333334,1110.5,10,40,1964/08,57,blank,,False,,,POINT Z (22.2826589 114.1858756 0),22.282658899999998,114.1858756
12,"CLEVELAND MANSION,CLEVELAND ST|加寧大廈,加寧街",HCB,13767921.0,9968.0,1257,14074629.0,10193.0,1257,16833660.349641602,12082.0,1257,3.0,6.0,9.0,"['A', 'B', 'C', 'D']",15760542.48741836,10865.333333333334,1257.0,11,44,1962/11,59,blank,,False,,,POINT Z (22.2820115 114.185519 0),22.2820115,114.185519
13,"KANFIELD MANSION,SUN CHUN ST|勤輝大廈,新村街",HCB,6400100.0,15610.0,410,6752290.0,16469.0,410,7228710.0,17631.0,410,5.0,12.0,19.0,"['A', 'B', 'C']",6787413.333333333,16554.666666666668,410.0,21,63,1977/07,44,blank,,False,,,POINT Z (22.2777834 114.1924704 0),22.277783399999997,114.19247040000002
14,"CARNATION COURT,TAI HANG RD|康馨園,大坑道",HCB,39550672.275897294,22074.0,1668,39491802.33591755,22094.0,1668,44447473.36903978,24807.0,1672,12.0,18.0,25.0,"['A', 'B']",41409473.270683646,23138.666666666668,1670.0,22,44,1996/05,25,blank,,False,,,POINT Z (22.2758114 114.1928148 0),22.2758114,114.19281480000001
15,"LEI SHUN COURT,LEIGHTON RD|禮信大廈,禮頓道",HCB,9036985.862884335,13751.0,588,9237359.695292454,14660.0,588,13649358.216961304,16983.0,839,3.0,6.0,10.0,"['A', 'B', 'C', 'D', 'E', 'F', 'G', 'H', 'I', 'J']",11261590.452662304,15115.833333333334,712.8333333333334,12,120,1958/12,63,blank,,False,,,POINT Z (22.2778509 114.1862703 0),22.2778509,114.1862703
16,"HARVEST MOON VILLA,FUK KWAN AVE|頌月花園,福群道",HCB,19123621.95013421,6932.0,910,19123621.95013421,6932.0,910,20124021.792649683,7092.0,936,2.0,2.0,3.0,"['A', 'B']",19608950.920901775,7007.0,923.0,4,8,1991/08,30,blank,,False,,,POINT Z (22.2760998 114.1938869 0),22.2760998,114.1938869
17,1 TAI HANG RD|1 大坑道,HCB,10639050.0,18665.0,567,11215320.0,19676.0,567,18976731.0,22492.0,879,5.0,14.0,22.0,"['A', 'B', 'C', 'D']",13243305.25,20291.333333333332,651.75,26,104,1990/10,31,blank,,False,,,POINT Z (22.2703638 114.1910735 0),22.270363800000002,114.19107350000002
18,"LOK SING CTR(Block B),YEE WO ST|樂聲大廈B座,怡和街",HCB,6196050.0,16605.0,350,6526100.0,17460.0,350,8353600.0,20884.0,400,9.0,16.0,24.0,"['1', '2', '3', '4', '5', '6', '7', '8']",7129666.666666667,19005.375,375.0,24,192,1977/12,44,LOK SING CTR,樂聲大廈,True,2.0,408.0,POINT Z (22.2797597 114.1868144 0),22.2797597,114.1868144
19,"LEE FAT BLDG,JARDINE'S CRES|利發大廈,渣甸坊",HCB,4044079.0,16505.0,218,4164082.0,17438.0,218,5057360.0,20827.0,280,8.0,12.0,17.0,"['A', 'B', 'C']",4475803.444444444,18801.222222222223,239.66666666666666,16,48,1983/03,38,blank,,False,,,POINT Z (22.2794014 114.1848306 0),22.2794014,114.18483059999998
20,"VIENNA MANSION,PATERSON ST|華納大廈,百德新街",HCB,8107800.0,12695.0,600,8287200.0,13184.0,600,16938735.0,14397.0,1255,3.0,6.0,9.0,"['A', 'B', 'C', 'D', 'E', 'F']",11449133.777777776,13619.0,848.6666666666666,11,66,1958/11,63,blank,,False,,,POINT Z (22.2818462 114.1849467 0),22.2818462,114.1849467
21,"VANCOUVER MANSION,KINGSTON ST|漢寧大廈,京士頓街",HCB,15613590.584888166,13294.0,1096,15940097.142929306,13450.0,1096,41706549.145172946,17853.0,2180,4.0,7.0,10.0,"['A', 'AB', 'B', 'C']",22797966.034020554,14709.083333333334,1403.5,11,44,1964/11,57,blank,,False,,,POINT Z (22.2816106 114.1860168 0),22.281610600000004,114.1860168
22,"INTELLIGENT COURT,TUNG LO WAN RD|海麗軒,銅鑼灣道",HCB,9121167.522148984,16373.0,433,10281020.376306081,18455.0,433,,,3051,11.0,28.0,57.0,"['A', 'AB', 'B']",,,1307.3333333333333,53,159,1988/06,33,blank,,False,,,POINT Z (22.2784284 114.1907288 0),22.2784284,114.19072879999999
23,"GOLD KING MANSION,TAI HANG DR|高景大廈,大坑徑",HCB,9141960.0,15762.0,567,9459800.0,16310.0,570,11154000.0,18590.0,600,4.0,10.0,17.0,"['A', 'B', 'C', 'D']",9991453.166666666,17086.75,584.75,20,80,1967/03,54,blank,,False,,,POINT Z (22.2740735 114.1931903 0),22.2740735,114.1931903
24,"KINGSTON BLDG(Block A),KINGSTON ST|京士頓大廈A座,京士頓街",HCB,7303576.0,12724.0,574,7576800.0,13200.0,574,27162381.985765062,16186.0,1566,5.0,10.0,15.0,"['1', '2', '3', '4', '45', '5']",12713294.2033624,13929.199999999999,872.0,14,84,1965/12,56,KINGSTON BLDG,京士頓大廈,True,2.0,174.0,POINT Z (22.2815401 114.1857827 0),22.2815401,114.1857827
25,"PATERSON BLDG(Block C),PATERSON ST|百德大廈C座,百德新街",HCB,6083145.398821329,8187.0,253,6320170.363060244,8506.0,253,19010467.34972013,16025.0,1113,4.0,9.0,14.0,"['2', '3', '5', 'C1', 'C2', 'C3', 'C3A', 'C3B', 'C4', 'C5']",,,689.9,15,150,1959/12,62,PATERSON BLDG,百德大廈,True,4.0,450.0,POINT Z (22.2809264 114.1852737 0),22.2809264,114.1852737
26,"GOLD NING MANSION,TAI HANG DR|高寧大廈,大坑徑",HCB,9426396.970706146,15569.0,565,10005391.874791175,16467.0,565,11344486.904790213,19278.0,600,4.0,10.0,17.0,"['C', 'E', 'F', 'G', 'H']",10254455.381680993,17006.972222222223,574.1999999999999,20,100,1967/03,54,blank,,False,,,POINT Z (22.2738628 114.1931439 0),22.2738628,114.1931439
27,"PO WING BLDG,LEE GARDEN RD|寶榮大樓,利園山道",HCB,5384165.0,13339.0,305,5198046.0,13288.0,305,7286744.0,18483.0,524,5.0,8.0,11.0,"['A', 'B', 'C', 'D', 'E', 'F', 'G', 'H', 'I', 'J', 'K', 'L', 'M', 'N', 'O', 'T']",6355496.833333333,15484.875,420.4166666666667,11,176,1967/03,54,blank,,False,,,POINT Z (22.2782772 114.1837907 0),22.278277199999998,114.18379070000002
28,"YUKON HEIGHTS,TAI HANG RD|煜康臺,大坑道",HCB,21964780.10348041,19900.0,1030,23004519.945564758,20842.0,1030,24527390.0,23813.0,1030,9.0,15.0,21.0,"['A', 'B']",23289298.422048938,21859.833333333332,1030.0,19,38,1982/09,39,blank,,False,,,POINT Z (22.2752066 114.193469 0),22.2752066,114.193469
29,"CHESTERFIELD MANSION,KINGSTON ST|東寧大廈,京士頓街",HCB,12606362.213406418,5096.0,816,12777052.753580092,5165.0,816,25215507.548663013,18900.0,1330,5.0,9.0,13.0,"['A', 'B', 'C', 'D']",19564973.37851155,12814.22222222222,1057.75,13,52,1994/08,27,blank,,False,,,POINT Z (22.28191 114.186138 0),22.28191,114.18613799999999
30,"ROSEDALE,FUK KWAN AVE|玫瑰花園,福群道",HCB,31796079.36906871,16393.0,1810,32744550.229281887,16882.0,1810,33436130.0,18473.0,1810,3.0,7.0,10.0,['whole floor'],32658919.866116866,17249.333333333332,1810.0,11,11,1988/12,33,blank,,False,,,POINT Z (22.2760872 114.1937263 0),22.2760872,114.19372630000001
31,"HOI DEEN COURT,GLOUCESTER RD|海殿大廈,告士打道",HCB,7858721.202806295,8576.0,465,5742997.307810533,8899.0,404,40673469.38440976,20404.0,1455,4.0,9.0,14.0,"['A', 'B', 'C', 'C & D', 'D', 'E', 'F', 'G', 'H']",14848311.018094704,15928.434523809525,689.5185185185186,17,153,1963/08,58,blank,,False,,,POINT Z (22.2818513 114.1836695 0),22.2818513,114.18366950000001
32,"PATERSON BLDG(Block B),PATERSON ST|百德大廈B座,百德新街",HCB,6774992.0,13229.0,502,7063642.0,13533.0,502,11097920.0,14871.0,790,4.0,9.0,14.0,"['1', '2', '3', '4', '5']",9397238.399999999,14027.733333333332,670.2,15,75,1959/12,62,PATERSON BLDG,百德大廈,True,4.0,450.0,POINT Z (22.2805976 114.1852341 0),22.280597600000004,114.1852341
33,"NEWTOWN MANSION,CLEVELAND ST|新唐大廈,加寧街",HCB,12542880.0,13289.0,840,12923400.0,9178.0,840,13579048.471669612,15732.0,1300,4.0,8.0,11.0,"['A', 'B', 'C', 'D']",13318796.807853414,12982.166666666666,1070.0,12,48,1963/12,58,blank,,False,,,POINT Z (22.2822647 114.18584 0),22.2822647,114.18583999999998
34,"H & S BLDG,LEIGHTON RD|嘉柏大廈,禮頓道",HCB,9454500.0,17038.0,530,9763050.0,17751.0,530,11237208.076856397,19686.0,585,11.0,16.0,21.0,"['A', 'B', 'C', 'D']",10500526.187775696,18173.555555555555,559.5833333333334,17,68,1968/05,53,blank,,False,,,POINT Z (22.2774446 114.1835534 0),22.277444600000003,114.1835534
35,"LOK SING CTR(Block A),YEE WO ST|樂聲大廈A座,怡和街",HCB,5346950.0,15277.0,350,5964700.0,16437.0,350,15963000.0,21284.0,750,9.0,16.0,24.0,"['1', '2', '3', '4', '5', '5 & 6', '6', '7', '8']",7556881.481481481,17876.925925925927,416.6666666666667,24,216,1977/12,44,LOK SING CTR,樂聲大廈,True,2.0,408.0,POINT Z (22.2797597 114.1868144 0),22.2797597,114.1868144
36,"DRAGON GARDEN,CHUN FAI TERR|龍園,春暉台",HCB,30591568.84889922,18183.0,1570,32198286.566036038,19138.0,1570,33843700.10253846,20116.0,1570,4.0,10.0,17.0,"['A', 'B', 'C', 'D']",32211185.17249124,19145.666666666668,1570.0,20,80,1976/10,45,blank,,False,,,POINT Z (22.2750494 114.1943281 0),22.275049399999997,114.19432809999999
37,"MORENGO COURT,TAI HANG RD|昍逵閣,大坑道",HCB,17859015.431163736,17360.0,960,18315778.268228065,17804.0,960,19595099.99143137,18983.0,984,3.0,6.0,10.0,"['A', 'B', 'C', 'D']",18824424.151274245,18073.583333333332,972.0,12,48,1976/05,45,blank,,False,,,POINT Z (22.275472 114.1933064 0),22.275472,114.1933064
38,"CLARKE MANSION,KINGSTON ST|嘉賓大廈,京士頓街",HCB,11575620.216541177,13869.0,759,11922108.005484862,14470.0,759,29121183.217848457,15675.0,1444,4.0,8.0,11.0,"['A', 'B', 'C', 'D']",19441253.342368364,14666.083333333334,1090.6666666666667,12,48,1963/11,58,blank,,False,,,POINT Z (22.2820226 114.1860207 0),22.2820226,114.1860207
39,"DRAGON RISE,PENNINGTON ST|登龍閣,邊寧頓街",HCB,5323630.0,16815.0,310,5538880.0,17309.0,310,6032320.0,19151.0,320,7.0,14.0,20.0,"['A', 'B', 'C', 'D']",5688485.833333333,18060.583333333332,315.0,22,88,1986/08,35,blank,,False,,,POINT Z (22.2788334 114.1859452 0),22.278833399999996,114.1859452
40,"TOWNING MANSION,PATERSON ST|唐寧大廈,百德新街",HCB,12250843.935683241,8380.0,848,15231687.704759393,10419.0,848,21758391.425148226,11350.0,1112,3.0,6.0,8.0,"['A', 'B', 'C', 'D']",17703031.682026986,10677.166666666666,980.0,10,40,1958/05,63,blank,,False,,,POINT Z (22.2819054 114.1852895 0),22.281905399999996,114.1852895
41,"SUN HO COURT,TUNG LO WAN RD|新豪閣,銅鑼灣道",HCB,5307120.0,18954.0,280,5453560.0,19477.0,280,6051640.0,21613.0,280,5.0,12.0,19.0,"['A', 'B']",5614373.333333333,20051.333333333332,280.0,23,46,1988/01,33,blank,,False,,,POINT Z (22.2787921 114.1887666 0),22.2787921,114.1887666
42,"PATERSON BLDG(Block D),PATERSON ST|百德大廈D座,百德新街",HCB,6282315.032237611,14241.0,411,7427090.0,14795.0,502,12851720.0,16268.0,790,4.0,9.0,14.0,"['1', '2', '3', '4', '5', 'D1', 'D2', 'D3', 'D4', 'D5']",10270605.63440792,15248.6,670.4666666666667,15,150,1960/08,61,PATERSON BLDG,百德大廈,True,4.0,450.0,POINT Z (22.2805976 114.1852341 0),22.280597600000004,114.1852341
43,"WALDORF MANSION,CAUSEWAY RD|華都大廈,高士威道",HCB,,,704,,,704,,,1199,5.0,9.0,13.0,"['A', 'B', 'C', 'D']",,,924.0,13,52,1964/07,57,blank,,False,,,POINT Z (22.2792598 114.1879423 0),22.2792598,114.18794229999999
44,"MALAHON APTS,JAFFE RD|美漢大廈,謝斐道",HCB,4406160.0,12595.0,320,4455360.0,12854.0,320,9750000.0,16248.0,650,6.0,10.0,15.0,"['A', 'B', 'C', 'D', 'E', 'F', 'G', 'H', 'I', 'IJ', 'J', 'K', 'L', 'M', 'N', 'O', 'P']",5370234.666666667,14221.372549019608,377.29411764705884,16,272,1966/10,55,MALAHON APTS,美漢大廈,True,1.0,272.0,POINT Z (22.2812524 114.1831818 0),22.281252399999996,114.1831818
45,"MARCO POLO MANSION,CLEVELAND ST|海威大廈,加寧街",HCB,19565657.515419,12752.0,890,20886707.63467682,13613.0,890,33172565.113433998,15644.0,1277,4.0,8.0,13.0,"['A', 'B', 'C', 'D']",24735423.719416752,14197.0,1071.75,14,56,1964/08,57,blank,,False,,,POINT Z (22.282715 114.185889 0),22.282715,114.18588899999999
46,"SUNRISE COURT,TUNG LO WAN RD|金暉閣,銅鑼灣道",HCB,3633045.0,18631.0,195,3710850.0,19030.0,195,3798990.0,19482.0,195,3.0,6.0,8.0,"['A', 'B']",3738312.5,19170.833333333332,195.0,10,20,1983/08,38,blank,,False,,,POINT Z (22.2785681 114.1908798 0),22.2785681,114.19087979999999
47,"HOI KUNG COURT,GLOUCESTER RD|海宮大廈,告士打道",HCB,7114550.249790716,8875.0,465,7562666.710594436,9434.0,465,16009365.981583204,19252.0,776,4.0,10.0,16.0,"['A', 'B', 'C', 'D', 'E', 'F', 'G', 'H', 'I']",12510920.711990157,16943.037037037036,666.8888888888889,19,171,1966/01,55,blank,,False,,,POINT Z (22.2816344 114.1831357 0),22.281634399999998,114.18313570000001
48,"SUN ON MANSION,CANNON ST|新安大廈,景隆街",HCB,9608807.412916934,27480.0,294,10515875.568145087,27593.0,347,15828910.15511661,33627.0,469,3.0,6.0,8.0,"['A', 'B', 'C', 'D', 'E', 'F', 'G', 'H']",12192510.001184711,29403.166666666668,386.5416666666667,10,80,1964/11,57,blank,,False,,,POINT Z (22.2816186 114.1837624 0),22.2816186,114.1837624
49,"TRAFALGAR COURT,TAI HANG RD|大寶閣,大坑道",HCB,82358744.0,30893.0,2516,88120384.0,33034.0,2516,94773054.95000628,37133.0,2516,6.0,15.0,24.0,"['A', 'B']",88506140.02206063,33994.833333333336,2516.0,27,54,1984/06,37,blank,,False,,,POINT Z (22.2771178 114.1913567 0),22.277117800000003,114.1913567
50,"GARDENVIEW HEIGHTS,TAI HANG DR|嘉景臺,大坑徑",HCB,22916480.794753347,20722.0,1032,26257330.59963262,22857.0,1072,28821374.95796399,25089.0,1072,7.0,18.0,29.0,"['A', 'B']",25823583.077193648,22891.5,1052.0,33,66,1991/10,30,blank,,False,,,POINT Z (22.2747331 114.1945371 0),22.2747331,114.1945371
51,"FONTANA GARDEN(Block C),KA NING PATH|豪園C座,嘉寧徑",HCB,57189819.40504935,7369.0,2560,59417187.86335429,7656.0,2560,69002275.78856578,23415.0,2750,3.0,8.0,14.0,"['14', '15', '16', '17', 'whole floor']",63654044.38491047,16659.75,2636.0,18,90,1966/06,55,FONTANA GARDEN,豪園,True,3.0,295.0,POINT Z (22.277906 114.190356 0),22.277906,114.19035600000001
52,"HIN WAH BLDG,HENNESSY RD|軒華大廈,軒尼詩道",HCB,5329699.1864440935,10610.0,463,5450761.055881103,10971.0,463,6926746.699372792,11242.0,576,5.0,8.0,11.0,"['A', 'B', 'C']",5960194.534744083,10094.0,504.8888888888889,9,27,1965/08,56,blank,,False,,,POINT Z (22.2793901 114.1818582 0),22.2793901,114.1818582
53,"FONTANA GARDEN(Block B),KA NING PATH|豪園B座,嘉寧徑",HCB,59370938.85733419,21642.0,2560,62657436.62792315,22840.0,2560,71230151.95752397,25391.0,2750,3.0,10.0,16.0,"['3', '4', '5', '6', 'whole floor']",65333213.0759666,23348.86666666667,2648.6666666666665,19,95,1965/12,56,FONTANA GARDEN,豪園,True,3.0,295.0,POINT Z (22.277906 114.190356 0),22.277906,114.19035600000001
54,"SUNRISE COURT,TAI HANG RD|兆暉閣,大坑道",HCB,21297900.0,19812.0,1075,21835400.0,20312.0,1075,22908250.0,21310.0,1075,8.0,14.0,21.0,['whole floor'],22013850.0,20478.0,1075.0,22,22,1983/04,38,blank,,False,,,POINT Z (22.2757587 114.1935618 0),22.2757587,114.1935618
55,"KESWICK COURT,KESWICK ST|敬誠閣,敬誠街",HCB,8534752.491139282,14859.0,536,9009192.598662065,15685.0,536,9430215.11538628,16418.0,536,7.0,14.0,20.0,"['A', 'B']",8992056.84820876,15655.166666666666,536.0,20,40,1988/05,33,blank,,False,,,POINT Z (22.278673 114.1864097 0),22.278673,114.18640970000001
56,"HENNESSY APTS,PERCIVAL ST|軒尼詩大廈,波斯富街",HCB,5696856.179595025,12340.0,429,6242905.520939099,12160.0,454,9280454.471691996,13376.0,665,7.0,12.0,16.0,"['A', 'B', 'C', 'D', 'E', 'F', 'G', 'H', 'J', 'K', 'L', 'M']",7695303.2233575955,12850.083333333334,559.2777777777777,16,192,1960/07,61,blank,,False,,,POINT Z (22.2797994 114.1829961 0),22.279799399999998,114.18299609999998
57,"AVALON,TAI HANG RD|雅景軒,大坑道",HCB,12829416.201243002,17103.0,700,15182563.521789063,20240.0,700,16680566.454250168,22237.0,700,9.0,17.0,24.0,"['A', 'B']",15208317.870319106,20274.333333333332,700.0,23,46,1994/12,27,blank,,False,,,POINT Z (22.2751627 114.1937476 0),22.2751627,114.19374760000001
58,"PAK TAK BLDG,JARDINE'S BAZAAR|八達大廈,渣甸街",HCB,7326294.161539082,15538.0,440,7660593.463928786,16247.0,440,7983576.569904734,16932.0,440,6.0,12.0,19.0,['whole floor'],7656821.398457535,16239.0,440.0,20,20,1988/11,33,blank,,False,,,POINT Z (22.2792773 114.1853415 0),22.2792773,114.1853415
59,"LEI WEN COURT,HAVEN ST|禮雲大樓,希雲街",HCB,8639918.0,18422.0,469,8832644.0,20212.0,437,8475425.0,17843.0,475,3.0,6.0,10.0,['whole floor'],8649329.0,18825.666666666668,460.3333333333333,12,12,1959/10,62,blank,,False,,,POINT Z (22.277545 114.186921 0),22.277545,114.186921
60,"CAUSEWAY BAY MANSION,PATERSON ST|銅鑼灣大廈,百德新街",HCB,16438794.515107037,15032.0,850,16796397.34948969,15359.0,850,18029963.09011241,18634.0,950,3.0,6.0,9.0,"['A', 'B', 'C', 'D']",17275846.723740567,16690.083333333332,900.0,11,44,1958/05,63,blank,,False,,,POINT Z (22.2817363 114.1852929 0),22.281736300000002,114.18529290000001
61,"KWONG ON BLDG,YEE WO ST|廣安大廈,怡和街",HCB,5674838.0,11923.0,442,5852412.0,12237.0,446,10146366.0,14611.0,774,5.0,8.0,12.0,"['A', 'B', 'C', 'D']",7522156.346738794,12939.666666666666,584.6666666666666,12,48,1966/01,55,blank,,False,,,POINT Z (22.279808 114.1850164 0),22.279808,114.18501640000001
62,"HARMONY COURT,TAI HANG RD|融園,大坑道",HCB,26492901.687344622,12617.0,1218,27085039.142827794,12899.0,1218,25850369.55479905,12311.0,1218,2.0,5.0,7.0,"['22', 'whole floor']",26404207.48347704,11704.5,1218.0,7,14,1966/00,55,blank,,False,,,POINT Z (22.2768198 114.1931903 0),22.276819800000002,114.1931903
63,"PO HON BLDG,PERCIVAL ST|寶漢大廈,波斯富街",HCB,5917890.0,13431.0,395,6049820.0,14524.0,395,7813097.0,15649.0,523,6.0,9.0,12.0,"['A', 'B', 'C', 'D', 'E', 'F']",7041549.666666667,14641.166666666666,481.6666666666667,9,54,1967/11,54,blank,,False,,,POINT Z (22.2806573 114.1825316 0),22.2806573,114.18253159999999
64,"HAYWOOD MANSION,PATERSON ST|海華大廈,百德新街",HCB,20051464.444554042,14703.0,1060,20714255.148495637,15189.0,1060,23878505.661896374,16083.0,2410,3.0,8.0,12.0,"['A', 'A & B', 'B', 'C', 'D']",22309896.492897417,15415.833333333334,1381.2,14,70,1961/09,60,blank,,False,,,POINT Z (22.2820244 114.1847841 0),22.282024399999997,114.1847841
65,"WAH YING BLDG,SHELTER ST|華英大廈,信德街",HCB,8198820.0,15183.0,410,8584380.0,15151.0,410,15788385.785182709,16621.0,776,5.0,11.0,17.0,"['A', 'AB', 'B', 'C']",12077960.251673335,15747.666666666666,547.75,19,76,1980/01,41,blank,,False,,,POINT Z (22.2790231 114.1884764 0),22.279023100000003,114.1884764
66,"FAIRVIEW MANSION,PATERSON ST|華爾大廈,百德新街",HCB,7329809.040728204,11400.0,600,7576086.3380586365,11519.0,604,19480440.98880991,14485.0,1255,3.0,6.0,9.0,"['A', 'B', 'C', 'D', 'E', 'F']",11839700.460311914,12599.944444444443,854.0,11,66,1958/10,63,blank,,False,,,POINT Z (22.2814102 114.1849467 0),22.2814102,114.1849467
67,"VICTORIA PARK MANSION,KINGSTON ST|維德大廈,京士頓街",HCB,12254381.965902785,12692.0,901,12669555.63792754,13122.0,901,19521553.28761803,14932.0,1220,4.0,8.0,11.0,"['A', 'B', 'C', 'D']",15901949.898331458,13887.083333333334,1060.5,12,48,1964/08,57,blank,,False,,,POINT Z (22.2822672 114.1861726 0),22.2822672,114.1861726
68,"CAUSEWAY TOWER,CAUSEWAY RD|高威樓,高士威道",HCB,7378095.765198264,16393.0,410,7553175.326758816,16782.0,410,7896583.309973986,18250.0,420,15.0,18.0,20.0,"['A', 'B', 'C', 'D']",7573025.863034186,17232.166666666668,415.0,10,40,1978/07,43,blank,,False,,,POINT Z (22.2795462 114.1884764 0),22.2795462,114.1884764
69,"HAVEN COURT,LEIGHTON RD|希雲大廈,禮頓道",HCB,5025348.0,10602.0,474,5539156.0,11213.0,474,14278275.0,16025.0,940,3.0,6.0,8.0,"['A', 'B', 'C', 'D', 'E', 'F', 'G', 'H', 'I', 'J', 'K', 'L', 'M']",8312764.487179487,12192.615384615385,671.7435897435898,10,130,1959/01,62,blank,,False,,,POINT Z (22.2781849 114.186676 0),22.2781849,114.186676
70,"MAYLAND COURT,SHELTER ST|美蘭閣,信德街",HCB,5339625.0,13712.0,375,5607420.0,14196.0,375,5833125.0,15555.0,395,5.0,12.0,18.0,"['A', 'B', 'C']",5583915.0,14637.88888888889,381.6666666666667,22,66,1976/09,45,blank,,False,,,POINT Z (22.2793827 114.188546 0),22.2793827,114.188546
71,"HYDE PARK MANSION,PATERSON ST|海德大廈,百德新街",HCB,7779885.034457129,12082.0,600,7950270.946368793,12359.0,600,21329692.871262647,15949.0,1248,3.0,6.0,9.0,"['A', 'B', 'C', 'D', 'E', 'F']",12827800.868976092,13511.277777777776,853.5555555555557,11,66,1958/10,63,blank,,False,,,POINT Z (22.2815993 114.1848538 0),22.281599300000003,114.1848538
72,"RIVIERA MANSION,PATERSON ST|海濱大廈,百德新街",HCB,17801050.798549507,9834.0,875,18302463.354091324,10111.0,875,21462534.743974738,10873.0,1285,3.0,7.0,11.0,"['A', 'B', 'C', 'D']",19164596.42921907,10268.166666666666,1092.0833333333333,13,52,1961/11,60,blank,,False,,,POINT Z (22.2822117 114.1846332 0),22.2822117,114.1846332
73,"PEARL CITY MANSION,PATERSON ST|珠城大廈,百德新街",HCB,4487325.0,13113.0,246,4845285.0,13959.0,246,12138285.0,22125.0,3781,10.0,19.0,28.0,"['A1', 'A10', 'A1A', 'A1B', 'A2', 'A3', 'A3A', 'A4', 'A5', 'A5A', 'A6', 'A6A', 'A7', 'A7A', 'A7B', 'A8', 'A8A', 'A8B', 'A9', 'A9A', 'B1', 'B2', 'B3', 'B4', 'B5', 'B6', 'C1', 'C2', 'C2-C9', 'C3', 'C4', 'C5', 'C6', 'C7', 'C8', 'C9']",,,529.8055555555555,27,972,1970/08,51,PEARL CITY MANSION,珠城大廈,True,1.0,972.0,POINT Z (22.2810532 114.1858291 0),22.281053200000002,114.18582909999999
74,"LEI KWA COURT,CAROLINE HILL RD|禮加大樓,加路連山道",HCB,9402939.0,16821.0,559,9609769.0,17191.0,559,9048420.0,17742.0,510,3.0,6.0,10.0,['whole floor'],9353709.333333334,17251.333333333332,542.6666666666666,12,12,1959/07,62,blank,,False,,,POINT Z (22.2773865 114.1868276 0),22.2773865,114.18682759999999
75,"SHINING BLDG,JAFFE RD|肇明大廈,謝斐道",HCB,5880600.0,13365.0,440,5910960.0,13434.0,440,6244920.0,14193.0,440,7.0,12.0,18.0,"['A', 'B']",6012160.0,13664.0,440.0,18,36,1978/04,43,blank,,False,,,POINT Z (22.2811986 114.1825549 0),22.2811986,114.18255490000001
76,58 TAI HANG RD|58 大坑道,HCB,29708991.0,20761.0,1431,32449356.0,22676.0,1431,,,2862,5.0,18.0,29.0,['whole floor'],31079173.5,21718.5,1908.0,32,32,1957/07,64,blank,,False,,,POINT Z (22.2703638 114.1910735 0),22.270363800000002,114.19107350000002
77,"RONSDALE GARDEN(Block 1),TAI HANG DR|龍華花園1座,大坑徑",HCB,13859554.0,19303.0,718,14876960.0,20720.0,718,23535200.0,23725.0,992,6.0,17.0,28.0,"['A', 'B', 'C', 'D', 'E', 'F']",19057741.655555557,21506.8,895.7222222222222,33,198,1986/05,35,RONSDALE GARDEN,龍華花園,True,2.0,396.0,POINT Z (22.2747538 114.1955124 0),22.2747538,114.19551240000001
78,"GREAT GEORGE BLDG,GREAT GEORGE ST|華登大廈,記利佐治街",HCB,7766385.0,12754.0,605,7964220.0,13124.0,605,18299035.0,15313.0,1195,4.0,8.0,13.0,"['A1', 'A2', 'A3', 'A4', 'A5', 'B1', 'B2', 'C1', 'C2', 'C3', 'C4', 'C5', 'D1', 'D2']",11138694.880952382,13855.928571428572,798.5714285714286,14,196,1959/12,62,GREAT GEORGE BLDG,華登大廈,True,1.0,196.0,POINT Z (22.280567 114.1853182 0),22.280567,114.1853182
79,"PATERSON BLDG(Block A),PATERSON ST|百德大廈A座,百德新街",HCB,7312864.751173819,13594.0,502,7593135.645344892,14115.0,502,18925785.551500034,15868.0,1113,4.0,9.0,14.0,"['1', '2', '3', '4', '5']",12366298.934112929,14540.466666666667,785.4666666666666,15,75,1959/12,62,PATERSON BLDG,百德大廈,True,4.0,450.0,POINT Z (22.2805976 114.1852341 0),22.280597600000004,114.1852341
80,"MIAMI MANSION,CLEVELAND ST|美亞美大廈,加寧街",HCB,16917421.089169033,14261.0,1025,18190816.0,14890.0,1025,20416765.15523995,16124.0,1297,4.0,7.0,10.0,"['A', 'B', 'C', 'D']",18481658.16087335,15417.0,1145.25,9,36,1964/03,57,blank,,False,,,POINT Z (22.282486 114.185443 0),22.282486,114.18544299999999
81,"OI KWAN COURT,FUK KWAN AVE|愛群閣,福群道",HCB,10226851.767505493,15645.0,600,10226851.767505493,15645.0,600,11180402.056790754,15976.0,660,2.0,2.0,3.0,"['A', 'B', 'C', 'D']",10539376.857682712,15834.25,621.25,4,16,1978/09,43,blank,,False,,,POINT Z (22.2760202 114.1935618 0),22.276020199999998,114.1935618
82,"PO FOO BLDG,FOO MING ST|寶富大廈,富明街",HCB,5556760.0,12170.0,365,5479650.0,12534.0,330,12142015.136020815,17607.0,698,3.0,7.0,11.0,"['A', 'B', 'C', 'D', 'E', 'F', 'G', 'H', 'I', 'J', 'K', 'L', 'M', 'N', 'O', 'R']",7339641.903195658,14566.666666666666,479.4166666666667,13,208,1964/04,57,blank,,False,,,POINT Z (22.2788362 114.1834373 0),22.2788362,114.1834373
83,"RICH BLDG,ORMSBY ST|勵志大廈,安庶庇街",HCB,5468310.804808004,14791.0,345,5731540.9645688925,15503.0,345,6040614.5791195985,16339.0,345,5.0,12.0,20.0,['whole floor'],5746822.116165499,15544.333333333334,345.0,21,21,1993/04,28,blank,,False,,,POINT Z (22.2779103 114.192633 0),22.277910300000002,114.192633
84,"LEI HA COURT,HAVEN ST|禮希大樓,希雲街",HCB,6587240.0,14971.0,440,6789200.0,14749.0,440,6993800.0,15895.0,440,2.0,6.0,10.0,"['11A', 'whole floor']",6708077.166666667,15313.833333333334,438.5,13,26,1959/06,62,blank,,False,,,POINT Z (22.2777318 114.1867115 0),22.2777318,114.1867115
85,"YEE WAH MANSION,YEE WO ST|怡華大廈,怡和街",HCB,4914447.1724021565,10724.0,342,5013325.417531296,10504.0,337,8817787.286993016,13445.0,572,5.0,10.0,14.0,"['A', 'B', 'C', 'D']",6380337.784487856,11523.916666666666,435.5,14,56,1965/03,56,blank,,False,,,POINT Z (22.279633 114.1855737 0),22.279633,114.18557369999999
86,"EAST SOUTH BLDG,HENNESSY RD|東南大廈,軒尼詩道",HCB,4609290.1805839045,9020.0,327,4735082.236443212,9671.0,327,9761004.896634407,12444.0,817,6.0,10.0,13.0,"['A', 'A1', 'B', 'C', 'D', 'E', 'F']",6674755.344255812,10622.238095238094,527.7142857142857,12,84,1965/10,56,blank,,False,,,POINT Z (22.2800434 114.1824155 0),22.280043399999997,114.1824155
87,"KINGSTON BLDG(Block B),KINGSTON ST|京士頓大廈B座,京士頓街",HCB,11278877.612609133,12605.0,487,10501955.360624755,13154.0,487,12429544.04139552,14197.0,1575,5.0,10.0,15.0,"['1', '2', '3', '34', '4', '5']",11244825.89645203,12379.0,869.2777777777778,15,90,1965/12,56,KINGSTON BLDG,京士頓大廈,True,2.0,174.0,POINT Z (22.2815401 114.1857827 0),22.2815401,114.1857827
88,"GREENFIELD MANSION,KINGSTON ST|新豪大廈,京士頓街",HCB,19820553.77278528,15210.0,1210,20356069.19265708,15619.0,1210,56163054.360316545,20964.0,2500,4.0,8.0,11.0,"['A', 'A & C', 'AC', 'B', 'C']",35428568.559076846,17944.93333333333,1768.4000000000003,12,60,1964/11,57,blank,,False,,,POINT Z (22.2816413 114.1862471 0),22.2816413,114.18624709999999
89,"CAROLINE HILL COURT,CAROLINE HILL RD|加路連大樓,加路連山道",HCB,8199048.0,14334.0,572,7490256.0,16426.0,456,9686248.0,16934.0,572,3.0,6.0,10.0,['whole floor'],8458517.333333334,15898.0,533.3333333333334,12,12,1959/07,62,blank,,False,,,POINT Z (22.277635 114.186533 0),22.277635,114.18653300000001
90,"FLORIDA MANSION,CLEVELAND ST|華高大廈,加寧街",HCB,14392587.0,13328.0,1023,14702556.0,13606.0,1023,18702477.132382903,14617.0,1194,3.0,6.0,8.0,"['A', 'B', 'C', 'D']",16552025.950507864,14139.333333333334,1108.5,10,40,1964/03,57,blank,,False,,,POINT Z (22.2822718 114.1855729 0),22.2822718,114.18557290000001
91,"THE FIRST MANSION,TUNG LO WAN RD|第一閣,銅鑼灣道",HCB,6823608.570581282,17300.0,333,7296786.322102607,20448.0,333,8654258.77229119,21930.0,333,5.0,12.0,20.0,"['A', 'B']",7597752.312431946,20037.666666666668,333.0,24,48,1995/11,26,blank,,False,,,POINT Z (22.279103 114.19179 0),22.279103,114.19179
92,"LAI YUEN APTS,RUSSELL ST|麗園大廈,羅素街",HCB,5841926.388468946,13442.0,392,5641171.063075669,13860.0,362,9581378.495927682,15983.0,1057,4.0,8.0,11.0,"['A', 'B', 'C', 'D', 'E', 'F', 'G', 'H', 'HI', 'I', 'J']",7069743.667693858,13972.710317460318,559.2121212121211,12,132,1964/04,57,blank,,False,,,POINT Z (22.2790248 114.1833996 0),22.279024800000002,114.1833996
93,"HAPPY MANSION,LEE GARDEN RD|HAPPY MANS,利園山道",HCB,19056429.250772636,34446.0,430,19146605.11931691,34609.0,430,19273847.142416183,34839.0,430,2.0,3.0,4.0,['whole floor'],19158960.504168574,34631.333333333336,430.0,5,5,1963/01,58,blank,,False,,,POINT Z (22.27947 114.183242 0),22.27947,114.18324199999999
94,"PROSPECT MANSION,PATERSON ST|海灣大廈,百德新街",HCB,17760741.173626736,6145.0,920,19994779.12589982,7148.0,920,24900016.10735215,7389.0,1114,3.0,6.0,10.0,"['A', 'B', 'C', 'D']",21232528.658698797,7285.666666666667,1017.0,12,48,1960/09,61,blank,,False,,,POINT Z (22.2823655 114.1851092 0),22.2823655,114.1851092
95,"CHERRY COURT,TAI HANG RD|芝蘭閣,大坑道",HCB,22650229.76778693,15599.0,1355,23177316.978871398,15962.0,1355,25877547.903248083,16654.0,1450,5.0,8.0,10.0,"['12', 'whole floor']",24647742.933629442,16207.166666666666,1418.3333333333333,10,20,1965/12,56,blank,,False,,,POINT Z (22.2770601 114.1927723 0),22.277060100000003,114.1927723
96,"GRAND DECO TOWER,TAI HANG RD|帝后臺,大坑道",HCB,21386236.0,19729.0,1084,22979716.0,21199.0,1084,25482672.0,23508.0,1084,16.0,26.0,36.0,"['A', 'B']",22955687.333333332,21176.833333333332,1084.0,27,54,1999/03,22,blank,,False,,,POINT Z (22.2768994 114.1935154 0),22.276899399999998,114.19351540000001
97,"FONTANA GARDEN(Block A),KA NING PATH|豪園A座,嘉寧徑",HCB,51955743.970938556,18939.0,773,54408272.357338004,19833.0,773,64558311.15524709,22472.0,2750,4.0,10.0,17.0,"['22', '22A', '23', '24', '25']",,,2278.6,22,110,1971/05,50,FONTANA GARDEN,豪園,True,3.0,295.0,POINT Z (22.277906 114.190356 0),22.277906,114.19035600000001
98,"Y.I,TAI HANG RD|Y.I,大坑道",HCB,11270335.813213862,20071.0,524,12048045.69818727,21456.0,524,31653576.736578066,28025.0,1054,11.0,20.0,29.0,"['A', 'B', 'C']",20083811.154130608,23690.666666666668,794.6666666666666,25,75,2001/03,20,blank,,False,,,POINT Z (22.276984 114.1925633 0),22.276984,114.19256329999999
99,"WELL-FOUND BLDG,JAFFE RD|匯創大廈,謝斐道",HCB,5676795.649588821,16979.0,312,6021502.423528752,18010.0,312,6388944.464809047,19109.0,312,9.0,18.0,26.0,['whole floor'],6029080.845975541,18032.666666666668,312.0,21,21,2001/02,20,blank,,False,,,POINT Z (22.2809367 114.1828335 0),22.2809367,114.1828335
100,"THE GRANDEUR,JARDINE'S BAZAAR|采怡閣,渣甸街",HCB,7625082.0,19245.0,394,7995442.0,20226.0,394,8974142.0,21418.0,419,9.0,16.0,24.0,"['A', 'B', 'C', 'D']",8254615.5,20280.333333333332,407.0,22,88,2002/11,19,blank,,False,,,POINT Z (22.2792194 114.1851557 0),22.2792194,114.18515570000001
101,"PO MING BLDG,FOO MING ST|寶明大廈,富明街",HCB,5148747.468768745,11619.0,335,5081942.190210302,11467.0,335,10599048.540176682,15409.0,675,3.0,6.0,10.0,"['A', 'B', 'C', 'D', 'E', 'F', 'G', 'H', 'I', 'J', 'K', 'L', 'N', 'O']",7404455.467419381,14209.429487179486,454.4047619047619,12,168,1964/04,57,blank,,False,,,POINT Z (22.2784909 114.1835534 0),22.278490899999998,114.1835534
102,"HAMILTON MANSION(Block A1),CLEVELAND ST|美登大廈A1座,加寧街",HCB,,,976,,,976,,,1238,3.0,6.0,9.0,"['A', 'B', 'C', 'D']",,,1093.5,11,44,1962/11,59,HAMILTON MANSION,美登大廈,True,1.0,44.0,POINT Z (22.2818061 114.1856908 0),22.2818061,114.1856908
103,8 PAK SHA RD|8 白沙道,HCB,16438460.0,19004.0,865,16598485.0,19189.0,865,15618071.0,18977.0,823,2.0,3.0,4.0,['whole floor'],16218338.666666666,19056.666666666668,851.0,5,5,1955/03,66,blank,,False,,,POINT Z (22.2791031 114.1841873 0),22.2791031,114.18418729999999
104,"PHOENIX APTS,LEE GARDEN RD|鳳鳴大廈,利園山道",HCB,7344977.673326378,10169.0,395,7497237.310395364,10193.0,395,11995791.87531534,11704.0,974,4.0,9.0,14.0,"['A', 'B', 'C', 'D', 'E', 'E1', 'F', 'G', 'H', 'I', 'J', 'K', 'L']",9004911.161470927,10829.11111111111,746.1538461538462,17,221,1959/07,62,blank,,False,,,POINT Z (22.2783546 114.1839585 0),22.2783546,114.1839585
105,"GRANDVIEW MANSION,WANG FUNG TERR|偉景大廈,宏豐臺",HCB,16727357.294448704,12406.0,1048,16846010.15934565,12494.0,1048,23388406.44220679,13536.0,1343,1.0,2.0,3.0,"['2', '3', '5', '6', 'whole floor']",20975591.39421113,13105.533333333333,1241.0666666666666,3,15,1955/01,66,blank,,False,,,POINT Z (22.2764148 114.1916113 0),22.2764148,114.19161129999999
106,"THE LEGEND(Block 2),TAI HANG DR|名門2座,大坑徑",HCB,37933026.0,26601.0,1426,41251328.0,28928.0,1426,46337720.0,32404.0,1430,23.0,36.0,48.0,"['A', 'B']",41798119.333333336,29262.666666666668,1428.3333333333333,35,70,2006/11,15,THE LEGEND,名門,True,4.0,437.0,POINT Z (22.2752914 114.1949921 0),22.2752914,114.19499209999998
107,518 JAFFE RD|518 謝斐道,HCB,,,737,,,737,,,737,2.0,3.0,4.0,['whole floor'],,,737.0,3,3,1961/12,60,blank,,False,,,POINT Z (22.2790636 114.1768091 0),22.279063600000004,114.1768091
108,500 LOCKHART RD|500 駱克道,HCB,7104659.596474818,17791.0,364,7154978.092573712,17657.0,364,7407376.423418858,18473.0,383,4.0,5.0,6.0,"['A', 'B', 'C']",7230642.892115214,18110.333333333332,372.6666666666667,5,15,1964/12,57,blank,,False,,,POINT Z (22.2785972 114.1766163 0),22.278597199999997,114.17661629999999
109,"RITA HSE,LEIGHTON RD|麗達大廈,禮頓道",HCB,8161050.0,13270.0,219,7256130.0,13314.0,219,7933020.0,14556.0,545,3.0,6.0,9.0,"['F.P.', 'R.P.', 'whole floor']",7783400.0,13713.333333333334,377.77777777777777,9,27,1963/02,58,blank,,False,,,POINT Z (22.2782353 114.1863516 0),22.2782353,114.18635159999998
110,"JARDINE SUMMIT,TAI HANG RD|渣甸豪庭,大坑道",HCB,13622687.0,17761.0,767,14864472.0,18984.0,769,15781418.0,20522.0,782,10.0,18.0,26.0,"['A', 'B']",14818387.5,19163.0,773.1666666666666,22,44,2005/06,16,blank,,False,,,POINT Z (22.2758764 114.1938521 0),22.275876399999998,114.1938521
111,"THE LEGEND(Block 5),TAI HANG DR|名門5座,大坑徑",HCB,17618784.0,19752.0,891,20050376.0,22478.0,891,56990029.0,31963.0,1783,23.0,36.0,50.0,"['A', 'AB', 'B', 'C', 'D']",28726163.333333332,25915.600000000002,1071.2,35,175,2006/11,15,THE LEGEND,名門,True,4.0,437.0,POINT Z (22.2747146 114.1947926 0),22.2747146,114.1947926
112,517 LOCKHART RD|517 駱克道,HCB,,,600,,,600,,,600,3.0,4.0,4.0,['whole floor'],,,600.0,4,4,1955/07,66,blank,,False,,,POINT Z (22.2785972 114.1766163 0),22.278597199999997,114.17661629999999
113,17-17A SHELTER ST|17-17A 信德街,HCB,8014014.0,18568.0,431,8075216.0,18718.0,431,9130763.0,19360.0,487,2.0,4.0,7.0,"['A', 'B']",8695336.833333334,18787.5,463.5,8,16,1965/07,56,blank,,False,,,POINT Z (22.2793531 114.1884061 0),22.2793531,114.1884061
114,"THE LEGEND(Block 1),TAI HANG DR|名門1座,大坑徑",HCB,29992903.0,25815.0,1146,33217120.0,27125.0,1146,95904539.56858374,39030.0,2293,25.0,37.0,52.0,"['A', 'AB', 'B']",51283246.2580232,30669.77777777778,1528.6666666666667,33,99,2006/11,15,THE LEGEND,名門,True,4.0,437.0,POINT Z (22.2752914 114.1949921 0),22.2752914,114.19499209999998
115,"THE LEGEND(Block 3),TAI HANG DR|名門3座,大坑徑",HCB,34210995.0,22945.0,1491,37088625.0,24875.0,1491,48127412.0,28416.0,1796,22.0,33.0,51.0,"['A', 'B', 'C']",41419074.0,25577.666666666668,1618.3333333333333,31,93,2006/11,15,THE LEGEND,名門,True,4.0,437.0,POINT Z (22.274827 114.195048 0),22.274827,114.195048
116,"SAI SEE MANSION,WUN SHA ST|西施樓,浣紗街",HCB,,,411,,,411,,,418,2.0,4.0,6.0,"['A', 'B']",,,414.5,7,14,1964/05,57,blank,,False,,,POINT Z (22.2784843 114.1925865 0),22.2784843,114.1925865
117,32A JARDINE'S BAZAAR|32A 渣甸街,HCB,,,495,,,565,,,565,10.0,11.0,13.0,['whole floor'],,,541.6666666666666,5,5,1967/05,54,blank,,False,,,POINT Z (22.2795527 114.1852116 0),22.2795527,114.18521159999999
118,"WARRENWOODS,WARREN ST|尚巒,華倫街",HCB,5839010.0,19826.0,265,6035375.0,22775.0,265,14140584.0,27130.0,552,12.0,24.0,35.0,"['A', 'B', 'C', 'D', 'E', 'F']",9079607.777777778,23933.111111111113,380.6666666666667,30,180,2012/09,9,blank,,False,,,POINT Z (22.278161 114.191637 0),22.278160999999997,114.19163700000001
119,16D TAI HANG RD|16D 大坑道,HCB,16561938.576325713,11289.0,851,16597148.650365204,11313.0,851,16597148.650365204,11313.0,851,1.0,2.0,2.0,['whole floor'],16585411.959018707,11305.0,851.0,4,4,1955/01,66,blank,,False,,,POINT Z (22.2703638 114.1910735 0),22.270363800000002,114.19107350000002
120,"WUN SHA MANSION,WUN SHA ST|浣沙閣,浣紗街",HCB,,,538,,,538,,,619,2.0,4.0,6.0,"['A', 'B']",,,578.5,6,12,1963/12,58,blank,,False,,,POINT Z (22.2789715 114.1922614 0),22.2789715,114.1922614
121,"THE WARREN,WARREN ST|瑆華,華倫街",HCB,8640076.0,22618.0,382,9104588.0,23834.0,382,58671143.556532316,44804.0,1222,10.0,20.0,30.0,"['A', 'AC', 'B', 'C', 'D']",21044345.192355312,28550.86666666667,641.6,26,130,2014/01,7,blank,,False,,,POINT Z (22.2784825 114.1915549 0),22.278482500000003,114.19155490000001
122,"THE SIGNATURE,CHUN FAI TERR|春暉8號,春暉台",HCB,,,1566,67847466.6354049,33675.0,1566,88652008.29768229,44001.0,1566,11.0,23.0,36.0,"['A', 'B']",78222538.03671202,38824.5,1566.0,33,66,2011/08,10,blank,,False,,,POINT Z (22.2752562 114.1945371 0),22.2752562,114.1945371
123,"PARK HAVEN,HAVEN ST|曦巒,希雲街",HCB,8255546.0,21019.0,377,8980894.0,22736.0,377,17366310.0,29686.0,850,7.0,18.0,27.0,"['A', 'B', 'C', 'D', 'E', 'F', 'G', 'H']",11324711.214285715,23889.42261904762,492.9583333333333,26,208,2014/06,7,blank,,False,,,POINT Z (22.2775121 114.1874278 0),22.277512100000003,114.1874278
124,520 JAFFE RD|520 謝斐道,HCB,,,739,,,739,,,739,5.0,7.0,9.0,['whole floor'],,,739.0,7,7,1961/12,60,blank,,False,,,POINT Z (22.2790636 114.1768091 0),22.279063600000004,114.1768091
125,"SZE HAI BLDG,SHEPHERD ST|SZE HAI BLDG,施弼街",HCB,6214889.361938983,10661.0,460,5839430.6099227695,10581.0,460,5917245.534409974,10722.0,544,3.0,4.0,5.0,"['A', 'B', 'C', 'D']",5990521.835423909,10654.666666666666,510.5,3,12,1964/07,57,blank,,False,,,POINT Z (22.2782091 114.1918435 0),22.2782091,114.1918435
126,"YOO RESIDENCE,TUNG LO WAN RD|YOO RESIDENCE,銅鑼灣道",HCB,7572150.0,21330.0,349,8152930.0,22966.0,349,14377286.0,28930.0,2683,9.0,18.0,27.0,"['A', 'B', 'C', 'C-E', 'CD', 'CE', 'D', 'E', 'F', 'G']",,,799.5,24,240,2015/08,6,blank,,False,,,POINT Z (22.278856 114.1889699 0),22.278856,114.1889699
127,26 SCHOOL ST|26 書館街,HCB,5302645.332782949,14138.0,350,5335650.905656404,14226.0,350,5258762.923394379,14021.0,350,2.0,3.0,4.0,['whole floor'],5299019.720611244,14128.333333333334,350.0,5,5,1965/01,56,blank,,False,,,POINT Z (22.2788179 114.1915765 0),22.278817899999996,114.1915765
128,2 CANNON ST|2 景隆街,HCB,,,616,,,616,,,616,2.0,3.0,4.0,['whole floor'],,,616.0,3,3,1955/07,66,blank,,False,,,POINT Z (22.2813001 114.1836755 0),22.281300100000003,114.18367549999999
129,"JONES HIVE,JONES ST|雋琚,重士街",HCB,8993331.0,26552.0,333,11690964.0,33391.0,333,71831442.76905072,60280.0,1112,18.0,38.0,65.0,"['A', 'AB', 'B', 'C', 'D']",28717506.502509225,39493.833333333336,620.7333333333332,54,270,2016/11,5,blank,,False,,,POINT Z (22.2781929 114.1912159 0),22.278192899999997,114.1912159
130,"VERDE GREEN,WANG FUNG TERR|怡翠軒,宏豐臺",HCB,18643431.749589555,27350.0,526,18758477.065115716,27527.0,526,19448576.557553828,27719.0,2604,1.0,2.0,2.0,"['A', 'B', 'C', 'D', 'E', 'F']",19163066.385965515,27550.22222222222,1469.8333333333333,4,24,2012/09,9,blank,,False,,,POINT Z (22.2750527 114.1926794 0),22.2750527,114.1926794
131,56 TUNG LO WAN RD|56 銅鑼灣道,HCB,,,399,,,399,,,399,2.0,2.0,3.0,['whole floor'],,,399.0,4,4,1965/11,56,blank,,False,,,POINT Z (22.278872 114.1896294 0),22.278872,114.1896294
132,42 SUN CHUN ST|42 新村街,HCB,,,202,,,202,,,168,3.0,4.0,5.0,['whole floor'],,,190.66666666666666,2,2,1975/05,46,blank,,False,,,POINT Z (22.2781257 114.192159 0),22.278125699999997,114.192159
133,24 SUN CHUN ST|24 新村街,HCB,6489833.285241421,24719.0,245,6489833.285241421,24719.0,245,6538141.441901659,24903.0,245,2.0,2.0,3.0,['whole floor'],6505936.0041281665,24780.333333333332,245.0,4,4,9999,-7978,blank,,False,,,POINT Z (22.2781257 114.192159 0),22.278125699999997,114.192159
134,533 LOCKHART RD|533 駱克道,HCB,,,543,,,543,,,543,4.0,4.0,5.0,['whole floor'],,,543.0,2,2,1955/07,66,blank,,False,,,POINT Z (22.2785972 114.1766163 0),22.278597199999997,114.17661629999999
135,23 SUN CHUN ST|23 新村街,HCB,,,254,,,254,,,254,5.0,5.0,5.0,['whole floor'],,,254.0,1,1,1965/11,56,blank,,False,,,POINT Z (22.2781257 114.192159 0),22.278125699999997,114.192159
136,55 JARDINE'S BAZAAR|55 渣甸街,HCB,,,553,,,553,,,553,2.0,3.0,4.0,['whole floor'],,,553.0,3,3,1961/02,60,blank,,False,,,POINT Z (22.2795527 114.1852116 0),22.2795527,114.18521159999999
137,22 SUN CHUN ST|22 新村街,HCB,,,314,,,314,,,314,2.0,2.0,2.0,['whole floor'],,,314.0,1,1,1968/06,53,blank,,False,,,POINT Z (22.2781257 114.192159 0),22.278125699999997,114.192159
