,final_address,district,lowZone_value,lowZone_npsf_min,lowZone_nfa_min,midZone_value,midZone_npsf_min,midZone_nfa_min,highZone_value,highZone_npsf_max,highZone_nfa_max,oneSixth_floor,middle_floor,fifthSixth_floor,unit_list,value_avg,npsf_avg,unitSize_avg,noStorey,noFlat,op_date,bldgAge,est_name_en,est_name_ch,est_orNot,est_bldgNo,est_flatNo,final_coords,lat,long
0,"WINWAY COURT,TAI HANG RD|永威閣,大坑道",HCB,9145665.0,14825.0,615.0,9644430.0,15682.0,615.0,17483565.0,18699.0,935.0,6.0,14.0,21.0,"['A', 'B', 'C', 'D', 'E', 'F']",10935832.388888888,15897.455555555556,723.0555555555555,23,138,1982/06,39,blank,,False,,,POINT Z (22.2777694 114.192006 0),22.2777694,114.192006
1,"ILLUMINATION TERR(Block 1),TAI HANG RD|光明臺1座,大坑道",HCB,9518400.0,16525.0,576.0,10516608.000000002,18258.0,576.0,18220400.0,22220.0,820.0,8.0,22.0,37.0,"['A', 'B', 'C', 'D', 'E', 'F', 'G', 'H']",13880701.083333334,19755.041666666668,698.25,44,352,1993/05,28,ILLUMINATION TERR,光明臺,True,2.0,704.0,POINT Z (22.2775651 114.1927491 0),22.2775651,114.19274909999999
2,"HONG KONG MANSION,YEE WO ST|香港大廈,怡和街",HCB,5991936.0,11046.0,478.0,6439500.0,11595.0,478.0,9410310.0,14530.0,766.0,6.0,13.0,20.0,"['A', 'B', 'C', 'D', 'E', 'F', 'G', 'H', 'I', 'J', 'K', 'L', 'M', 'N', 'O', 'P', 'Q']",7246592.352941177,12381.86274509804,589.6470588235294,21,357,1966/03,55,HONG KONG MANSION,香港大廈,True,1.0,357.0,POINT Z (22.2799698 114.1855626 0),22.2799698,114.1855626
3,"CHEE ON BLDG,EAST POINT RD|置安大廈,東角道",HCB,7387680.0,15115.0,480.0,7736640.0,15754.0,480.0,9704175.0,17572.0,555.0,7.0,16.0,24.0,"['5', 'I', 'J', 'K', 'L', 'M', 'M17', 'N', 'O', 'P']",8427520.333333334,16353.466666666665,515.5,26,260,1972/09,49,blank,,False,,,POINT Z (22.2803599 114.1849412 0),22.280359899999997,114.1849412
4,"BAY VIEW MANSION,MORETON TERR|灣景樓,摩頓臺",HCB,6559445.0,12989.0,340.0,5878402.165421023,13626.0,320.0,18998210.0,15701.0,1210.0,5.0,12.0,19.0,"['A1', 'A2', 'A3', 'A4', 'A5', 'A6', 'A7', 'A8', 'B1', 'B2', 'B3', 'B4', 'B5', 'C1', 'C2', 'C4', 'C5']",10685917.65933966,14127.799019607844,741.3333333333334,21,357,1966/12,55,BAY VIEW MANSION,灣景樓,True,1.0,357.0,POINT Z (22.2795895 114.188755 0),22.2795895,114.188755
5,"RONSDALE GARDEN(Block 2),TAI HANG DR|龍華花園2座,大坑徑",HCB,14555296.0,20272.0,718.0,15724200.0,21900.0,718.0,24193156.0,24753.0,988.0,6.0,17.0,28.0,"['A', 'B', 'C', 'D', 'E', 'F']",20204553.055555556,22577.05555555555,892.8333333333334,33,198,1986/07,35,RONSDALE GARDEN,龍華花園,True,2.0,396.0,POINT Z (22.2747388 114.195884 0),22.2747388,114.195884
6,"ILLUMINATION TERR(Block 2),TAI HANG RD|光明臺2座,大坑道",HCB,9664704.0,16746.0,576.0,9973440.0,17315.0,576.0,18110520.0,22086.0,820.0,8.0,22.0,37.0,"['A', 'B', 'C', 'D', 'E', 'F', 'G', 'H']",13598555.041666666,19352.291666666668,698.25,44,352,1993/05,28,ILLUMINATION TERR,光明臺,True,2.0,704.0,POINT Z (22.2774193 114.1931206 0),22.2774193,114.1931206
7,"CATHAY MANSION,TUNG LO WAN RD|國泰大廈,銅鑼灣道",HCB,6768390.79390524,12205.0,520.0,7054068.587356437,12599.0,520.0,11693454.623817243,14333.0,765.0,4.0,8.0,11.0,"['A', 'B', 'C', 'D', 'E', 'F', 'G', 'H']",8926620.666950712,13273.666666666666,631.25,12,96,1966/12,55,blank,,False,,,POINT Z (22.2791945 114.1881013 0),22.2791945,114.1881013
8,"HOI TO COURT,GLOUCESTER RD|海都大廈,告士打道",HCB,,,405.0,,,420.0,,,946.0,4.0,8.0,13.0,"['A', 'B', 'C', 'D', 'E', 'F', 'G', 'H', 'I', 'J1J2']",,,735.6666666666666,16,160,1964/10,57,blank,,False,,,POINT Z (22.281659 114.1833676 0),22.281659,114.1833676
9,"YEE ON BLDG,EAST POINT RD|怡安大廈,東角道",HCB,6827520.0,13978.0,480.0,7859520.0,14873.0,480.0,8989750.0,17936.0,1100.0,7.0,16.0,24.0,"['A', 'B', 'BC', 'C', 'D', 'E', 'F', 'F19', 'G', 'H']",,,577.0,26,260,1972/09,49,blank,,False,,,POINT Z (22.2810475 114.1844823 0),22.2810475,114.18448229999998
10,"JOLLY VILLA,TAI HANG RD|竹麗苑,大坑道",HCB,25795224.0,20615.0,1187.0,27128751.0,21593.0,1187.0,28638792.0,23688.0,1209.0,10.0,17.0,25.0,"['A', 'B']",27258203.186373424,22038.166666666668,1198.0,23,46,1992/09,29,blank,,False,,,POINT Z (22.2773513 114.1923079 0),22.2773513,114.19230790000002
11,"HIGHLAND MANSION,CLEVELAND ST|海倫大廈,加寧街",HCB,14536239.84287344,9874.0,860.0,15066776.171025652,5816.0,860.0,27402102.138526518,12361.0,1355.0,5.0,8.0,10.0,"['A', 'B', 'C', 'D']",18973499.447454926,9335.333333333334,1110.5,10,40,1964/08,57,blank,,False,,,POINT Z (22.2826589 114.1858756 0),22.282658899999998,114.1858756
12,"CLEVELAND MANSION,CLEVELAND ST|加寧大廈,加寧街",HCB,13728954.0,10922.0,1257.0,14041947.0,11171.0,1257.0,14339856.0,11408.0,1257.0,3.0,6.0,9.0,"['A', 'B', 'C', 'D']",14036919.0,11167.0,1257.0,11,44,1962/11,59,blank,,False,,,POINT Z (22.2820115 114.185519 0),22.2820115,114.185519
13,"KANFIELD MANSION,SUN CHUN ST|勤輝大廈,新村街",HCB,6203300.0,15130.0,410.0,6532530.0,15933.0,410.0,7097920.0,17312.0,410.0,5.0,12.0,19.0,"['A', 'B', 'C']",6595806.666666667,16087.333333333334,410.0,21,63,1977/07,44,blank,,False,,,POINT Z (22.2777834 114.1924704 0),22.277783399999997,114.19247040000002
14,"CARNATION COURT,TAI HANG RD|康馨園,大坑道",HCB,38106613.92480689,21422.0,1668.0,37836228.091711454,21270.0,1668.0,42798446.298276916,24002.0,1672.0,12.0,18.0,25.0,"['A', 'B']",39812266.32138779,22353.5,1670.0,22,44,1996/05,25,blank,,False,,,POINT Z (22.2758114 114.1928148 0),22.2758114,114.19281480000001
15,"LEI SHUN COURT,LEIGHTON RD|禮信大廈,禮頓道",HCB,8999197.626225136,13754.0,588.0,9198608.457884226,14669.0,588.0,13097331.0233365,16683.0,839.0,3.0,6.0,10.0,"['A', 'B', 'C', 'D', 'E', 'F', 'G', 'H', 'I', 'J']",11135257.209640546,15011.388888888889,712.8333333333334,12,120,1958/12,63,blank,,False,,,POINT Z (22.2778509 114.1862703 0),22.2778509,114.1862703
16,"HARVEST MOON VILLA,FUK KWAN AVE|頌月花園,福群道",HCB,16989885.48516831,6198.0,910.0,16989885.48516831,6198.0,910.0,17886958.957473285,6344.0,936.0,2.0,2.0,3.0,"['A', 'B']",17426060.767123245,6266.833333333333,923.0,4,8,1991/08,30,blank,,False,,,POINT Z (22.2760998 114.1938869 0),22.2760998,114.1938869
17,1 TAI HANG RD|1 大坑道,HCB,10613673.0,18719.0,567.0,11411970.0,20021.0,567.0,18859824.0,22537.0,879.0,5.0,14.0,22.0,"['A', 'B', 'C', 'D']",13231861.0,20288.333333333332,651.75,26,104,1990/10,31,blank,,False,,,POINT Z (22.2703638 114.1910735 0),22.270363800000002,114.19107350000002
18,"LOK SING CTR(Block B),YEE WO ST|樂聲大廈B座,怡和街",HCB,6153700.0,16490.0,350.0,6481650.0,17350.0,350.0,8292000.0,20730.0,400.0,9.0,16.0,24.0,"['1', '2', '3', '4', '5', '6', '7', '8']",7081779.166666667,18877.625,375.0,24,192,1977/12,44,LOK SING CTR,樂聲大廈,True,2.0,408.0,POINT Z (22.2797597 114.1868144 0),22.2797597,114.1868144
19,"LEE FAT BLDG,JARDINE'S CRES|利發大廈,渣甸坊",HCB,4020874.0,16441.0,218.0,4138888.0,17346.0,218.0,5030480.0,20728.0,280.0,8.0,12.0,17.0,"['A', 'B', 'C']",4452516.444444445,18702.88888888889,239.66666666666666,16,48,1983/03,38,blank,,False,,,POINT Z (22.2794014 114.1848306 0),22.2794014,114.18483059999998
20,"VIENNA MANSION,PATERSON ST|華納大廈,百德新街",HCB,8070600.0,12608.0,600.0,8249400.0,13084.0,600.0,16840845.0,14329.0,1255.0,3.0,6.0,9.0,"['A', 'B', 'C', 'D', 'E', 'F']",11386240.5,13547.38888888889,848.6666666666666,11,66,1958/11,63,blank,,False,,,POINT Z (22.2818462 114.1849467 0),22.2818462,114.1849467
21,"VANCOUVER MANSION,KINGSTON ST|漢寧大廈,京士頓街",HCB,15511668.041408693,13271.0,1096.0,15835436.562806495,13446.0,1096.0,41438685.05546845,17824.0,2180.0,4.0,7.0,10.0,"['A', 'AB', 'B', 'C']",22652640.445814133,14680.416666666666,1403.5,11,44,1964/11,57,blank,,False,,,POINT Z (22.2816106 114.1860168 0),22.281610600000004,114.1860168
22,"INTELLIGENT COURT,TUNG LO WAN RD|海麗軒,銅鑼灣道",HCB,9085311.52679427,16418.0,433.0,10231904.624827994,18490.0,433.0,,,3051.0,11.0,28.0,57.0,"['A', 'AB', 'B']",,,1307.3333333333333,53,159,1988/06,33,blank,,False,,,POINT Z (22.2784284 114.1907288 0),22.2784284,114.19072879999999
23,"GOLD KING MANSION,TAI HANG DR|高景大廈,大坑徑",HCB,9097300.0,15685.0,567.0,9386720.0,16184.0,570.0,11123400.0,18539.0,600.0,4.0,10.0,17.0,"['A', 'B', 'C', 'D']",9980013.416666666,17064.416666666668,584.75,20,80,1967/03,54,blank,,False,,,POINT Z (22.2740735 114.1931903 0),22.2740735,114.1931903
24,"KINGSTON BLDG(Block A),KINGSTON ST|京士頓大廈A座,京士頓街",HCB,8295550.0,12550.0,661.0,7328832.0,12768.0,574.0,27028498.87010505,16184.0,1566.0,5.0,10.0,15.0,"['1', '2', '3', '4', '45', '5']",12548178.276631655,13685.555555555557,876.8333333333334,14,84,1965/12,56,KINGSTON BLDG,京士頓大廈,True,2.0,174.0,POINT Z (22.2815401 114.1857827 0),22.2815401,114.1857827
25,"PATERSON BLDG(Block C),PATERSON ST|百德大廈C座,百德新街",HCB,5814006.0,14011.0,253.0,6316305.0,14493.0,253.0,19898214.0,17878.0,1113.0,4.0,9.0,14.0,"['2', '3', '5', 'C1', 'C2', 'C3', 'C3A', 'C3B', 'C4', 'C5']",,,689.9,15,150,1959/12,62,PATERSON BLDG,百德大廈,True,4.0,450.0,POINT Z (22.2809264 114.1852737 0),22.2809264,114.1852737
26,"GOLD NING MANSION,TAI HANG DR|高寧大廈,大坑徑",HCB,9442251.0,16653.0,565.0,9961623.0,17569.0,565.0,11266200.0,18777.0,600.0,4.0,10.0,17.0,"['C', 'E', 'F', 'G', 'H']",10159521.333333334,17685.399999999998,574.1999999999999,20,100,1967/03,54,blank,,False,,,POINT Z (22.2738628 114.1931439 0),22.2738628,114.1931439
27,"PO WING BLDG,LEE GARDEN RD|寶榮大樓,利園山道",HCB,4695475.0,13314.0,305.0,4790940.0,13185.0,305.0,7276788.0,16054.0,524.0,5.0,8.0,11.0,"['A', 'B', 'C', 'D', 'E', 'F', 'G', 'H', 'I', 'J', 'K', 'L', 'M', 'N', 'O', 'T']",6067518.395833333,14624.145833333334,420.4166666666667,11,176,1967/03,54,blank,,False,,,POINT Z (22.2782772 114.1837907 0),22.278277199999998,114.18379070000002
28,"YUKON HEIGHTS,TAI HANG RD|煜康臺,大坑道",HCB,19783140.538899627,18010.0,1030.0,20721219.496157832,18864.0,1030.0,23868190.0,23173.0,1030.0,9.0,15.0,21.0,"['A', 'B']",21869028.122325357,20601.5,1030.0,19,38,1982/09,39,blank,,False,,,POINT Z (22.2752066 114.193469 0),22.2752066,114.193469
29,"CHESTERFIELD MANSION,KINGSTON ST|東寧大廈,京士頓街",HCB,12543340.580397105,5103.0,816.0,12712944.832806941,5172.0,816.0,25083699.367169816,18892.0,1330.0,5.0,9.0,13.0,"['A', 'B', 'C', 'D']",19475949.61607434,12820.77777777778,1057.75,13,52,1994/08,27,blank,,False,,,POINT Z (22.28191 114.186138 0),22.28191,114.18613799999999
30,"ROSEDALE,FUK KWAN AVE|玫瑰花園,福群道",HCB,31058388.468128275,16090.0,1810.0,31969486.004297107,16562.0,1810.0,32476830.0,17943.0,1810.0,3.0,7.0,10.0,['whole floor'],31834901.49080846,16865.0,1810.0,11,11,1988/12,33,blank,,False,,,POINT Z (22.2760872 114.1937263 0),22.2760872,114.19372630000001
31,"HOI DEEN COURT,GLOUCESTER RD|海殿大廈,告士打道",HCB,7817855.029592627,8597.0,465.0,5711454.153456436,8920.0,404.0,40515426.73695228,20424.0,1455.0,4.0,9.0,14.0,"['A', 'B', 'C', 'C & D', 'D', 'E', 'F', 'G', 'H']",15125084.871822191,15726.912698412698,689.5185185185186,17,153,1963/08,58,blank,,False,,,POINT Z (22.2818513 114.1836695 0),22.2818513,114.18366950000001
32,"PATERSON BLDG(Block B),PATERSON ST|百德大廈B座,百德新街",HCB,6778506.0,13161.0,502.0,7069666.0,13496.0,502.0,11069480.0,14918.0,790.0,4.0,9.0,14.0,"['1', '2', '3', '4', '5']",9397540.133333333,14029.933333333334,670.2,15,75,1959/12,62,PATERSON BLDG,百德大廈,True,4.0,450.0,POINT Z (22.2805976 114.1852341 0),22.280597600000004,114.1852341
33,"NEWTOWN MANSION,CLEVELAND ST|新唐大廈,加寧街",HCB,12921720.0,15383.0,840.0,13325760.0,15864.0,840.0,24697400.0,18998.0,1300.0,4.0,8.0,11.0,"['A', 'B', 'C', 'D']",15750333.333333334,16463.722222222223,1070.0,12,48,1963/12,58,blank,,False,,,POINT Z (22.2822647 114.18584 0),22.2822647,114.18583999999998
34,"H & S BLDG,LEIGHTON RD|嘉柏大廈,禮頓道",HCB,9414350.0,17050.0,530.0,9722900.0,17678.0,530.0,11191104.287965748,19697.0,585.0,11.0,16.0,21.0,"['A', 'B', 'C', 'D']",10456823.86508046,18156.777777777777,559.5833333333334,17,68,1968/05,53,blank,,False,,,POINT Z (22.2774446 114.1835534 0),22.277444600000003,114.1835534
35,"LOK SING CTR(Block A),YEE WO ST|樂聲大廈A座,怡和街",HCB,5306350.0,15161.0,350.0,5921300.0,16367.0,350.0,15819750.0,21093.0,750.0,9.0,16.0,24.0,"['1', '2', '3', '4', '5', '5 & 6', '6', '7', '8']",7523679.62962963,17804.0,416.6666666666667,24,216,1977/12,44,LOK SING CTR,樂聲大廈,True,2.0,408.0,POINT Z (22.2797597 114.1868144 0),22.2797597,114.1868144
36,"DRAGON GARDEN,CHUN FAI TERR|龍園,春暉台",HCB,29722904.10554425,17752.0,1570.0,30935127.098582447,18476.0,1570.0,32470497.933687452,19393.0,1570.0,4.0,10.0,17.0,"['A', 'B', 'C', 'D']",31042843.04593805,18540.333333333332,1570.0,20,80,1976/10,45,blank,,False,,,POINT Z (22.2750494 114.1943281 0),22.275049399999997,114.19432809999999
37,"MORENGO COURT,TAI HANG RD|昍逵閣,大坑道",HCB,17167094.469308756,16768.0,960.0,17604257.478516463,17195.0,960.0,18427393.449015282,17999.0,984.0,3.0,6.0,10.0,"['A', 'B', 'C', 'D']",17780521.8768426,17367.166666666668,972.0,12,48,1976/05,45,blank,,False,,,POINT Z (22.275472 114.1933064 0),22.275472,114.1933064
38,"CLARKE MANSION,KINGSTON ST|嘉賓大廈,京士頓街",HCB,11506227.023562301,13872.0,759.0,11851859.027717145,14472.0,759.0,28965955.492755897,15696.0,1444.0,4.0,8.0,11.0,"['A', 'B', 'C', 'D']",19335638.877654847,14671.083333333334,1090.6666666666667,12,48,1963/11,58,blank,,False,,,POINT Z (22.2820226 114.1860207 0),22.2820226,114.1860207
39,"DRAGON RISE,PENNINGTON ST|登龍閣,邊寧頓街",HCB,5291390.0,16736.0,310.0,5514240.0,17232.0,310.0,5992640.0,19034.0,320.0,7.0,14.0,20.0,"['A', 'B', 'C', 'D']",5654611.666666667,17953.0,315.0,22,88,1986/08,35,blank,,False,,,POINT Z (22.2788334 114.1859452 0),22.278833399999996,114.1859452
40,"TOWNING MANSION,PATERSON ST|唐寧大廈,百德新街",HCB,12192252.252494136,8399.0,848.0,15149225.444342043,10436.0,848.0,21597728.24920194,11346.0,1112.0,3.0,6.0,8.0,"['A', 'B', 'C', 'D']",17595210.80991112,10687.916666666666,980.0,10,40,1958/05,63,blank,,False,,,POINT Z (22.2819054 114.1852895 0),22.281905399999996,114.1852895
41,"SUN HO COURT,TUNG LO WAN RD|新豪閣,銅鑼灣道",HCB,5281640.0,18863.0,280.0,5432280.0,19401.0,280.0,6023080.0,21511.0,280.0,5.0,12.0,19.0,"['A', 'B']",5588240.0,19958.0,280.0,23,46,1988/01,33,blank,,False,,,POINT Z (22.2787921 114.1887666 0),22.2787921,114.1887666
42,"PATERSON BLDG(Block D),PATERSON ST|百德大廈D座,百德新街",HCB,6243794.116396659,14152.0,411.0,7380404.000000001,14702.0,502.0,12772720.0,16168.0,790.0,4.0,9.0,14.0,"['1', '2', '3', '4', '5', 'D1', 'D2', 'D3', 'D4', 'D5']",10207651.470546557,15157.266666666668,670.4666666666667,15,150,1960/08,61,PATERSON BLDG,百德大廈,True,4.0,450.0,POINT Z (22.2805976 114.1852341 0),22.280597600000004,114.1852341
43,"WALDORF MANSION,CAUSEWAY RD|華都大廈,高士威道",HCB,,,704.0,,,704.0,,,1199.0,5.0,9.0,13.0,"['A', 'B', 'C', 'D']",,,924.0,13,52,1964/07,57,blank,,False,,,POINT Z (22.2792598 114.1879423 0),22.2792598,114.18794229999999
44,"MALAHON APTS,JAFFE RD|美漢大廈,謝斐道",HCB,4363520.0,12518.0,320.0,4599040.0,12811.0,320.0,10298600.0,16152.0,650.0,6.0,10.0,15.0,"['A', 'B', 'C', 'D', 'E', 'F', 'G', 'H', 'I', 'IJ', 'J', 'K', 'L', 'M', 'N', 'O', 'P']",5277192.803921569,13955.666666666666,377.29411764705884,16,272,1966/10,55,MALAHON APTS,美漢大廈,True,1.0,272.0,POINT Z (22.2812524 114.1831818 0),22.281252399999996,114.1831818
45,"MARCO POLO MANSION,CLEVELAND ST|海威大廈,加寧街",HCB,19453932.2713574,12769.0,890.0,20758072.45651535,13625.0,890.0,32989761.83699656,15668.0,1277.0,4.0,8.0,13.0,"['A', 'B', 'C', 'D']",24595271.41975838,14216.11111111111,1071.75,14,56,1964/08,57,blank,,False,,,POINT Z (22.282715 114.185889 0),22.282715,114.18588899999999
46,"SUNRISE COURT,TUNG LO WAN RD|金暉閣,銅鑼灣道",HCB,3607695.0,18501.0,195.0,3684330.0,18894.0,195.0,3779685.0,19383.0,195.0,3.0,6.0,8.0,"['A', 'B']",3716342.5,19058.166666666668,195.0,10,20,1983/08,38,blank,,False,,,POINT Z (22.2785681 114.1908798 0),22.2785681,114.19087979999999
47,"HOI KUNG COURT,GLOUCESTER RD|海宮大廈,告士打道",HCB,7080426.376070704,8895.0,465.0,7528574.779637631,9458.0,465.0,15930769.495376498,19968.0,776.0,4.0,10.0,16.0,"['A', 'B', 'C', 'D', 'E', 'F', 'G', 'H', 'I']",12484064.469509626,17170.962962962964,666.8888888888889,19,171,1966/01,55,blank,,False,,,POINT Z (22.2816344 114.1831357 0),22.281634399999998,114.18313570000001
48,"SUN ON MANSION,CANNON ST|新安大廈,景隆街",HCB,9559491.89694022,27484.0,294.0,10459415.072232595,27525.0,347.0,15725326.769737903,33627.0,469.0,3.0,6.0,8.0,"['A', 'B', 'C', 'D', 'E', 'F', 'G', 'H']",12116911.021597365,29363.24404761905,386.5416666666667,10,80,1964/11,57,blank,,False,,,POINT Z (22.2816186 114.1837624 0),22.2816186,114.1837624
49,"TRAFALGAR COURT,TAI HANG RD|大寶閣,大坑道",HCB,81961216.0,30897.0,2516.0,87695180.0,33039.0,2516.0,94333672.9738092,36955.0,2516.0,6.0,15.0,24.0,"['A', 'B']",88087111.80621059,33913.166666666664,2516.0,27,54,1984/06,37,blank,,False,,,POINT Z (22.2771178 114.1913567 0),22.277117800000003,114.1913567
50,"GARDENVIEW HEIGHTS,TAI HANG DR|嘉景臺,大坑徑",HCB,21027796.69313031,19106.0,1032.0,24152181.267719585,21126.0,1072.0,26456961.985116288,23142.0,1072.0,7.0,18.0,29.0,"['A', 'B']",23744213.649173647,21150.666666666668,1052.0,33,66,1991/10,30,blank,,False,,,POINT Z (22.2747331 114.1945371 0),22.2747331,114.1945371
51,"FONTANA GARDEN(Block C),KA NING PATH|豪園C座,嘉寧徑",HCB,55491773.81488787,7196.0,2560.0,57627852.378912866,7473.0,2560.0,67503409.69717982,23017.0,2750.0,3.0,8.0,14.0,"['14', '15', '16', '17', 'whole floor']",61739199.88507388,16271.166666666666,2636.0,18,90,1966/06,55,FONTANA GARDEN,豪園,True,3.0,295.0,POINT Z (22.277906 114.190356 0),22.277906,114.19035600000001
52,"HIN WAH BLDG,HENNESSY RD|軒華大廈,軒尼詩道",HCB,5306553.396173089,10614.0,463.0,5427033.439782117,10974.0,463.0,6895299.454365128,11247.0,576.0,5.0,8.0,11.0,"['A', 'B', 'C']",5933925.170980719,10097.777777777776,504.8888888888889,9,27,1965/08,56,blank,,False,,,POINT Z (22.2793901 114.1818582 0),22.2793901,114.1818582
53,"FONTANA GARDEN(Block B),KA NING PATH|豪園B座,嘉寧徑",HCB,57859769.89313938,21193.0,2560.0,61815736.79613372,22642.0,2560.0,70893683.91232254,25268.0,2750.0,3.0,10.0,16.0,"['3', '4', '5', '6', 'whole floor']",64421863.700170845,23109.06666666667,2648.6666666666665,19,95,1965/12,56,FONTANA GARDEN,豪園,True,3.0,295.0,POINT Z (22.277906 114.190356 0),22.277906,114.19035600000001
54,"SUNRISE COURT,TAI HANG RD|兆暉閣,大坑道",HCB,21173200.0,19696.0,1075.0,21707475.0,20193.0,1075.0,22776025.0,21187.0,1075.0,8.0,14.0,21.0,['whole floor'],21885566.666666668,20358.666666666668,1075.0,22,22,1983/04,38,blank,,False,,,POINT Z (22.2757587 114.1935618 0),22.2757587,114.1935618
55,"KESWICK COURT,KESWICK ST|敬誠閣,敬誠街",HCB,8488589.695769096,14850.0,536.0,8957891.52339377,15671.0,536.0,9379177.086072681,16408.0,536.0,7.0,14.0,20.0,"['A', 'B']",8942076.642479094,15643.333333333334,536.0,20,40,1988/05,33,blank,,False,,,POINT Z (22.278673 114.1864097 0),22.278673,114.18640970000001
56,"HENNESSY APTS,PERCIVAL ST|軒尼詩大廈,波斯富街",HCB,5669476.971930424,12392.0,429.0,6213386.161474871,12153.0,454.0,9238689.198943585,13377.0,665.0,7.0,12.0,16.0,"['A', 'B', 'C', 'D', 'E', 'F', 'G', 'H', 'J', 'K', 'L', 'M']",7599099.261225063,12850.729797979797,559.2777777777777,16,192,1960/07,61,blank,,False,,,POINT Z (22.2797994 114.1829961 0),22.279799399999998,114.18299609999998
57,"AVALON,TAI HANG RD|雅景軒,大坑道",HCB,12630397.801887298,16919.0,700.0,13627750.568795593,18255.0,700.0,14602707.689740377,19561.0,700.0,9.0,17.0,24.0,"['A', 'B']",13665201.065656796,18305.166666666668,700.0,23,46,1994/12,27,blank,,False,,,POINT Z (22.2751627 114.1937476 0),22.2751627,114.19374760000001
58,"PAK TAK BLDG,JARDINE'S BAZAAR|八達大廈,渣甸街",HCB,7271844.915164935,15497.0,440.0,7603599.084037725,16204.0,440.0,7930660.831851493,16901.0,440.0,6.0,12.0,19.0,['whole floor'],7602034.943684719,16200.666666666666,440.0,20,20,1988/11,33,blank,,False,,,POINT Z (22.2792773 114.1853415 0),22.2792773,114.1853415
59,"LEI WEN COURT,HAVEN ST|禮雲大樓,希雲街",HCB,8600991.0,18339.0,469.0,8792877.0,20121.0,437.0,8437425.0,17763.0,475.0,3.0,6.0,10.0,['whole floor'],8610431.0,18741.0,460.3333333333333,12,12,1959/10,62,blank,,False,,,POINT Z (22.277545 114.186921 0),22.277545,114.186921
60,"CAUSEWAY BAY MANSION,PATERSON ST|銅鑼灣大廈,百德新街",HCB,16354277.451986112,15055.0,850.0,16709498.224274352,15382.0,850.0,17937019.547472246,18561.0,950.0,3.0,6.0,9.0,"['A', 'B', 'C', 'D']",17196977.149909664,16687.416666666668,900.0,11,44,1958/05,63,blank,,False,,,POINT Z (22.2817363 114.1852929 0),22.281736300000002,114.18529290000001
61,"KWONG ON BLDG,YEE WO ST|廣安大廈,怡和街",HCB,5633732.0,11826.0,442.0,5810042.0,12140.0,446.0,10072836.0,14552.0,774.0,5.0,8.0,12.0,"['A', 'B', 'C', 'D']",7470293.784409444,12858.583333333334,584.6666666666666,12,48,1966/01,55,blank,,False,,,POINT Z (22.279808 114.1850164 0),22.279808,114.18501640000001
62,"HARMONY COURT,TAI HANG RD|融園,大坑道",HCB,24196521.660437007,11605.0,1218.0,24738623.826030597,11865.0,1218.0,23614804.336588502,11326.0,1218.0,2.0,5.0,7.0,"['22', 'whole floor']",24119507.70842508,10766.333333333334,1218.0,7,14,1966/00,55,blank,,False,,,POINT Z (22.2768198 114.1931903 0),22.276819800000002,114.1931903
63,"PO HON BLDG,PERCIVAL ST|寶漢大廈,波斯富街",HCB,5889845.0,13379.0,395.0,6020985.0,14458.0,395.0,7781194.0,15574.0,523.0,6.0,9.0,12.0,"['A', 'B', 'C', 'D', 'E', 'F']",7012065.277777777,14579.555555555555,481.6666666666667,9,54,1967/11,54,blank,,False,,,POINT Z (22.2806573 114.1825316 0),22.2806573,114.18253159999999
64,"HAYWOOD MANSION,PATERSON ST|海華大廈,百德新街",HCB,19927380.514414884,14710.0,1060.0,20587110.923015837,15197.0,1060.0,23731244.805580672,16091.0,2410.0,3.0,8.0,12.0,"['A', 'A & B', 'B', 'C', 'D']",22172926.08181803,15423.916666666666,1381.2,14,70,1961/09,60,blank,,False,,,POINT Z (22.2820244 114.1847841 0),22.282024399999997,114.1847841
65,"WAH YING BLDG,SHELTER ST|華英大廈,信德街",HCB,8146440.0,15086.0,410.0,8529840.0,15168.0,410.0,15700075.681848617,16515.0,776.0,5.0,11.0,17.0,"['A', 'AB', 'B', 'C']",12001553.616763303,15699.833333333334,547.75,19,76,1980/01,41,blank,,False,,,POINT Z (22.2790231 114.1884764 0),22.279023100000003,114.1884764
66,"FAIRVIEW MANSION,PATERSON ST|華爾大廈,百德新街",HCB,7295861.579312471,11402.0,600.0,7546761.067501,11524.0,604.0,19386817.589795373,14485.0,1255.0,3.0,6.0,9.0,"['A', 'B', 'C', 'D', 'E', 'F']",11784997.537665976,12603.055555555557,854.0,11,66,1958/10,63,blank,,False,,,POINT Z (22.2814102 114.1849467 0),22.2814102,114.1849467
67,"VICTORIA PARK MANSION,KINGSTON ST|維德大廈,京士頓街",HCB,12192604.515214618,12689.0,901.0,12605782.854054738,13119.0,901.0,19419925.819744766,14926.0,1220.0,4.0,8.0,11.0,"['A', 'B', 'C', 'D']",15819694.823227644,13882.166666666666,1060.5,12,48,1964/08,57,blank,,False,,,POINT Z (22.2822672 114.1861726 0),22.2822672,114.1861726
68,"CAUSEWAY TOWER,CAUSEWAY RD|高威樓,高士威道",HCB,7329647.0109374225,16364.0,410.0,7503885.136533527,16753.0,410.0,7849673.910210115,18142.0,420.0,15.0,18.0,20.0,"['A', 'B', 'C', 'D']",7525941.600150826,17193.083333333332,415.0,10,40,1978/07,43,blank,,False,,,POINT Z (22.2795462 114.1884764 0),22.2795462,114.1884764
69,"HAVEN COURT,LEIGHTON RD|希雲大廈,禮頓道",HCB,5009706.0,10569.0,474.0,5516643.0,11156.0,474.0,14230161.0,15971.0,940.0,3.0,6.0,8.0,"['A', 'B', 'C', 'D', 'E', 'F', 'G', 'H', 'I', 'J', 'K', 'L', 'M']",8279158.923076923,12142.564102564103,671.7435897435898,10,130,1959/01,62,blank,,False,,,POINT Z (22.2781849 114.186676 0),22.2781849,114.186676
70,"MAYLAND COURT,SHELTER ST|美蘭閣,信德街",HCB,5303250.0,13630.0,375.0,5570625.0,14116.0,375.0,5793750.0,15450.0,395.0,5.0,12.0,18.0,"['A', 'B', 'C']",5550320.0,14549.77777777778,381.6666666666667,22,66,1976/09,45,blank,,False,,,POINT Z (22.2793827 114.188546 0),22.2793827,114.188546
71,"HYDE PARK MANSION,PATERSON ST|海德大廈,百德新街",HCB,7742494.747384748,12072.0,600.0,7912701.656707421,12349.0,600.0,21225850.98851961,15948.0,1248.0,3.0,6.0,9.0,"['A', 'B', 'C', 'D', 'E', 'F']",12764858.060874216,13509.72222222222,853.5555555555557,11,66,1958/10,63,blank,,False,,,POINT Z (22.2815993 114.1848538 0),22.281599300000003,114.1848538
72,"RIVIERA MANSION,PATERSON ST|海濱大廈,百德新街",HCB,17724368.219225463,9861.0,875.0,18224051.24984555,10139.0,875.0,21372328.235471863,10904.0,1285.0,3.0,7.0,11.0,"['A', 'B', 'C', 'D']",19082944.58243658,10296.833333333334,1092.0833333333333,13,52,1961/11,60,blank,,False,,,POINT Z (22.2822117 114.1846332 0),22.2822117,114.1846332
73,"PEARL CITY MANSION,PATERSON ST|珠城大廈,百德新街",HCB,4619565.0,13129.0,246.0,4913190.0,13870.0,246.0,12073470.0,21882.0,3781.0,10.0,19.0,28.0,"['A1', 'A10', 'A1A', 'A1B', 'A2', 'A3', 'A3A', 'A4', 'A5', 'A5A', 'A6', 'A6A', 'A7', 'A7A', 'A7B', 'A8', 'A8A', 'A8B', 'A9', 'A9A', 'B1', 'B2', 'B3', 'B4', 'B5', 'B6', 'C1', 'C2', 'C2-C9', 'C3', 'C4', 'C5', 'C6', 'C7', 'C8', 'C9']",,,529.8055555555555,27,972,1970/08,51,PEARL CITY MANSION,珠城大廈,True,1.0,972.0,POINT Z (22.2810532 114.1858291 0),22.281053200000002,114.18582909999999
74,"LEI KWA COURT,CAROLINE HILL RD|禮加大樓,加路連山道",HCB,9360455.0,16745.0,559.0,9566726.0,17114.0,559.0,9007620.0,17662.0,510.0,3.0,6.0,10.0,['whole floor'],9311600.333333334,17173.666666666668,542.6666666666666,12,12,1959/07,62,blank,,False,,,POINT Z (22.2773865 114.1868276 0),22.2773865,114.18682759999999
75,"SHINING BLDG,JAFFE RD|肇明大廈,謝斐道",HCB,5841000.0,13275.0,440.0,5880160.0,13364.0,440.0,6212360.0,14119.0,440.0,7.0,12.0,18.0,"['A', 'B']",5977840.0,13586.0,440.0,18,36,1978/04,43,blank,,False,,,POINT Z (22.2811986 114.1825549 0),22.2811986,114.18255490000001
76,58 TAI HANG RD|58 大坑道,HCB,29567322.0,20662.0,1431.0,32294808.0,22568.0,1431.0,,,2862.0,5.0,18.0,29.0,['whole floor'],30931065.0,21615.0,1908.0,32,32,1957/07,64,blank,,False,,,POINT Z (22.2703638 114.1910735 0),22.270363800000002,114.19107350000002
77,"RONSDALE GARDEN(Block 1),TAI HANG DR|龍華花園1座,大坑徑",HCB,14148190.0,19705.0,718.0,15077282.0,20999.0,718.0,23694912.0,23886.0,992.0,6.0,17.0,28.0,"['A', 'B', 'C', 'D', 'E', 'F']",19384278.48888889,21748.366666666665,895.7222222222222,33,198,1986/05,35,RONSDALE GARDEN,龍華花園,True,2.0,396.0,POINT Z (22.2747538 114.1955124 0),22.2747538,114.19551240000001
78,"GREAT GEORGE BLDG,GREAT GEORGE ST|華登大廈,記利佐治街",HCB,7724035.0,12671.0,605.0,7922475.0,13039.0,605.0,18187900.0,15220.0,1195.0,4.0,8.0,13.0,"['A1', 'A2', 'A3', 'A4', 'A5', 'B1', 'B2', 'C1', 'C2', 'C3', 'C4', 'C5', 'D1', 'D2']",11073027.261904763,13774.380952380952,798.5714285714286,14,196,1959/12,62,GREAT GEORGE BLDG,華登大廈,True,1.0,196.0,POINT Z (22.280567 114.1853182 0),22.280567,114.1853182
79,"PATERSON BLDG(Block A),PATERSON ST|百德大廈A座,百德新街",HCB,7270223.89698091,13580.0,502.0,7549147.803485112,14101.0,502.0,18840762.68407576,15873.0,1113.0,4.0,9.0,14.0,"['1', '2', '3', '4', '5']",12308550.329232147,14540.733333333332,785.4666666666666,15,75,1959/12,62,PATERSON BLDG,百德大廈,True,4.0,450.0,POINT Z (22.2805976 114.1852341 0),22.280597600000004,114.1852341
80,"MIAMI MANSION,CLEVELAND ST|美亞美大廈,加寧街",HCB,16814865.34772866,14243.0,1025.0,18512184.0,14869.0,1025.0,20280729.133835547,16468.0,1297.0,4.0,7.0,10.0,"['A', 'B', 'C', 'D']",18591100.214389574,15551.5,1145.25,9,36,1964/03,57,blank,,False,,,POINT Z (22.282486 114.185443 0),22.282486,114.18544299999999
81,"OI KWAN COURT,FUK KWAN AVE|愛群閣,福群道",HCB,10119803.231004609,15556.0,600.0,10119803.231004609,15556.0,600.0,11054874.772947714,15875.0,660.0,2.0,2.0,3.0,"['A', 'B', 'C', 'D']",10394570.701135525,15690.333333333334,621.25,4,16,1978/09,43,blank,,False,,,POINT Z (22.2760202 114.1935618 0),22.276020199999998,114.1935618
82,"PO FOO BLDG,FOO MING ST|寶富大廈,富明街",HCB,5520625.0,12157.0,365.0,5445990.0,12521.0,330.0,12074727.698834013,17502.0,698.0,3.0,7.0,11.0,"['A', 'B', 'C', 'D', 'E', 'F', 'G', 'H', 'I', 'J', 'K', 'L', 'M', 'N', 'O', 'R']",7296189.7239188105,14530.895833333334,479.4166666666667,13,208,1964/04,57,blank,,False,,,POINT Z (22.2788362 114.1834373 0),22.2788362,114.1834373
83,"RICH BLDG,ORMSBY ST|勵志大廈,安庶庇街",HCB,5444605.490188819,14798.0,345.0,5706570.560401986,15510.0,345.0,6014158.760820816,16346.0,345.0,5.0,12.0,20.0,['whole floor'],5721778.270470541,15551.333333333334,345.0,21,21,1993/04,28,blank,,False,,,POINT Z (22.2779103 114.192633 0),22.277910300000002,114.192633
84,"LEI HA COURT,HAVEN ST|禮希大樓,希雲街",HCB,6546320.0,14878.0,440.0,6747400.0,14665.0,440.0,7292005.0,19655.0,440.0,2.0,6.0,10.0,"['11A', 'whole floor']",6921687.5,15906.5,438.5,13,26,1959/06,62,blank,,False,,,POINT Z (22.2777318 114.1867115 0),22.2777318,114.1867115
85,"YEE WAH MANSION,YEE WO ST|怡華大廈,怡和街",HCB,4890452.619634925,10744.0,342.0,4988774.457718118,10525.0,337.0,8767091.480533332,13472.0,572.0,5.0,10.0,14.0,"['A', 'B', 'C', 'D']",6349149.883354717,11544.75,435.5,14,56,1965/03,56,blank,,False,,,POINT Z (22.279633 114.1855737 0),22.279633,114.18557369999999
86,"EAST SOUTH BLDG,HENNESSY RD|東南大廈,軒尼詩道",HCB,4576915.174236245,9036.0,327.0,4701869.30472352,9685.0,327.0,9681855.307728846,12409.0,817.0,6.0,10.0,13.0,"['A', 'A1', 'B', 'C', 'D', 'E', 'F']",6630038.606105006,10614.52380952381,527.7142857142857,12,84,1965/10,56,blank,,False,,,POINT Z (22.2800434 114.1824155 0),22.280043399999997,114.1824155
87,"KINGSTON BLDG(Block B),KINGSTON ST|京士頓大廈B座,京士頓街",HCB,11216656.653550781,12596.0,487.0,10606789.087265804,13142.0,487.0,12387233.343230832,14217.0,1575.0,5.0,10.0,15.0,"['1', '2', '3', '34', '4', '5']",11224367.810868068,12418.233333333332,869.2777777777778,15,90,1965/12,56,KINGSTON BLDG,京士頓大廈,True,2.0,174.0,POINT Z (22.2815401 114.1857827 0),22.2815401,114.1857827
88,"GREENFIELD MANSION,KINGSTON ST|新豪大廈,京士頓街",HCB,19724005.368962646,15221.0,1210.0,20851828.770498358,15631.0,1210.0,57239538.475069955,21469.0,2500.0,4.0,8.0,11.0,"['A', 'A & C', 'AC', 'B', 'C']",35565861.44816703,18048.933333333334,1768.4000000000003,12,60,1964/11,57,blank,,False,,,POINT Z (22.2816413 114.1862471 0),22.2816413,114.18624709999999
89,"CAROLINE HILL COURT,CAROLINE HILL RD|加路連大樓,加路連山道",HCB,8145280.0,14240.0,572.0,7446936.0,16331.0,456.0,9630192.0,16836.0,572.0,3.0,6.0,10.0,['whole floor'],8407469.333333334,15802.333333333334,533.3333333333334,12,12,1959/07,62,blank,,False,,,POINT Z (22.277635 114.186533 0),22.277635,114.18653300000001
90,"FLORIDA MANSION,CLEVELAND ST|華高大廈,加寧街",HCB,14330184.0,13327.0,1023.0,14640153.0,13605.0,1023.0,18615139.348505378,14619.0,1194.0,3.0,6.0,8.0,"['A', 'B', 'C', 'D']",16475070.69942374,14124.5,1108.5,10,40,1964/03,57,blank,,False,,,POINT Z (22.2822718 114.1855729 0),22.2822718,114.18557290000001
91,"THE FIRST MANSION,TUNG LO WAN RD|第一閣,銅鑼灣道",HCB,6792944.9535559,17336.0,333.0,7263848.603096631,20454.0,333.0,8619166.534571659,21937.0,333.0,5.0,12.0,20.0,"['A', 'B']",7564476.522658828,20057.833333333332,333.0,24,48,1995/11,26,blank,,False,,,POINT Z (22.279103 114.19179 0),22.279103,114.19179
92,"LAI YUEN APTS,RUSSELL ST|麗園大廈,羅素街",HCB,5820956.855390277,13492.0,392.0,5620622.469950026,13878.0,362.0,9544392.965723488,15989.0,1057.0,4.0,8.0,11.0,"['A', 'B', 'C', 'D', 'E', 'F', 'G', 'H', 'HI', 'I', 'J']",7040290.794427139,14002.593253968254,558.7878787878789,12,132,1964/04,57,blank,,False,,,POINT Z (22.2790248 114.1833996 0),22.279024800000002,114.1833996
93,"HAPPY MANSION,LEE GARDEN RD|HAPPY MANS,利園山道",HCB,18897617.285492513,34388.0,430.0,18990489.72126221,34557.0,430.0,19117433.701515455,34788.0,430.0,2.0,3.0,4.0,['whole floor'],19001846.902756725,34577.666666666664,430.0,5,5,1963/01,58,blank,,False,,,POINT Z (22.27947 114.183242 0),22.27947,114.18324199999999
94,"PROSPECT MANSION,PATERSON ST|海灣大廈,百德新街",HCB,17672652.248652503,6162.0,920.0,19895243.922389258,7179.0,920.0,26577116.483761474,7920.0,1114.0,3.0,6.0,10.0,"['A', 'B', 'C', 'D']",21596365.503728036,7438.25,1017.0,12,48,1960/09,61,blank,,False,,,POINT Z (22.2823655 114.1851092 0),22.2823655,114.1851092
95,"CHERRY COURT,TAI HANG RD|芝蘭閣,大坑道",HCB,22278372.763110682,15417.0,1355.0,23067371.370405126,15963.0,1355.0,25572255.051567122,17544.0,1450.0,5.0,8.0,10.0,"['12', 'whole floor']",24333408.19751382,16616.333333333332,1418.3333333333333,10,20,1965/12,56,blank,,False,,,POINT Z (22.2770601 114.1927723 0),22.277060100000003,114.1927723
96,"GRAND DECO TOWER,TAI HANG RD|帝后臺,大坑道",HCB,21260492.0,19613.0,1084.0,22822536.0,21054.0,1084.0,25317904.0,23356.0,1084.0,16.0,26.0,36.0,"['A', 'B']",23324608.666666668,21517.166666666668,1084.0,27,54,1999/03,22,blank,,False,,,POINT Z (22.2768994 114.1935154 0),22.276899399999998,114.19351540000001
97,"FONTANA GARDEN(Block A),KA NING PATH|豪園A座,嘉寧徑",HCB,50482942.721372165,18491.0,773.0,52866351.35236876,19364.0,773.0,62505981.2693224,21517.0,2750.0,4.0,10.0,17.0,"['22', '22A', '23', '24', '25']",,,2278.6,22,110,1971/05,50,FONTANA GARDEN,豪園,True,3.0,295.0,POINT Z (22.277906 114.190356 0),22.277906,114.19035600000001
98,"Y.I,TAI HANG RD|Y.I,大坑道",HCB,11181523.217330692,20009.0,524.0,11953260.11388393,21390.0,524.0,28381058.0,26927.0,1054.0,11.0,20.0,29.0,"['A', 'B', 'C']",18687919.626157787,23191.666666666668,794.6666666666666,25,75,2001/03,20,blank,,False,,,POINT Z (22.276984 114.1925633 0),22.276984,114.19256329999999
99,"WELL-FOUND BLDG,JAFFE RD|匯創大廈,謝斐道",HCB,5651256.0,18113.0,312.0,5997888.0,19224.0,312.0,6317688.0,20249.0,312.0,9.0,18.0,26.0,['whole floor'],5988944.0,19195.333333333332,312.0,21,21,2001/02,20,blank,,False,,,POINT Z (22.2809367 114.1828335 0),22.2809367,114.1828335
100,"THE GRANDEUR,JARDINE'S BAZAAR|采怡閣,渣甸街",HCB,7563600.0,18909.0,394.0,7933190.0,19937.0,394.0,8886152.0,21223.0,419.0,9.0,16.0,24.0,"['A', 'B', 'C', 'D']",8237810.0,20237.083333333332,407.0,22,88,2002/11,19,blank,,False,,,POINT Z (22.2792194 114.1851557 0),22.2792194,114.18515570000001
101,"PO MING BLDG,FOO MING ST|寶明大廈,富明街",HCB,5189801.682180775,11641.0,335.0,5122157.014156971,11490.0,335.0,11072887.271058366,15397.0,675.0,3.0,6.0,10.0,"['A', 'B', 'C', 'D', 'E', 'F', 'G', 'H', 'I', 'J', 'K', 'L', 'N', 'O']",7353390.6849768525,14135.924242424242,454.4047619047619,12,168,1964/04,57,blank,,False,,,POINT Z (22.2784909 114.1835534 0),22.278490899999998,114.1835534
102,"HAMILTON MANSION(Block A1),CLEVELAND ST|美登大廈A1座,加寧街",HCB,,,976.0,,,976.0,,,1238.0,3.0,6.0,9.0,"['A', 'B', 'C', 'D']",,,1093.5,11,44,1962/11,59,HAMILTON MANSION,美登大廈,True,1.0,44.0,POINT Z (22.2818061 114.1856908 0),22.2818061,114.1856908
103,8 PAK SHA RD|8 白沙道,HCB,16296600.0,18840.0,865.0,16463545.0,19033.0,865.0,15482276.0,18812.0,823.0,2.0,3.0,4.0,['whole floor'],16080807.0,18895.0,851.0,5,5,1955/03,66,blank,,False,,,POINT Z (22.2791031 114.1841873 0),22.2791031,114.18418729999999
104,"PHOENIX APTS,LEE GARDEN RD|鳳鳴大廈,利園山道",HCB,7302585.605398182,10154.0,395.0,7454209.460867799,10190.0,395.0,11918403.957090054,11700.0,974.0,4.0,9.0,14.0,"['A', 'B', 'C', 'D', 'E', 'E1', 'F', 'G', 'H', 'I', 'J', 'K', 'L']",8953632.381062081,10819.555555555555,746.1538461538462,17,221,1959/07,62,blank,,False,,,POINT Z (22.2783546 114.1839585 0),22.2783546,114.1839585
105,"GRANDVIEW MANSION,WANG FUNG TERR|偉景大廈,宏豐臺",HCB,16329312.952738483,12192.0,1048.0,16449854.140873857,12282.0,1048.0,22848147.69023752,13312.0,1343.0,1.0,2.0,3.0,"['2', '3', '5', '6', 'whole floor']",20518927.19357181,12905.333333333334,1241.0666666666666,3,15,1955/01,66,blank,,False,,,POINT Z (22.2764148 114.1916113 0),22.2764148,114.19161129999999
106,"THE LEGEND(Block 2),TAI HANG DR|名門2座,大坑徑",HCB,37649252.0,26402.0,1426.0,40949016.0,28716.0,1426.0,46038850.0,32195.0,1430.0,23.0,36.0,48.0,"['A', 'B']",41518666.333333336,29067.0,1428.3333333333333,35,70,2006/11,15,THE LEGEND,名門,True,4.0,437.0,POINT Z (22.2752914 114.1949921 0),22.2752914,114.19499209999998
107,518 JAFFE RD|518 謝斐道,HCB,,,737.0,,,737.0,,,737.0,2.0,3.0,4.0,['whole floor'],,,737.0,3,3,1961/12,60,blank,,False,,,POINT Z (22.2790636 114.1768091 0),22.279063600000004,114.1768091
108,500 LOCKHART RD|500 駱克道,HCB,7074008.177479281,17803.0,364.0,7124084.841853689,17704.0,364.0,7377086.321384794,18482.0,383.0,4.0,5.0,6.0,"['A', 'B', 'C']",7201775.219205623,18125.0,372.6666666666667,5,15,1964/12,57,blank,,False,,,POINT Z (22.2785972 114.1766163 0),22.278597199999997,114.17661629999999
109,"RITA HSE,LEIGHTON RD|麗達大廈,禮頓道",HCB,8104470.0,13178.0,219.0,7207625.0,13225.0,219.0,7885060.0,14468.0,545.0,3.0,6.0,9.0,"['F.P.', 'R.P.', 'whole floor']",7732385.0,13623.666666666666,377.77777777777777,9,27,1963/02,58,blank,,False,,,POINT Z (22.2782353 114.1863516 0),22.2782353,114.18635159999998
110,"JARDINE SUMMIT,TAI HANG RD|渣甸豪庭,大坑道",HCB,13551356.0,17668.0,767.0,14786172.0,18884.0,769.0,15686831.0,20399.0,782.0,10.0,18.0,26.0,"['A', 'B']",14735416.166666666,19055.666666666668,773.1666666666666,22,44,2005/06,16,blank,,False,,,POINT Z (22.2758764 114.1938521 0),22.275876399999998,114.1938521
111,"THE LEGEND(Block 5),TAI HANG DR|名門5座,大坑徑",HCB,18861340.0,21145.0,891.0,21443680.0,24040.0,891.0,56619165.0,31755.0,1783.0,23.0,36.0,50.0,"['A', 'AB', 'B', 'C', 'D']",28765023.733333334,25937.733333333334,1071.2,35,175,2006/11,15,THE LEGEND,名門,True,4.0,437.0,POINT Z (22.2747146 114.1947926 0),22.2747146,114.1947926
112,517 LOCKHART RD|517 駱克道,HCB,,,600.0,,,600.0,,,600.0,3.0,4.0,4.0,['whole floor'],,,600.0,4,4,1955/07,66,blank,,False,,,POINT Z (22.2785972 114.1766163 0),22.278597199999997,114.17661629999999
113,17-17A SHELTER ST|17-17A 信德街,HCB,7982120.0,18495.0,431.0,8042891.0,18644.0,431.0,9094725.0,19284.0,487.0,2.0,4.0,7.0,"['A', 'B']",8660937.0,18713.166666666668,463.5,8,16,1965/07,56,blank,,False,,,POINT Z (22.2793531 114.1884061 0),22.2793531,114.1884061
114,"THE LEGEND(Block 1),TAI HANG DR|名門1座,大坑徑",HCB,29573676.0,25806.0,1146.0,32685066.0,28521.0,1146.0,94159789.97917052,38505.0,2293.0,25.0,37.0,52.0,"['A', 'AB', 'B']",50210704.44589863,30764.888888888887,1528.6666666666667,33,99,2006/11,15,THE LEGEND,名門,True,4.0,437.0,POINT Z (22.2752914 114.1949921 0),22.2752914,114.19499209999998
115,"THE LEGEND(Block 3),TAI HANG DR|名門3座,大坑徑",HCB,33985854.0,22794.0,1491.0,36845592.0,24712.0,1491.0,46602608.0,28229.0,1796.0,22.0,33.0,51.0,"['A', 'B', 'C']",41008308.55555555,25332.11111111111,1618.3333333333333,31,93,2006/11,15,THE LEGEND,名門,True,4.0,437.0,POINT Z (22.274827 114.195048 0),22.274827,114.195048
116,"SAI SEE MANSION,WUN SHA ST|西施樓,浣紗街",HCB,,,360.0,,,360.0,,,418.0,2.0,4.0,6.0,"['A', 'B', 'C']",,,396.3333333333333,7,21,1964/05,57,blank,,False,,,POINT Z (22.2784843 114.1925865 0),22.2784843,114.1925865
117,32A JARDINE'S BAZAAR|32A 渣甸街,HCB,,,495.0,,,565.0,,,565.0,10.0,11.0,13.0,['whole floor'],,,541.6666666666666,5,5,1967/05,54,blank,,False,,,POINT Z (22.2795527 114.1852116 0),22.2795527,114.18521159999999
118,"WARRENWOODS,WARREN ST|尚巒,華倫街",HCB,5783360.0,19702.0,265.0,5740695.0,21663.0,265.0,14052264.0,26978.0,552.0,12.0,24.0,35.0,"['A', 'B', 'C', 'D', 'E', 'F']",8955812.444444446,23534.22222222222,380.6666666666667,30,180,2012/09,9,blank,,False,,,POINT Z (22.278161 114.191637 0),22.278160999999997,114.19163700000001
119,16D TAI HANG RD|16D 大坑道,HCB,16474576.90881625,11309.0,851.0,16510996.081397412,11334.0,851.0,16510996.081397412,11334.0,851.0,1.0,2.0,2.0,['whole floor'],16498856.357203692,11325.666666666666,851.0,4,4,1955/01,66,blank,,False,,,POINT Z (22.2703638 114.1910735 0),22.270363800000002,114.19107350000002
120,"WUN SHA MANSION,WUN SHA ST|浣沙閣,浣紗街",HCB,,,538.0,,,538.0,,,619.0,2.0,4.0,6.0,"['A', 'B']",,,578.5,6,12,1963/12,58,blank,,False,,,POINT Z (22.2789715 114.1922614 0),22.2789715,114.1922614
121,"THE WARREN,WARREN ST|瑆華,華倫街",HCB,8253110.0,21605.0,382.0,8915116.0,23338.0,382.0,58352678.86452826,44776.0,1222.0,10.0,20.0,30.0,"['A', 'AC', 'B', 'C', 'D']",20606671.08560833,27847.13333333333,641.6,26,130,2014/01,7,blank,,False,,,POINT Z (22.2784825 114.1915549 0),22.278482500000003,114.19155490000001
122,"THE SIGNATURE,CHUN FAI TERR|春暉8號,春暉台",HCB,45259040.98985708,27100.0,1566.0,,,1566.0,81725200.25251736,40835.0,1566.0,11.0,23.0,36.0,"['A', 'B']",63480856.55958252,33973.5,1566.0,33,66,2011/08,10,blank,,False,,,POINT Z (22.2752562 114.1945371 0),22.2752562,114.1945371
123,"PARK HAVEN,HAVEN ST|曦巒,希雲街",HCB,8197488.0,20892.0,377.0,9141496.0,22600.0,377.0,25639400.0,30164.0,850.0,7.0,18.0,27.0,"['A', 'B', 'C', 'D', 'E', 'F', 'G', 'H']",12164985.708333334,24422.208333333332,492.9583333333333,26,208,2014/06,7,blank,,False,,,POINT Z (22.2775121 114.1874278 0),22.277512100000003,114.1874278
124,520 JAFFE RD|520 謝斐道,HCB,,,739.0,,,739.0,,,739.0,5.0,7.0,9.0,['whole floor'],,,739.0,7,7,1961/12,60,blank,,False,,,POINT Z (22.2790636 114.1768091 0),22.279063600000004,114.1768091
125,"SZE HAI BLDG,SHEPHERD ST|SZE HAI BLDG,施弼街",HCB,6183280.0145439245,10658.0,460.0,5803677.014840432,10567.0,460.0,5878921.052981166,10704.0,544.0,3.0,4.0,5.0,"['A', 'B', 'C', 'D']",5955292.69412184,10643.0,510.5,3,12,1964/07,57,blank,,False,,,POINT Z (22.2782091 114.1918435 0),22.2782091,114.1918435
126,"YOO RESIDENCE,TUNG LO WAN RD|YOO RESIDENCE,銅鑼灣道",HCB,7517480.0,21176.0,349.0,8093290.0,22798.0,349.0,28295509.0,32561.0,2683.0,9.0,18.0,27.0,"['A', 'B', 'C', 'C-E', 'CD', 'CE', 'D', 'E', 'F', 'G']",,,799.5,24,240,2015/08,6,blank,,False,,,POINT Z (22.278856 114.1889699 0),22.278856,114.1889699
127,26 SCHOOL ST|26 書館街,HCB,5276787.44976892,14137.0,350.0,5310007.657948127,14226.0,350.0,5243940.502355773,14049.0,350.0,2.0,3.0,4.0,['whole floor'],5276911.870024274,14137.333333333334,350.0,5,5,1965/01,56,blank,,False,,,POINT Z (22.2788179 114.1915765 0),22.278817899999996,114.1915765
128,2 CANNON ST|2 景隆街,HCB,,,616.0,,,616.0,,,616.0,2.0,3.0,4.0,['whole floor'],,,616.0,3,3,1955/07,66,blank,,False,,,POINT Z (22.2813001 114.1836755 0),22.281300100000003,114.18367549999999
129,"JONES HIVE,JONES ST|雋琚,重士街",HCB,8937054.0,26439.0,333.0,11657997.0,33244.0,333.0,71569232.57592183,60350.0,1112.0,18.0,38.0,65.0,"['A', 'AB', 'B', 'C', 'D']",28601327.723033458,39420.76666666667,620.7333333333332,54,270,2016/11,5,blank,,False,,,POINT Z (22.2781929 114.1912159 0),22.278192899999997,114.1912159
130,"VERDE GREEN,WANG FUNG TERR|怡翠軒,宏豐臺",HCB,16838671.040745884,25049.0,526.0,17041684.280967258,25351.0,526.0,72166814.53070682,30843.0,2604.0,1.0,2.0,2.0,"['A', 'B', 'C', 'D', 'E', 'F']",31337793.28365426,26991.75,1469.8333333333333,4,24,2012/09,9,blank,,False,,,POINT Z (22.2750527 114.1926794 0),22.2750527,114.1926794
131,56 TUNG LO WAN RD|56 銅鑼灣道,HCB,,,399.0,,,399.0,,,399.0,2.0,2.0,3.0,['whole floor'],,,399.0,4,4,1965/11,56,blank,,False,,,POINT Z (22.278872 114.1896294 0),22.278872,114.1896294
132,42 SUN CHUN ST|42 新村街,HCB,,,202.0,,,202.0,,,168.0,3.0,4.0,5.0,['whole floor'],,,190.66666666666666,2,2,1975/05,46,blank,,False,,,POINT Z (22.2781257 114.192159 0),22.278125699999997,114.192159
133,24 SUN CHUN ST|24 新村街,HCB,6458643.013339928,24719.0,245.0,6458643.013339928,24719.0,245.0,6506719.000008263,24903.0,245.0,2.0,2.0,3.0,['whole floor'],6474668.342229374,24780.333333333332,245.0,4,4,9999,-7978,blank,,False,,,POINT Z (22.2781257 114.192159 0),22.278125699999997,114.192159
134,533 LOCKHART RD|533 駱克道,HCB,,,543.0,,,543.0,,,543.0,4.0,4.0,5.0,['whole floor'],,,543.0,2,2,1955/07,66,blank,,False,,,POINT Z (22.2785972 114.1766163 0),22.278597199999997,114.17661629999999
135,23 SUN CHUN ST|23 新村街,HCB,,,254.0,,,254.0,,,254.0,5.0,5.0,5.0,['whole floor'],,,254.0,1,1,1965/11,56,blank,,False,,,POINT Z (22.2781257 114.192159 0),22.278125699999997,114.192159
136,55 JARDINE'S BAZAAR|55 渣甸街,HCB,9942940.0,17980.0,553.0,9888746.0,17882.0,553.0,9950129.0,17993.0,553.0,2.0,3.0,4.0,['whole floor'],9927271.666666666,17951.666666666668,553.0,3,3,1961/02,60,blank,,False,,,POINT Z (22.2795527 114.1852116 0),22.2795527,114.18521159999999
137,22 SUN CHUN ST|22 新村街,HCB,,,314.0,,,314.0,,,314.0,2.0,2.0,2.0,['whole floor'],,,314.0,1,1,1968/06,53,blank,,False,,,POINT Z (22.2781257 114.192159 0),22.278125699999997,114.192159
