,final_address,district,lowZone_value,lowZone_npsf_min,lowZone_nfa_min,midZone_value,midZone_npsf_min,midZone_nfa_min,highZone_value,highZone_npsf_max,highZone_nfa_max,oneSixth_floor,middle_floor,fifthSixth_floor,unit_list,value_avg,npsf_avg,unitSize_avg,noStorey,noFlat,op_date,bldgAge,est_name_en,est_name_ch,est_orNot,est_bldgNo,est_flatNo,final_coords,lat,long
0,"WINWAY COURT,TAI HANG RD|永威閣,大坑道",HCB,9065715.0,14696.0,615.0,9559560.0,15544.0,615.0,17325550.0,18530.0,935.0,6.0,14.0,21.0,"['A', 'B', 'C', 'D', 'E', 'F']",10838561.166666666,15756.21111111111,723.0555555555555,23,138,1982/06,39,blank,,False,,,POINT Z (22.2777694 114.192006 0),22.2777694,114.192006
1,"ILLUMINATION TERR(Block 1),TAI HANG RD|光明臺1座,大坑道",HCB,9432000.0,16375.0,576.0,10422144.0,18094.0,576.0,18067880.0,22034.0,820.0,8.0,22.0,37.0,"['A', 'B', 'C', 'D', 'E', 'F', 'G', 'H']",13752602.458333334,19575.625,698.25,44,352,1993/05,28,ILLUMINATION TERR,光明臺,True,2.0,704.0,POINT Z (22.2775651 114.1927491 0),22.2775651,114.19274909999999
2,"HONG KONG MANSION,YEE WO ST|香港大廈,怡和街",HCB,5938152.0,10947.0,478.0,6381180.0,11490.0,478.0,9325284.0,14119.0,766.0,6.0,13.0,20.0,"['A', 'B', 'C', 'D', 'E', 'F', 'G', 'H', 'I', 'J', 'K', 'L', 'M', 'N', 'O', 'P', 'Q']",7178032.960784313,12262.78431372549,589.6470588235294,21,357,1966/03,55,HONG KONG MANSION,香港大廈,True,1.0,357.0,POINT Z (22.2799698 114.1855626 0),22.2799698,114.1855626
3,"CHEE ON BLDG,EAST POINT RD|置安大廈,東角道",HCB,7363680.0,14980.0,480.0,7667040.0,15612.0,480.0,9615930.0,17414.0,555.0,7.0,16.0,24.0,"['5', 'I', 'J', 'K', 'L', 'M', 'M17', 'N', 'O', 'P']",8351298.666666667,16205.566666666666,515.5,26,260,1972/09,49,blank,,False,,,POINT Z (22.2803599 114.1849412 0),22.280359899999997,114.1849412
4,"BAY VIEW MANSION,MORETON TERR|灣景樓,摩頓臺",HCB,6823127.597446048,12624.0,340.0,5542394.777424098,13304.0,320.0,18822760.0,15556.0,1210.0,5.0,12.0,19.0,"['A1', 'A2', 'A3', 'A4', 'A5', 'A6', 'A7', 'A8', 'B1', 'B2', 'B3', 'B4', 'B5', 'C1', 'C2', 'C4', 'C5']",10554743.85403473,13852.064950980392,741.3333333333334,21,357,1966/12,55,BAY VIEW MANSION,灣景樓,True,1.0,357.0,POINT Z (22.2795895 114.188755 0),22.2795895,114.188755
5,"RONSDALE GARDEN(Block 2),TAI HANG DR|龍華花園2座,大坑徑",HCB,14423184.0,20088.0,718.0,15582036.0,21702.0,718.0,24174150.0,24794.0,988.0,6.0,17.0,28.0,"['A', 'B', 'C', 'D', 'E', 'F']",20043972.388888888,22395.61111111111,892.8333333333334,33,198,1986/07,35,RONSDALE GARDEN,龍華花園,True,2.0,396.0,POINT Z (22.2747388 114.195884 0),22.2747388,114.195884
6,"ILLUMINATION TERR(Block 2),TAI HANG RD|光明臺2座,大坑道",HCB,9505728.0,16503.0,576.0,9884160.0,17160.0,576.0,17944880.0,21884.0,820.0,8.0,22.0,37.0,"['A', 'B', 'C', 'D', 'E', 'F', 'G', 'H']",13441826.416666666,19127.25,698.25,44,352,1993/05,28,ILLUMINATION TERR,光明臺,True,2.0,704.0,POINT Z (22.2774193 114.1931206 0),22.2774193,114.1931206
7,"CATHAY MANSION,TUNG LO WAN RD|國泰大廈,銅鑼灣道",HCB,6712780.352262774,12305.0,520.0,6998925.293171181,12570.0,520.0,11599794.109793752,14585.0,765.0,4.0,8.0,11.0,"['A', 'B', 'C', 'D', 'E', 'F', 'G', 'H']",8910562.656072473,13547.791666666666,631.25,12,96,1966/12,55,blank,,False,,,POINT Z (22.2791945 114.1881013 0),22.2791945,114.1881013
8,"HOI TO COURT,GLOUCESTER RD|海都大廈,告士打道",HCB,11769865.475893209,12749.0,405.0,12096677.961458052,13103.0,420.0,14126838.552329632,16571.0,946.0,4.0,8.0,13.0,"['A', 'B', 'C', 'D', 'E', 'F', 'G', 'H', 'I', 'J1J2']",12898073.322125554,14574.383333333333,735.6666666666666,16,160,1964/10,57,blank,,False,,,POINT Z (22.281659 114.1833676 0),22.281659,114.1833676
9,"YEE ON BLDG,EAST POINT RD|怡安大廈,東角道",HCB,6734880.0,13853.0,480.0,7788480.0,14740.0,480.0,8908350.0,17770.0,1100.0,7.0,16.0,24.0,"['A', 'B', 'BC', 'C', 'D', 'E', 'F', 'F19', 'G', 'H']",,,577.0,26,260,1972/09,49,blank,,False,,,POINT Z (22.2810475 114.1844823 0),22.2810475,114.18448229999998
10,"JOLLY VILLA,TAI HANG RD|竹麗苑,大坑道",HCB,25519572.0,20930.0,1187.0,26834440.40708232,21745.0,1187.0,28346214.0,23446.0,1209.0,10.0,17.0,25.0,"['A', 'B']",26937442.862467747,22054.333333333332,1198.0,23,46,1992/09,29,blank,,False,,,POINT Z (22.2773513 114.1923079 0),22.2773513,114.19230790000002
11,"HIGHLAND MANSION,CLEVELAND ST|海倫大廈,加寧街",HCB,14405664.591778494,9564.0,860.0,14940385.01187783,6020.0,860.0,27140262.703191936,11966.0,1355.0,5.0,8.0,10.0,"['A', 'B', 'C', 'D']",18801178.303833876,9169.833333333334,1110.5,10,40,1964/08,57,blank,,False,,,POINT Z (22.2826589 114.1858756 0),22.282658899999998,114.1858756
12,"CLEVELAND MANSION,CLEVELAND ST|加寧大廈,加寧街",HCB,13601997.0,10821.0,1257.0,13914990.0,11070.0,1257.0,14209128.0,11304.0,1257.0,3.0,6.0,9.0,"['A', 'B', 'C', 'D']",13908705.0,11065.0,1257.0,11,44,1962/11,59,blank,,False,,,POINT Z (22.2820115 114.185519 0),22.2820115,114.185519
13,"KANFIELD MANSION,SUN CHUN ST|勤輝大廈,新村街",HCB,6143849.999999999,14985.0,410.0,6469800.0,15780.0,410.0,7028630.0,17143.0,410.0,5.0,12.0,19.0,"['A', 'B', 'C']",6532621.111111112,15933.222222222224,410.0,21,63,1977/07,44,blank,,False,,,POINT Z (22.2777834 114.1924704 0),22.277783399999997,114.19247040000002
14,"CARNATION COURT,TAI HANG RD|康馨園,大坑道",HCB,37746530.19114766,21767.0,1668.0,37503753.776080795,21627.0,1668.0,41968931.03676941,24144.0,1672.0,12.0,18.0,25.0,"['A', 'B']",39388535.45817671,22686.166666666668,1670.0,22,44,1996/05,25,blank,,False,,,POINT Z (22.2758114 114.1928148 0),22.2758114,114.19281480000001
15,"LEI SHUN COURT,LEIGHTON RD|禮信大廈,禮頓道",HCB,8912252.333388424,14579.0,588.0,9109704.662333103,14902.0,588.0,12974127.774897447,16964.0,839.0,3.0,6.0,10.0,"['A', 'B', 'C', 'D', 'E', 'F', 'G', 'H', 'I', 'J']",11059441.103931284,15290.962962962964,712.8333333333334,12,120,1958/12,63,blank,,False,,,POINT Z (22.2778509 114.1862703 0),22.2778509,114.1862703
16,"HARVEST MOON VILLA,FUK KWAN AVE|頌月花園,福群道",HCB,16838436.08775133,6412.0,910.0,16838436.08775133,6412.0,910.0,17716597.820088204,6559.0,936.0,2.0,2.0,3.0,"['A', 'B']",17267912.997858662,6482.166666666667,923.0,4,8,1991/08,30,blank,,False,,,POINT Z (22.2760998 114.1938869 0),22.2760998,114.1938869
17,1 TAI HANG RD|1 大坑道,HCB,10517850.0,18550.0,567.0,11312790.0,19847.0,567.0,18843123.0,22336.0,879.0,5.0,14.0,22.0,"['A', 'B', 'C', 'D']",13124896.0,20119.25,651.75,26,104,1990/10,31,blank,,False,,,POINT Z (22.2703638 114.1910735 0),22.270363800000002,114.19107350000002
18,"LOK SING CTR(Block B),YEE WO ST|樂聲大廈B座,怡和街",HCB,6097350.0,16340.0,350.0,6422150.0,17193.0,350.0,8215200.0,20538.0,400.0,9.0,16.0,24.0,"['1', '2', '3', '4', '5', '6', '7', '8']",7017610.416666667,18706.5,375.0,24,192,1977/12,44,LOK SING CTR,樂聲大廈,True,2.0,408.0,POINT Z (22.2797597 114.1868144 0),22.2797597,114.1868144
19,"LEE FAT BLDG,JARDINE'S CRES|利發大廈,渣甸坊",HCB,3984188.0,16375.0,218.0,4101097.0,16875.0,218.0,4898600.0,20539.0,280.0,8.0,12.0,17.0,"['A', 'B', 'C']",4394994.666666667,18471.666666666668,239.66666666666666,16,48,1983/03,38,blank,,False,,,POINT Z (22.2794014 114.1848306 0),22.2794014,114.18483059999998
20,"VIENNA MANSION,PATERSON ST|華納大廈,百德新街",HCB,7998000.0,12492.0,600.0,8175000.0,12697.0,600.0,16687735.0,14007.0,1255.0,3.0,6.0,9.0,"['A', 'B', 'C', 'D', 'E', 'F']",11220179.765189834,13206.166666666666,848.6666666666666,11,66,1958/11,63,blank,,False,,,POINT Z (22.2818462 114.1849467 0),22.2818462,114.1849467
21,"VANCOUVER MANSION,KINGSTON ST|漢寧大廈,京士頓街",HCB,15357425.541321486,13373.0,1096.0,15678748.73487043,13668.0,1096.0,41015262.1957615,18097.0,2180.0,4.0,7.0,10.0,"['A', 'AB', 'B', 'C']",22402129.81320615,14858.916666666666,1403.5,11,44,1964/11,57,blank,,False,,,POINT Z (22.2816106 114.1860168 0),22.281610600000004,114.1860168
22,"INTELLIGENT COURT,TUNG LO WAN RD|海麗軒,銅鑼灣道",HCB,9236052.045136515,16863.0,433.0,10280876.37043961,18769.0,433.0,,,3051.0,11.0,28.0,57.0,"['A', 'AB', 'B']",,,1307.3333333333333,53,159,1988/06,33,blank,,False,,,POINT Z (22.2784284 114.1907288 0),22.2784284,114.19072879999999
23,"GOLD KING MANSION,TAI HANG DR|高景大廈,大坑徑",HCB,9015520.0,15544.0,567.0,9302040.0,16038.0,570.0,11023200.0,18372.0,600.0,4.0,10.0,17.0,"['A', 'B', 'C', 'D']",9886146.083333334,16904.0,584.75,20,80,1967/03,54,blank,,False,,,POINT Z (22.2740735 114.1931903 0),22.2740735,114.1931903
24,"KINGSTON BLDG(Block A),KINGSTON ST|京士頓大廈A座,京士頓街",HCB,8214908.0,12428.0,661.0,7211736.0,12564.0,574.0,27170928.80946383,16689.0,1566.0,5.0,10.0,15.0,"['1', '2', '3', '4', '45', '5']",12439385.483525254,13580.77777777778,876.8333333333334,14,84,1965/12,56,KINGSTON BLDG,京士頓大廈,True,2.0,174.0,POINT Z (22.2815401 114.1857827 0),22.2815401,114.1857827
25,"PATERSON BLDG(Block C),PATERSON ST|百德大廈C座,百德新街",HCB,5759754.0,13883.0,253.0,6257258.0,14359.0,253.0,19726812.0,17724.0,1113.0,4.0,9.0,14.0,"['2', '3', '5', 'C1', 'C2', 'C3', 'C3A', 'C3B', 'C4', 'C5']",,,689.9,15,150,1959/12,62,PATERSON BLDG,百德大廈,True,4.0,450.0,POINT Z (22.2809264 114.1852737 0),22.2809264,114.1852737
26,"GOLD NING MANSION,TAI HANG DR|高寧大廈,大坑徑",HCB,9355500.0,16500.0,565.0,9750770.0,17258.0,565.0,11162400.0,18604.0,600.0,4.0,10.0,17.0,"['C', 'E', 'F', 'G', 'H']",10045365.533333333,17486.2,574.1999999999999,20,100,1967/03,54,blank,,False,,,POINT Z (22.2738628 114.1931439 0),22.2738628,114.1931439
27,"PO WING BLDG,LEE GARDEN RD|寶榮大樓,利園山道",HCB,4646675.0,13194.0,305.0,4741225.0,13065.0,305.0,7210764.0,15906.0,524.0,5.0,8.0,11.0,"['A', 'B', 'C', 'D', 'E', 'F', 'G', 'H', 'I', 'J', 'K', 'L', 'M', 'N', 'O', 'T']",6011168.229166667,14487.4375,420.4166666666667,11,176,1967/03,54,blank,,False,,,POINT Z (22.2782772 114.1837907 0),22.278277199999998,114.18379070000002
28,"YUKON HEIGHTS,TAI HANG RD|煜康臺,大坑道",HCB,19599361.196977083,18303.0,1030.0,20530981.38172112,19173.0,1030.0,23635410.0,22947.0,1030.0,9.0,15.0,21.0,"['A', 'B']",21665405.358773943,20652.0,1030.0,19,38,1982/09,39,blank,,False,,,POINT Z (22.2752066 114.193469 0),22.2752066,114.193469
29,"CHESTERFIELD MANSION,KINGSTON ST|東寧大廈,京士頓街",HCB,12245043.977903115,5200.0,816.0,12598266.400342628,5350.0,816.0,24867054.23689485,19212.0,1330.0,5.0,9.0,13.0,"['A', 'B', 'C', 'D']",19315945.83983642,13081.555555555555,1057.75,13,52,1994/08,27,blank,,False,,,POINT Z (22.28191 114.186138 0),22.28191,114.18613799999999
30,"ROSEDALE,FUK KWAN AVE|玫瑰花園,福群道",HCB,30806062.73902991,16371.0,1810.0,31709300.788919,16851.0,1810.0,32213608.700107083,17119.0,1810.0,3.0,7.0,10.0,['whole floor'],31576324.076018665,16780.333333333332,1810.0,11,11,1988/12,33,blank,,False,,,POINT Z (22.2760872 114.1937263 0),22.2760872,114.19372630000001
31,"HOI DEEN COURT,GLOUCESTER RD|海殿大廈,告士打道",HCB,8361922.738551129,8888.0,465.0,5667154.700308228,9223.0,404.0,40128361.40339206,20601.0,1455.0,4.0,9.0,14.0,"['A', 'B', 'C', 'C & D', 'D', 'E', 'F', 'G', 'H']",15069246.417188162,16243.817460317458,689.5185185185186,17,153,1963/08,58,blank,,False,,,POINT Z (22.2818513 114.1836695 0),22.2818513,114.18366950000001
32,"PATERSON BLDG(Block B),PATERSON ST|百德大廈B座,百德新街",HCB,6716760.0,13047.0,502.0,7005410.0,13378.0,502.0,10970730.0,14779.0,790.0,4.0,9.0,14.0,"['1', '2', '3', '4', '5']",9312830.000000002,13903.333333333334,670.2,15,75,1959/12,62,PATERSON BLDG,百德大廈,True,4.0,450.0,POINT Z (22.2805976 114.1852341 0),22.280597600000004,114.1852341
33,"NEWTOWN MANSION,CLEVELAND ST|新唐大廈,加寧街",HCB,12809160.0,15249.0,840.0,13212360.0,15729.0,840.0,24495900.0,18843.0,1300.0,4.0,8.0,11.0,"['A', 'B', 'C', 'D']",15618442.222222224,16325.38888888889,1070.0,12,48,1963/12,58,blank,,False,,,POINT Z (22.2822647 114.18584 0),22.2822647,114.18583999999998
34,"H & S BLDG,LEIGHTON RD|嘉柏大廈,禮頓道",HCB,10253654.404951273,17303.0,530.0,10648789.86261857,18062.0,530.0,11071434.158683732,19979.0,585.0,11.0,16.0,21.0,"['A', 'B', 'C', 'D']",10705294.222668607,18663.5,559.5833333333334,17,68,1968/05,53,blank,,False,,,POINT Z (22.2774446 114.1835534 0),22.277444600000003,114.1835534
35,"LOK SING CTR(Block A),YEE WO ST|樂聲大廈A座,怡和街",HCB,5258050.0,15023.0,350.0,5849200.0,16224.0,350.0,15679500.0,20906.0,750.0,9.0,16.0,24.0,"['1', '2', '3', '4', '5', '5 & 6', '6', '7', '8']",7470533.333333333,17681.74074074074,416.6666666666667,24,216,1977/12,44,LOK SING CTR,樂聲大廈,True,2.0,408.0,POINT Z (22.2797597 114.1868144 0),22.2797597,114.1868144
36,"DRAGON GARDEN,CHUN FAI TERR|龍園,春暉台",HCB,29429154.928655125,18030.0,1570.0,30635374.867217306,18769.0,1570.0,32153351.244568903,19699.0,1570.0,4.0,10.0,17.0,"['A', 'B', 'C', 'D']",30721883.19839971,18822.0,1570.0,20,80,1976/10,45,blank,,False,,,POINT Z (22.2750494 114.1943281 0),22.275049399999997,114.19432809999999
37,"MORENGO COURT,TAI HANG RD|昍逵閣,大坑道",HCB,17012813.03691657,17046.0,960.0,17445968.079625815,17480.0,960.0,19041181.29077387,18613.0,984.0,3.0,6.0,10.0,"['A', 'B', 'C', 'D']",17857145.16149867,17669.333333333332,972.0,12,48,1976/05,45,blank,,False,,,POINT Z (22.275472 114.1933064 0),22.275472,114.1933064
38,"CLARKE MANSION,KINGSTON ST|嘉賓大廈,京士頓街",HCB,11392030.644823752,14112.0,759.0,11734493.85046575,14710.0,759.0,28732844.69751113,15907.0,1444.0,4.0,8.0,11.0,"['A', 'B', 'C', 'D']",19205395.127837762,14907.083333333334,1090.6666666666667,12,48,1963/11,58,blank,,False,,,POINT Z (22.2820226 114.1860207 0),22.2820226,114.1860207
39,"DRAGON RISE,PENNINGTON ST|登龍閣,邊寧頓街",HCB,5243960.0,16584.0,310.0,5534430.0,17312.0,310.0,5938880.0,18862.0,320.0,7.0,14.0,20.0,"['A', 'B', 'C', 'D']",5609745.0,17810.25,315.0,22,88,1986/08,35,blank,,False,,,POINT Z (22.2788334 114.1859452 0),22.278833399999996,114.1859452
40,"TOWNING MANSION,PATERSON ST|唐寧大廈,百德新街",HCB,12596160.785800025,8481.0,848.0,15009645.195294784,10106.0,848.0,21404138.86088991,10990.0,1112.0,3.0,6.0,8.0,"['A', 'B', 'C', 'D']",17479689.696667742,10423.666666666666,980.0,10,40,1958/05,63,blank,,False,,,POINT Z (22.2819054 114.1852895 0),22.281905399999996,114.1852895
41,"SUN HO COURT,TUNG LO WAN RD|新豪閣,銅鑼灣道",HCB,5268760.0,18817.0,280.0,5378240.0,19208.0,280.0,5968760.0,21317.0,280.0,5.0,12.0,19.0,"['A', 'B']",5548946.666666667,19817.666666666668,280.0,23,46,1988/01,33,blank,,False,,,POINT Z (22.2787921 114.1887666 0),22.2787921,114.1887666
42,"PATERSON BLDG(Block D),PATERSON ST|百德大廈D座,百德新街",HCB,6173507.314355233,14024.0,411.0,7313638.0,14569.0,502.0,12653430.0,16017.0,790.0,4.0,9.0,14.0,"['1', '2', '3', '4', '5', 'D1', 'D2', 'D3', 'D4', 'D5']",10111835.643811842,15027.066666666666,670.4666666666667,15,150,1960/08,61,PATERSON BLDG,百德大廈,True,4.0,450.0,POINT Z (22.2805976 114.1852341 0),22.280597600000004,114.1852341
43,"WALDORF MANSION,CAUSEWAY RD|華都大廈,高士威道",HCB,,,704.0,,,704.0,,,1199.0,5.0,9.0,13.0,"['A', 'B', 'C', 'D']",,,924.0,13,52,1964/07,57,blank,,False,,,POINT Z (22.2792598 114.1879423 0),22.2792598,114.18794229999999
44,"MALAHON APTS,JAFFE RD|美漢大廈,謝斐道",HCB,4323520.0,12509.0,320.0,4557440.0,12689.0,320.0,10203700.0,16004.0,650.0,6.0,10.0,15.0,"['A', 'B', 'C', 'D', 'E', 'F', 'G', 'H', 'I', 'IJ', 'J', 'K', 'L', 'M', 'N', 'O', 'P']",5225831.901960785,13819.568627450979,377.29411764705884,16,272,1966/10,55,MALAHON APTS,美漢大廈,True,1.0,272.0,POINT Z (22.2812524 114.1831818 0),22.281252399999996,114.1831818
45,"MARCO POLO MANSION,CLEVELAND ST|海威大廈,加寧街",HCB,19919670.805044144,12779.0,890.0,20550977.37645371,13184.0,890.0,32699683.757341612,15179.0,1277.0,4.0,8.0,13.0,"['A', 'B', 'C', 'D']",24444562.91789897,13814.555555555555,1071.75,14,56,1964/08,57,blank,,False,,,POINT Z (22.282715 114.185889 0),22.282715,114.18588899999999
46,"SUNRISE COURT,TUNG LO WAN RD|金暉閣,銅鑼灣道",HCB,3575325.0,18335.0,195.0,3651180.0,18724.0,195.0,3745560.0,19208.0,195.0,3.0,6.0,8.0,"['A', 'B']",3683062.5,18887.5,195.0,10,20,1983/08,38,blank,,False,,,POINT Z (22.2785681 114.1908798 0),22.2785681,114.19087979999999
47,"HOI KUNG COURT,GLOUCESTER RD|海宮大廈,告士打道",HCB,7179923.459839761,8816.0,465.0,7471485.687451221,9174.0,465.0,15768116.072311115,19805.0,776.0,4.0,10.0,16.0,"['A', 'B', 'C', 'D', 'E', 'F', 'G', 'H', 'I']",12296985.151591085,17234.925925925923,666.8888888888889,19,171,1966/01,55,blank,,False,,,POINT Z (22.2816344 114.1831357 0),22.281634399999998,114.18313570000001
48,"SUN ON MANSION,CANNON ST|新安大廈,景隆街",HCB,10082009.025951803,27947.0,294.0,10364479.88390866,27971.0,347.0,15605822.242872823,34196.0,469.0,3.0,6.0,8.0,"['A', 'B', 'C', 'D', 'E', 'F', 'G', 'H']",12232624.744552432,29721.63095238095,386.5416666666667,10,80,1964/11,57,blank,,False,,,POINT Z (22.2816186 114.1837624 0),22.2816186,114.1837624
49,"TRAFALGAR COURT,TAI HANG RD|大寶閣,大坑道",HCB,81198868.0,31376.0,2516.0,86879996.0,33555.0,2516.0,93405131.73238948,36605.0,2516.0,6.0,15.0,24.0,"['A', 'B']",87237365.56490743,34008.166666666664,2516.0,27,54,1984/06,37,blank,,False,,,POINT Z (22.2771178 114.1913567 0),22.277117800000003,114.1913567
50,"GARDENVIEW HEIGHTS,TAI HANG DR|嘉景臺,大坑徑",HCB,20838001.22686954,19422.0,1032.0,23937072.52264647,21478.0,1072.0,26315399.77673566,23612.0,1072.0,7.0,18.0,29.0,"['A', 'B']",23542643.326161522,21511.833333333332,1052.0,33,66,1991/10,30,blank,,False,,,POINT Z (22.2747331 114.1945371 0),22.2747331,114.1945371
51,"FONTANA GARDEN(Block C),KA NING PATH|豪園C座,嘉寧徑",HCB,53649176.089009,7262.0,2560.0,55592130.276754715,7525.0,2560.0,67009388.68160291,23438.0,2750.0,3.0,8.0,14.0,"['14', '15', '16', '17', 'whole floor']",59414014.82991337,13464.666666666666,2636.0,18,90,1966/06,55,FONTANA GARDEN,豪園,True,3.0,295.0,POINT Z (22.277906 114.190356 0),22.277906,114.19035600000001
52,"HIN WAH BLDG,HENNESSY RD|軒華大廈,軒尼詩道",HCB,5257334.080515033,10657.0,463.0,5375746.842262579,10976.0,463.0,6727875.905306499,11428.0,576.0,5.0,8.0,11.0,"['A', 'B', 'C']",5846472.810915011,10228.888888888889,504.8888888888889,9,27,1965/08,56,blank,,False,,,POINT Z (22.2793901 114.1818582 0),22.2793901,114.1818582
53,"FONTANA GARDEN(Block B),KA NING PATH|豪園B座,嘉寧徑",HCB,57413336.90521558,21572.0,2560.0,61408210.75533279,23073.0,2560.0,70251501.77849418,25040.0,2750.0,3.0,10.0,16.0,"['3', '4', '5', '6', 'whole floor']",63998674.705393136,23425.266666666663,2648.6666666666665,19,95,1965/12,56,FONTANA GARDEN,豪園,True,3.0,295.0,POINT Z (22.277906 114.190356 0),22.277906,114.19035600000001
54,"SUNRISE COURT,TAI HANG RD|兆暉閣,大坑道",HCB,20980775.0,19517.0,1075.0,21511824.999999996,20011.0,1075.0,22569625.0,20995.0,1075.0,8.0,14.0,21.0,['whole floor'],21687408.333333332,20174.333333333332,1075.0,22,22,1983/04,38,blank,,False,,,POINT Z (22.2757587 114.1935618 0),22.2757587,114.1935618
55,"KESWICK COURT,KESWICK ST|敬誠閣,敬誠街",HCB,8403831.611742979,15081.0,536.0,8877490.975842278,15931.0,536.0,9285395.27527838,16663.0,536.0,7.0,14.0,20.0,"['A', 'B']",8857337.234271778,15894.833333333334,536.0,20,40,1988/05,33,blank,,False,,,POINT Z (22.278673 114.1864097 0),22.278673,114.18640970000001
56,"HENNESSY APTS,PERCIVAL ST|軒尼詩大廈,波斯富街",HCB,5613864.636586415,12587.0,429.0,6152467.107571559,11763.0,454.0,9163972.759669844,13702.0,665.0,7.0,12.0,16.0,"['A', 'B', 'C', 'D', 'E', 'F', 'G', 'H', 'J', 'K', 'L', 'M']",7501967.328800415,13011.681818181818,559.2777777777777,16,192,1960/07,61,blank,,False,,,POINT Z (22.2797994 114.1829961 0),22.279799399999998,114.18299609999998
57,"AVALON,TAI HANG RD|雅景軒,大坑道",HCB,12506333.012362864,17185.0,700.0,13632885.44198973,18733.0,700.0,14469066.79963913,19882.0,700.0,9.0,17.0,24.0,"['A', 'B']",13560717.19310644,18633.833333333332,700.0,23,46,1994/12,27,blank,,False,,,POINT Z (22.2751627 114.1937476 0),22.2751627,114.19374760000001
58,"PAK TAK BLDG,JARDINE'S BAZAAR|八達大廈,渣甸街",HCB,7205610.652872149,15752.0,440.0,7534053.291823533,16470.0,440.0,7860208.725768292,17183.0,440.0,6.0,12.0,19.0,['whole floor'],7533290.890154657,16468.333333333332,440.0,20,20,1988/11,33,blank,,False,,,POINT Z (22.2792773 114.1853415 0),22.2792773,114.1853415
59,"LEI WEN COURT,HAVEN ST|禮雲大樓,希雲街",HCB,8534862.0,18198.0,469.0,8717275.999999998,19948.0,437.0,8355725.0,17591.0,475.0,3.0,6.0,10.0,['whole floor'],8535954.333333334,18579.0,460.3333333333333,12,12,1959/10,62,blank,,False,,,POINT Z (22.277545 114.186921 0),22.277545,114.186921
60,"CAUSEWAY BAY MANSION,PATERSON ST|銅鑼灣大廈,百德新街",HCB,14495213.711419413,16403.0,850.0,14811575.74938126,16761.0,850.0,17473350.0,18393.0,950.0,3.0,6.0,9.0,"['A', 'B', 'C', 'D']",15954872.991184523,17208.083333333332,900.0,11,44,1958/05,63,blank,,False,,,POINT Z (22.2817363 114.1852929 0),22.281736300000002,114.18529290000001
61,"KWONG ON BLDG,YEE WO ST|廣安大廈,怡和街",HCB,5583786.0,11770.0,442.0,5758306.0,12198.0,446.0,9981504.0,13882.0,774.0,5.0,8.0,12.0,"['A', 'B', 'C', 'D']",7476829.096745436,12666.25,584.6666666666666,12,48,1966/01,55,blank,,False,,,POINT Z (22.279808 114.1850164 0),22.279808,114.18501640000001
62,"HARMONY COURT,TAI HANG RD|融園,大坑道",HCB,23975641.695924174,11239.0,1218.0,24511088.449699152,11490.0,1218.0,23388996.846170712,10964.0,1218.0,2.0,5.0,7.0,"['22', 'whole floor']",23958575.663931344,11231.0,1218.0,7,14,1966/00,55,blank,,False,,,POINT Z (22.2768198 114.1931903 0),22.276819800000002,114.1931903
63,"PO HON BLDG,PERCIVAL ST|寶漢大廈,波斯富街",HCB,5853900.0,13260.0,395.0,5984250.0,14329.0,395.0,6736840.0,15479.0,523.0,6.0,9.0,12.0,"['A', 'B', 'C', 'D', 'E', 'F']",6358771.166666667,14473.833333333334,481.6666666666667,9,54,1967/11,54,blank,,False,,,POINT Z (22.2806573 114.1825316 0),22.2806573,114.18253159999999
64,"HAYWOOD MANSION,PATERSON ST|海華大廈,百德新街",HCB,19727568.98843228,14878.0,1060.0,20379939.195604526,15370.0,1060.0,23486403.233584687,16270.0,2410.0,3.0,8.0,12.0,"['A', 'A & B', 'B', 'C', 'D']",21950211.726006225,15599.75,1381.2,14,70,1961/09,60,blank,,False,,,POINT Z (22.2820244 114.1847841 0),22.282024399999997,114.1847841
65,"WAH YING BLDG,SHELTER ST|華英大廈,信德街",HCB,8070300.0,14810.0,410.0,8450460.0,15436.0,410.0,12918641.22107536,16363.0,776.0,5.0,11.0,17.0,"['A', 'AB', 'B', 'C']",10446111.933905004,15536.0,547.75,19,76,1980/01,41,blank,,False,,,POINT Z (22.2790231 114.1884764 0),22.279023100000003,114.1884764
66,"FAIRVIEW MANSION,PATERSON ST|華爾大廈,百德新街",HCB,7054987.8067994835,11310.0,600.0,7471250.800896162,11710.0,604.0,19203258.875375163,14718.0,1255.0,3.0,6.0,9.0,"['A', 'B', 'C', 'D', 'E', 'F']",11626915.856071556,12736.666666666666,854.0,11,66,1958/10,63,blank,,False,,,POINT Z (22.2814102 114.1849467 0),22.2814102,114.1849467
67,"VICTORIA PARK MANSION,KINGSTON ST|維德大廈,京士頓街",HCB,12078932.369522559,12895.0,901.0,12493896.854958659,13338.0,901.0,19246081.590931028,15174.0,1220.0,4.0,8.0,11.0,"['A', 'B', 'C', 'D']",15676238.354102554,14111.0,1060.5,12,48,1964/08,57,blank,,False,,,POINT Z (22.2822672 114.1861726 0),22.2822672,114.1861726
68,"CAUSEWAY TOWER,CAUSEWAY RD|高威樓,高士威道",HCB,7247923.945494717,16599.0,410.0,7420399.995767047,16994.0,410.0,7766662.040997321,17996.0,420.0,15.0,18.0,20.0,"['A', 'B', 'C', 'D']",7448137.893953499,17377.666666666668,415.0,10,40,1978/07,43,blank,,False,,,POINT Z (22.2795462 114.1884764 0),22.2795462,114.1884764
69,"HAVEN COURT,LEIGHTON RD|希雲大廈,禮頓道",HCB,4964202.0,10473.0,474.0,5466348.0,11059.0,474.0,14034141.0,15751.0,940.0,3.0,6.0,8.0,"['A', 'B', 'C', 'D', 'E', 'F', 'G', 'H', 'I', 'J', 'K', 'L', 'M']",8127994.794871795,11939.923076923076,671.7435897435898,10,130,1959/01,62,blank,,False,,,POINT Z (22.2781849 114.186676 0),22.2781849,114.186676
70,"MAYLAND COURT,SHELTER ST|美蘭閣,信德街",HCB,5255625.0,13507.0,375.0,5520000.0,13990.0,375.0,5818745.0,15308.0,395.0,5.0,12.0,18.0,"['A', 'B', 'C']",5510798.333333333,14445.22222222222,381.6666666666667,22,66,1976/09,45,blank,,False,,,POINT Z (22.2793827 114.188546 0),22.2793827,114.188546
71,"HYDE PARK MANSION,PATERSON ST|海德大廈,百德新街",HCB,7672533.158588299,12280.0,600.0,7840954.618167065,12563.0,600.0,21035865.252715405,16213.0,1248.0,3.0,6.0,9.0,"['A', 'B', 'C', 'D', 'E', 'F']",12651152.826581346,13734.944444444445,853.5555555555557,11,66,1958/10,63,blank,,False,,,POINT Z (22.2815993 114.1848538 0),22.281599300000003,114.1848538
72,"RIVIERA MANSION,PATERSON ST|海濱大廈,百德新街",HCB,13821708.202524723,9019.0,875.0,14186445.596049605,9257.0,875.0,21255222.66936793,10599.0,1285.0,3.0,7.0,11.0,"['A', 'B', 'C', 'D']",17243906.786290422,9731.444444444445,1092.0833333333333,13,52,1961/11,60,blank,,False,,,POINT Z (22.2822117 114.1846332 0),22.2822117,114.1846332
73,"PEARL CITY MANSION,PATERSON ST|珠城大廈,百德新街",HCB,4579380.0,13016.0,246.0,4869387.0,13850.0,246.0,11963955.0,21685.0,3781.0,10.0,19.0,28.0,"['A1', 'A10', 'A1A', 'A1B', 'A2', 'A3', 'A3A', 'A4', 'A5', 'A5A', 'A6', 'A6A', 'A7', 'A7A', 'A7B', 'A8', 'A8A', 'A8B', 'A9', 'A9A', 'B1', 'B2', 'B3', 'B4', 'B5', 'B6', 'C1', 'C2', 'C2-C9', 'C3', 'C4', 'C5', 'C6', 'C7', 'C8', 'C9']",,,529.8055555555555,27,972,1970/08,51,PEARL CITY MANSION,珠城大廈,True,1.0,972.0,POINT Z (22.2810532 114.1858291 0),22.281053200000002,114.18582909999999
74,"LEI KWA COURT,CAROLINE HILL RD|禮加大樓,加路連山道",HCB,9276046.0,16594.0,559.0,9480081.0,16959.0,559.0,8924490.0,17499.0,510.0,3.0,6.0,10.0,['whole floor'],9226872.333333334,17017.333333333332,542.6666666666666,12,12,1959/07,62,blank,,False,,,POINT Z (22.2773865 114.1868276 0),22.2773865,114.18682759999999
75,"SHINING BLDG,JAFFE RD|肇明大廈,謝斐道",HCB,5727040.0,13016.0,440.0,5821640.0,13231.0,440.0,6154720.0,13988.0,440.0,7.0,12.0,18.0,"['A', 'B']",5901133.333333333,13411.666666666666,440.0,18,36,1978/04,43,blank,,False,,,POINT Z (22.2811986 114.1825549 0),22.2811986,114.18255490000001
76,58 TAI HANG RD|58 大坑道,HCB,29301156.0,20476.0,1431.0,32004315.0,22365.0,1431.0,,,2862.0,5.0,18.0,29.0,['whole floor'],,,1908.0,32,32,1957/07,64,blank,,False,,,POINT Z (22.2703638 114.1910735 0),22.270363800000002,114.19107350000002
77,"RONSDALE GARDEN(Block 1),TAI HANG DR|龍華花園1座,大坑徑",HCB,13820064.0,19248.0,718.0,14943016.0,20812.0,718.0,23487584.0,23677.0,992.0,6.0,17.0,28.0,"['A', 'B', 'C', 'D', 'E', 'F']",19209116.58888889,21547.94444444444,895.7222222222222,33,198,1986/05,35,RONSDALE GARDEN,龍華花園,True,2.0,396.0,POINT Z (22.2747538 114.1955124 0),22.2747538,114.19551240000001
78,"GREAT GEORGE BLDG,GREAT GEORGE ST|華登大廈,記利佐治街",HCB,7653855.0,12651.0,605.0,7850480.0,12976.0,605.0,18019405.0,15079.0,1195.0,4.0,8.0,13.0,"['A1', 'A2', 'A3', 'A4', 'A5', 'B1', 'B2', 'C1', 'C2', 'C3', 'C4', 'C5', 'D1', 'D2']",10979896.190476188,13660.071428571428,798.5714285714286,14,196,1959/12,62,GREAT GEORGE BLDG,華登大廈,True,1.0,196.0,POINT Z (22.280567 114.1853182 0),22.280567,114.1853182
79,"PATERSON BLDG(Block A),PATERSON ST|百德大廈A座,百德新街",HCB,6594710.671266221,12636.0,502.0,6835827.823064654,13098.0,502.0,18695552.385474972,16157.0,1113.0,4.0,9.0,14.0,"['1', '2', '3', '4', '5']",12122686.6012993,14629.133333333333,785.4666666666666,15,75,1959/12,62,PATERSON BLDG,百德大廈,True,4.0,450.0,POINT Z (22.2805976 114.1852341 0),22.280597600000004,114.1852341
80,"MIAMI MANSION,CLEVELAND ST|美亞美大廈,加寧街",HCB,16663591.140479995,14479.0,1025.0,18357280.0,15116.0,1025.0,21999330.60862214,16337.0,1297.0,4.0,7.0,10.0,"['A', 'B', 'C', 'D']",18945510.4550259,15550.444444444445,1145.25,9,36,1964/03,57,blank,,False,,,POINT Z (22.282486 114.185443 0),22.282486,114.18544299999999
81,"OI KWAN COURT,FUK KWAN AVE|愛群閣,福群道",HCB,10033989.156837707,15822.0,600.0,10033989.156837707,15822.0,600.0,10960057.671247479,16148.0,660.0,2.0,2.0,3.0,"['A', 'B', 'C', 'D']",10306533.02524649,15958.833333333334,621.25,4,16,1978/09,43,blank,,False,,,POINT Z (22.2760202 114.1935618 0),22.276020199999998,114.1935618
82,"PO FOO BLDG,FOO MING ST|寶富大廈,富明街",HCB,5270053.019629148,12347.0,365.0,5416215.815938895,12717.0,330.0,11977872.216304822,16506.0,698.0,3.0,7.0,11.0,"['A', 'B', 'C', 'D', 'E', 'F', 'G', 'H', 'I', 'J', 'K', 'L', 'M', 'N', 'O', 'R']",7168907.423620758,14398.3125,479.4166666666667,13,208,1964/04,57,blank,,False,,,POINT Z (22.2788362 114.1834373 0),22.2788362,114.1834373
83,"RICH BLDG,ORMSBY ST|勵志大廈,安庶庇街",HCB,5395911.6733118985,15044.0,345.0,5655951.287985598,15769.0,345.0,5960825.318982348,16619.0,345.0,5.0,12.0,20.0,['whole floor'],5670896.093426615,15810.666666666666,345.0,21,21,1993/04,28,blank,,False,,,POINT Z (22.2779103 114.192633 0),22.277910300000002,114.192633
84,"LEI HA COURT,HAVEN ST|禮希大樓,希雲街",HCB,6485160.0,14739.0,440.0,6684920.0,14526.0,440.0,7225967.0,19477.0,440.0,2.0,6.0,10.0,"['11A', 'whole floor']",6857199.5,15758.5,438.5,13,26,1959/06,62,blank,,False,,,POINT Z (22.2777318 114.1867115 0),22.2777318,114.1867115
85,"YEE WAH MANSION,YEE WO ST|怡華大廈,怡和街",HCB,4845785.1839448,10985.0,342.0,4943578.169940182,10655.0,337.0,8687076.361365154,13639.0,572.0,5.0,10.0,14.0,"['A', 'B', 'C', 'D']",6295319.752860993,11688.25,435.5,14,56,1965/03,56,blank,,False,,,POINT Z (22.279633 114.1855737 0),22.279633,114.18557369999999
86,"EAST SOUTH BLDG,HENNESSY RD|東南大廈,軒尼詩道",HCB,4533443.808466468,9150.0,327.0,4654930.12183961,9476.0,327.0,9597198.497806568,12609.0,817.0,6.0,10.0,13.0,"['A', 'A1', 'B', 'C', 'D', 'E', 'F']",6558850.567762755,10651.666666666666,527.7142857142857,12,84,1965/10,56,blank,,False,,,POINT Z (22.2800434 114.1824155 0),22.280043399999997,114.1824155
87,"KINGSTON BLDG(Block B),KINGSTON ST|京士頓大廈B座,京士頓街",HCB,11416580.671653956,12238.0,487.0,11983969.69692476,13374.0,487.0,12259170.361876464,14433.0,1575.0,5.0,10.0,15.0,"['1', '2', '3', '34', '4', '5']",11186023.83320397,11719.72222222222,869.2777777777778,15,90,1965/12,56,KINGSTON BLDG,京士頓大廈,True,2.0,174.0,POINT Z (22.2815401 114.1857827 0),22.2815401,114.1857827
88,"GREENFIELD MANSION,KINGSTON ST|新豪大廈,京士頓街",HCB,19526097.86206032,15462.0,1210.0,20630589.15975965,15884.0,1210.0,56626517.5901637,21787.0,2500.0,4.0,8.0,11.0,"['A', 'A & C', 'AC', 'B', 'C']",35197624.296612255,18325.399999999998,1768.4000000000003,12,60,1964/11,57,blank,,False,,,POINT Z (22.2816413 114.1862471 0),22.2816413,114.18624709999999
89,"CAROLINE HILL COURT,CAROLINE HILL RD|加路連大樓,加路連山道",HCB,8065772.0,14101.0,572.0,7384920.0,16195.0,456.0,9544392.0,16686.0,572.0,3.0,6.0,10.0,['whole floor'],8331694.666666667,15660.666666666666,533.3333333333334,12,12,1959/07,62,blank,,False,,,POINT Z (22.277635 114.186533 0),22.277635,114.18653300000001
90,"FLORIDA MANSION,CLEVELAND ST|華高大廈,加寧街",HCB,14164363.269379238,13318.0,1023.0,14467475.112882247,13603.0,1023.0,18430004.76528986,14847.0,1194.0,3.0,6.0,8.0,"['A', 'B', 'C', 'D']",16294079.87436167,14234.25,1108.5,10,40,1964/03,57,blank,,False,,,POINT Z (22.2822718 114.1855729 0),22.2822718,114.18557290000001
91,"THE FIRST MANSION,TUNG LO WAN RD|第一閣,銅鑼灣道",HCB,6722158.932428576,17543.0,333.0,7188143.6840920085,20763.0,333.0,8512620.619355125,22265.0,333.0,5.0,12.0,20.0,"['A', 'B']",7485335.302734203,20335.166666666668,333.0,24,48,1995/11,26,blank,,False,,,POINT Z (22.279103 114.19179 0),22.279103,114.19179
92,"LAI YUEN APTS,RUSSELL ST|麗園大廈,羅素街",HCB,5773595.756778645,13730.0,392.0,5575236.8629404325,14122.0,362.0,9463385.568893956,15117.0,1057.0,4.0,8.0,11.0,"['A', 'B', 'C', 'D', 'E', 'F', 'G', 'H', 'HI', 'I', 'J']",6968642.288057633,13994.25,558.7878787878789,12,132,1964/04,57,blank,,False,,,POINT Z (22.2790248 114.1833996 0),22.279024800000002,114.1833996
93,"HAPPY MANSION,LEE GARDEN RD|HAPPY MANS,利園山道",HCB,18716878.015336405,34797.0,430.0,18821766.115258545,34992.0,430.0,18951934.936700374,35234.0,430.0,2.0,3.0,4.0,['whole floor'],18830193.022431776,35007.666666666664,430.0,5,5,1963/01,58,blank,,False,,,POINT Z (22.27947 114.183242 0),22.27947,114.18324199999999
94,"PROSPECT MANSION,PATERSON ST|海灣大廈,百德新街",HCB,17506672.886281505,6375.0,920.0,19747442.05765269,7438.0,920.0,26367672.908967793,8202.0,1114.0,3.0,6.0,10.0,"['A', 'B', 'C', 'D']",21422204.577386986,7643.166666666667,1017.0,12,48,1960/09,61,blank,,False,,,POINT Z (22.2823655 114.1851092 0),22.2823655,114.1851092
95,"CHERRY COURT,TAI HANG RD|芝蘭閣,大坑道",HCB,22085760.966906592,15678.0,1355.0,22626705.743746247,16062.0,1355.0,25196650.0,17377.0,1450.0,5.0,8.0,10.0,"['12', 'whole floor']",24028406.704929456,16612.0,1418.3333333333333,10,20,1965/12,56,blank,,False,,,POINT Z (22.2770601 114.1927723 0),22.277060100000003,114.1927723
96,"GRAND DECO TOWER,TAI HANG RD|帝后臺,大坑道",HCB,21133664.0,19496.0,1084.0,22615492.0,20863.0,1084.0,25139044.0,23191.0,1084.0,16.0,26.0,36.0,"['A', 'B']",23175378.0,21379.5,1084.0,27,54,1999/03,22,blank,,False,,,POINT Z (22.2768994 114.1935154 0),22.276899399999998,114.19351540000001
97,"FONTANA GARDEN(Block A),KA NING PATH|豪園A座,嘉寧徑",HCB,50030405.4860116,18798.0,773.0,52393795.212130256,19686.0,773.0,61917498.53560347,21909.0,2750.0,4.0,10.0,17.0,"['22', '22A', '23', '24', '25']",,,2278.6,22,110,1971/05,50,FONTANA GARDEN,豪園,True,3.0,295.0,POINT Z (22.277906 114.190356 0),22.277906,114.19035600000001
98,"Y.I,TAI HANG RD|Y.I,大坑道",HCB,11106783.951699765,20388.0,524.0,11870007.628192376,21789.0,524.0,28137584.0,26696.0,1054.0,11.0,20.0,29.0,"['A', 'B', 'C']",19360266.963114902,23409.77777777778,794.6666666666666,25,75,2001/03,20,blank,,False,,,POINT Z (22.276984 114.1925633 0),22.276984,114.19256329999999
99,"WELL-FOUND BLDG,JAFFE RD|匯創大廈,謝斐道",HCB,5603768.705759443,17276.0,312.0,5943705.589507759,18324.0,312.0,6311862.424483272,19459.0,312.0,9.0,18.0,26.0,['whole floor'],5953112.239916825,18353.0,312.0,21,21,2001/02,20,blank,,False,,,POINT Z (22.2809367 114.1828335 0),22.2809367,114.1828335
100,"THE GRANDEUR,JARDINE'S BAZAAR|采怡閣,渣甸街",HCB,7496800.0,18742.0,394.0,7861876.0,19762.0,394.0,8806123.0,21030.0,419.0,9.0,16.0,24.0,"['A', 'B', 'C', 'D']",8168833.833333333,20067.333333333332,407.0,22,88,2002/11,19,blank,,False,,,POINT Z (22.2792194 114.1851557 0),22.2792194,114.18515570000001
101,"PO MING BLDG,FOO MING ST|寶明大廈,富明街",HCB,5137577.998690622,11781.0,335.0,5070948.72448248,11628.0,335.0,10967745.798985656,15652.0,675.0,3.0,6.0,10.0,"['A', 'B', 'C', 'D', 'E', 'F', 'G', 'H', 'I', 'J', 'K', 'L', 'N', 'O']",7247385.723618896,14271.10101010101,454.4047619047619,12,168,1964/04,57,blank,,False,,,POINT Z (22.2784909 114.1835534 0),22.278490899999998,114.1835534
102,"HAMILTON MANSION(Block A1),CLEVELAND ST|美登大廈A1座,加寧街",HCB,,,976.0,,,976.0,,,1238.0,3.0,6.0,9.0,"['A', 'B', 'C', 'D']",,,1093.5,11,44,1962/11,59,HAMILTON MANSION,美登大廈,True,1.0,44.0,POINT Z (22.2818061 114.1856908 0),22.2818061,114.1856908
103,8 PAK SHA RD|8 白沙道,HCB,16148685.0,18669.0,865.0,16319955.0,18867.0,865.0,15343189.0,18643.0,823.0,2.0,3.0,4.0,['whole floor'],15937276.333333334,18726.333333333332,851.0,5,5,1955/03,66,blank,,False,,,POINT Z (22.2791031 114.1841873 0),22.2791031,114.18418729999999
104,"PHOENIX APTS,LEE GARDEN RD|鳳鳴大廈,利園山道",HCB,7231622.411629315,10324.0,395.0,7381317.900035658,10372.0,395.0,11433357.320377553,11680.0,974.0,4.0,9.0,14.0,"['A', 'B', 'C', 'D', 'E', 'E1', 'F', 'G', 'H', 'I', 'J', 'K', 'L']",8814945.99763011,10928.02777777778,746.1538461538462,17,221,1959/07,62,blank,,False,,,POINT Z (22.2783546 114.1839585 0),22.2783546,114.1839585
105,"GRANDVIEW MANSION,WANG FUNG TERR|偉景大廈,宏豐臺",HCB,16177059.897257604,12340.0,1048.0,16296355.881913232,12431.0,1048.0,22634112.68034618,13473.0,1343.0,1.0,2.0,3.0,"['2', '3', '5', '6', 'whole floor']",20338066.681928758,13068.666666666666,1241.0666666666666,3,15,1955/01,66,blank,,False,,,POINT Z (22.2764148 114.1916113 0),22.2764148,114.19161129999999
106,"THE LEGEND(Block 2),TAI HANG DR|名門2座,大坑徑",HCB,37308438.0,26163.0,1426.0,40623888.0,28488.0,1426.0,45622720.0,31904.0,1430.0,23.0,36.0,48.0,"['A', 'B']",41150369.666666664,28809.166666666668,1428.3333333333333,35,70,2006/11,15,THE LEGEND,名門,True,4.0,437.0,POINT Z (22.2752914 114.1949921 0),22.2752914,114.19499209999998
107,518 JAFFE RD|518 謝斐道,HCB,,,737.0,,,737.0,,,737.0,2.0,3.0,4.0,['whole floor'],,,737.0,3,3,1961/12,60,blank,,False,,,POINT Z (22.2790636 114.1768091 0),22.279063600000004,114.1768091
108,500 LOCKHART RD|500 駱克道,HCB,7012279.451493954,18104.0,364.0,7062232.00883865,17997.0,364.0,7312605.063443439,18794.0,383.0,4.0,5.0,6.0,"['A', 'B', 'C']",7138832.468272403,18430.11111111111,372.6666666666667,5,15,1964/12,57,blank,,False,,,POINT Z (22.2785972 114.1766163 0),22.278597199999997,114.17661629999999
109,"RITA HSE,LEIGHTON RD|麗達大廈,禮頓道",HCB,8031285.0,13059.0,219.0,7138410.0,13098.0,219.0,7814210.0,14338.0,545.0,3.0,6.0,9.0,"['F.P.', 'R.P.', 'whole floor']",7661301.666666667,13498.333333333334,377.77777777777777,9,27,1963/02,58,blank,,False,,,POINT Z (22.2782353 114.1863516 0),22.2782353,114.18635159999998
110,"JARDINE SUMMIT,TAI HANG RD|渣甸豪庭,大坑道",HCB,13563628.0,17684.0,767.0,14652279.0,18713.0,769.0,15545335.000000002,20215.0,782.0,10.0,18.0,26.0,"['A', 'B']",14624650.5,18912.666666666668,773.1666666666666,22,44,2005/06,16,blank,,False,,,POINT Z (22.2758764 114.1938521 0),22.275876399999998,114.1938521
111,"THE LEGEND(Block 5),TAI HANG DR|名門5座,大坑徑",HCB,18707024.0,20972.0,891.0,21251008.0,23824.0,891.0,56107444.0,31468.0,1783.0,23.0,36.0,50.0,"['A', 'AB', 'B', 'C', 'D']",28506345.266666666,25704.2,1071.2,35,175,2006/11,15,THE LEGEND,名門,True,4.0,437.0,POINT Z (22.2747146 114.1947926 0),22.2747146,114.1947926
112,517 LOCKHART RD|517 駱克道,HCB,,,600.0,,,600.0,,,600.0,3.0,4.0,4.0,['whole floor'],,,600.0,4,4,1955/07,66,blank,,False,,,POINT Z (22.2785972 114.1766163 0),22.278597199999997,114.17661629999999
113,17-17A SHELTER ST|17-17A 信德街,HCB,7913160.0,18335.0,431.0,7968759.0,18473.0,431.0,9012422.0,19101.0,487.0,2.0,4.0,7.0,"['A', 'B']",8582833.5,18544.0,463.5,8,16,1965/07,56,blank,,False,,,POINT Z (22.2793531 114.1884061 0),22.2793531,114.1884061
114,"THE LEGEND(Block 1),TAI HANG DR|名門1座,大坑徑",HCB,29314680.0,25580.0,1146.0,32395128.0,28268.0,1146.0,94023060.71083622,39441.0,2293.0,25.0,37.0,52.0,"['A', 'AB', 'B']",49974406.68598205,30872.44444444445,1528.6666666666667,33,99,2006/11,15,THE LEGEND,名門,True,4.0,437.0,POINT Z (22.2752914 114.1949921 0),22.2752914,114.19499209999998
115,"THE LEGEND(Block 3),TAI HANG DR|名門3座,大坑徑",HCB,33677217.0,22587.0,1491.0,36511608.0,24488.0,1491.0,46184140.0,27974.0,1796.0,22.0,33.0,51.0,"['A', 'B', 'C']",40637465.11111111,25103.0,1618.3333333333333,31,93,2006/11,15,THE LEGEND,名門,True,4.0,437.0,POINT Z (22.274827 114.195048 0),22.274827,114.195048
116,"SAI SEE MANSION,WUN SHA ST|西施樓,浣紗街",HCB,4695964.562966213,12547.0,360.0,4755847.74859422,12707.0,360.0,4823590.602335902,12888.0,418.0,2.0,4.0,6.0,"['A', 'B', 'C']",4758467.637965445,12714.0,396.3333333333333,7,21,1964/05,57,blank,,False,,,POINT Z (22.2784843 114.1925865 0),22.2784843,114.1925865
117,32A JARDINE'S BAZAAR|32A 渣甸街,HCB,,,495.0,,,565.0,,,565.0,10.0,11.0,13.0,['whole floor'],,,541.6666666666666,5,5,1967/05,54,blank,,False,,,POINT Z (22.2795527 114.1852116 0),22.2795527,114.18521159999999
118,"WARRENWOODS,WARREN ST|尚巒,華倫街",HCB,5731155.0,19522.0,265.0,5689020.0,21468.0,265.0,13923648.000000002,26737.0,552.0,12.0,24.0,35.0,"['A', 'B', 'C', 'D', 'E', 'F']",8875170.5,23322.38888888889,380.6666666666667,30,180,2012/09,9,blank,,False,,,POINT Z (22.278161 114.191637 0),22.278160999999997,114.19163700000001
119,16D TAI HANG RD|16D 大坑道,HCB,16346044.756610006,10967.0,851.0,16371382.840029571,10984.0,851.0,16371382.840029571,10984.0,851.0,1.0,2.0,2.0,['whole floor'],16362936.812223049,10978.333333333334,851.0,4,4,1955/01,66,blank,,False,,,POINT Z (22.2703638 114.1910735 0),22.270363800000002,114.19107350000002
120,"WUN SHA MANSION,WUN SHA ST|浣沙閣,浣紗街",HCB,,,538.0,,,538.0,,,619.0,2.0,4.0,6.0,"['A', 'B']",,,578.5,6,12,1963/12,58,blank,,False,,,POINT Z (22.2789715 114.1922614 0),22.2789715,114.1922614
121,"THE WARREN,WARREN ST|瑆華,華倫街",HCB,8177474.0,21407.0,382.0,8834514.0,23127.0,382.0,57816381.93365123,45509.0,1222.0,10.0,20.0,30.0,"['A', 'AC', 'B', 'C', 'D']",20412246.00334969,27796.666666666668,641.6,26,130,2014/01,7,blank,,False,,,POINT Z (22.2784825 114.1915549 0),22.278482500000003,114.19155490000001
122,"THE SIGNATURE,CHUN FAI TERR|春暉8號,春暉台",HCB,44791574.894000165,27512.0,1566.0,,,1566.0,77796227.98428063,39714.0,1566.0,11.0,23.0,36.0,"['A', 'B']",,,1566.0,33,66,2011/08,10,blank,,False,,,POINT Z (22.2752562 114.1945371 0),22.2752562,114.1945371
123,"PARK HAVEN,HAVEN ST|曦巒,希雲街",HCB,8124727.0,20702.0,377.0,9059687.0,22394.0,377.0,25407350.0,29891.0,850.0,7.0,18.0,27.0,"['A', 'B', 'C', 'D', 'E', 'F', 'G', 'H']",12042602.791666666,24173.75,492.9583333333333,26,208,2014/06,7,blank,,False,,,POINT Z (22.2775121 114.1874278 0),22.277512100000003,114.1874278
124,520 JAFFE RD|520 謝斐道,HCB,,,739.0,,,739.0,,,739.0,5.0,7.0,9.0,['whole floor'],,,739.0,7,7,1961/12,60,blank,,False,,,POINT Z (22.2790636 114.1768091 0),22.279063600000004,114.1768091
125,"SZE HAI BLDG,SHEPHERD ST|SZE HAI BLDG,施弼街",HCB,6128445.2171701575,10836.0,460.0,5756234.83113972,10751.0,460.0,5827444.879743719,10884.0,544.0,3.0,4.0,5.0,"['A', 'B', 'C', 'D']",5904041.642684531,10823.666666666666,510.5,3,12,1964/07,57,blank,,False,,,POINT Z (22.2782091 114.1918435 0),22.2782091,114.1918435
126,"YOO RESIDENCE,TUNG LO WAN RD|YOO RESIDENCE,銅鑼灣道",HCB,7448610.0,20982.0,349.0,8018030.0,22586.0,349.0,28064355.0,32295.0,2683.0,9.0,18.0,27.0,"['A', 'B', 'C', 'C-E', 'CD', 'CE', 'D', 'E', 'F', 'G']",,,799.5,24,240,2015/08,6,blank,,False,,,POINT Z (22.278856 114.1889699 0),22.278856,114.1889699
127,26 SCHOOL ST|26 書館街,HCB,5228862.536737107,14370.0,350.0,5260883.406829859,14458.0,350.0,5196113.919596791,14280.0,350.0,2.0,3.0,4.0,['whole floor'],5228619.954387919,14369.333333333334,350.0,5,5,1965/01,56,blank,,False,,,POINT Z (22.2788179 114.1915765 0),22.278817899999996,114.1915765
128,2 CANNON ST|2 景隆街,HCB,,,616.0,,,616.0,,,616.0,2.0,3.0,4.0,['whole floor'],,,616.0,3,3,1955/07,66,blank,,False,,,POINT Z (22.2813001 114.1836755 0),22.281300100000003,114.18367549999999
129,"JONES HIVE,JONES ST|雋琚,重士街",HCB,8854470.0,26198.0,333.0,11549106.0,32986.0,333.0,70904586.1375314,61332.0,1112.0,18.0,38.0,65.0,"['A', 'AB', 'B', 'C', 'D']",28831909.027234558,39556.76666666667,620.7333333333332,54,270,2016/11,5,blank,,False,,,POINT Z (22.2781929 114.1912159 0),22.278192899999997,114.1912159
130,"VERDE GREEN,WANG FUNG TERR|怡翠軒,宏豐臺",HCB,16704650.167119976,25388.0,526.0,16887567.007613882,25666.0,526.0,71426206.11134236,31314.0,2604.0,1.0,2.0,2.0,"['A', 'B', 'C', 'D', 'E', 'F']",31032411.974120244,27349.0,1469.8333333333333,4,24,2012/09,9,blank,,False,,,POINT Z (22.2750527 114.1926794 0),22.2750527,114.1926794
131,56 TUNG LO WAN RD|56 銅鑼灣道,HCB,,,399.0,,,399.0,,,399.0,2.0,2.0,3.0,['whole floor'],,,399.0,4,4,1965/11,56,blank,,False,,,POINT Z (22.278872 114.1896294 0),22.278872,114.1896294
132,42 SUN CHUN ST|42 新村街,HCB,,,202.0,,,202.0,,,168.0,3.0,4.0,5.0,['whole floor'],,,190.66666666666666,2,2,1975/05,46,blank,,False,,,POINT Z (22.2781257 114.192159 0),22.278125699999997,114.192159
133,24 SUN CHUN ST|24 新村街,HCB,6400135.022436694,25127.0,245.0,6400135.022436694,25127.0,245.0,6448020.778166311,25315.0,245.0,2.0,2.0,3.0,['whole floor'],6416096.941013233,25189.666666666668,245.0,4,4,9999,99,blank,,False,,,POINT Z (22.2781257 114.192159 0),22.278125699999997,114.192159
134,533 LOCKHART RD|533 駱克道,HCB,,,543.0,,,543.0,,,543.0,4.0,4.0,5.0,['whole floor'],,,543.0,2,2,1955/07,66,blank,,False,,,POINT Z (22.2785972 114.1766163 0),22.278597199999997,114.17661629999999
135,23 SUN CHUN ST|23 新村街,HCB,,,254.0,,,254.0,,,254.0,5.0,5.0,5.0,['whole floor'],,,254.0,1,1,1965/11,56,blank,,False,,,POINT Z (22.2781257 114.192159 0),22.278125699999997,114.192159
136,55 JARDINE'S BAZAAR|55 渣甸街,HCB,9864414.0,17838.0,553.0,9794183.000000002,17711.0,553.0,9853907.0,17819.0,553.0,2.0,3.0,4.0,['whole floor'],9837501.333333334,17789.333333333332,553.0,3,3,1961/02,60,blank,,False,,,POINT Z (22.2795527 114.1852116 0),22.2795527,114.18521159999999
137,22 SUN CHUN ST|22 新村街,HCB,,,314.0,,,314.0,,,314.0,2.0,2.0,2.0,['whole floor'],,,314.0,1,1,1968/06,53,blank,,False,,,POINT Z (22.2781257 114.192159 0),22.278125699999997,114.192159
