,final_address,district,lowZone_value,lowZone_npsf_min,lowZone_nfa_min,midZone_value,midZone_npsf_min,midZone_nfa_min,highZone_value,highZone_npsf_max,highZone_nfa_max,oneSixth_floor,middle_floor,fifthSixth_floor,unit_list,value_avg,npsf_avg,unitSize_avg,noStorey,noFlat,op_date,bldgAge,est_name_en,est_name_ch,est_orNot,est_bldgNo,est_flatNo,final_coords,lat,long
0,"SWISS TOWERS(Block 3),TAI HANG RD|瑞士花園3座,大坑道",HJL,28661512.25142951,20798.0,1286,30065785.786587056,21817.0,1286,31966171.659974944,23196.0,1286,6.0,11.0,17.0,"['E', 'F']",30242181.284624506,21945.0,1286.0,17,34,1971/07,50,SWISS TOWERS,瑞士花園,True,2.0,72.0,POINT Z (22.273377 114.1923543 0),22.273377,114.1923543
1,"TAI HANG TERR,CHUN FAI RD|大坑台,春暉道",HJL,10928926.0,20631.0,511,11676350.0,22271.0,511,25552758.0,40754.0,627,5.0,12.0,18.0,"['1', '10', '11', '12', '1612', '1708', '1808', '2', '3', '310', '4', '5', '6', '7', '8', '9']",13349573.916666666,24260.00925925926,560.875,20,320,1975/06,46,blank,,False,,,POINT Z (22.2742507 114.1938637 0),22.2742507,114.19386370000001
2,"FLORA GARDEN(Block 1),CHUN FAI RD|慧景園1座,春暉道",HJL,23848669.620088622,19595.0,1000,25261050.952790346,20768.0,1000,36346188.567884974,25136.0,1200,4.0,10.0,17.0,"['A', 'B', 'C', 'D']",28717297.078843217,22261.777777777777,1096.25,20,80,1987/10,34,FLORA GARDEN,慧景園,True,3.0,228.0,POINT Z (22.2735198 114.1944907 0),22.2735198,114.19449070000002
3,"YICK KING BLDG,CHUN FAI RD|億景樓,春暉道",HJL,23407852.332516406,18356.0,1190,25101338.27158711,19684.0,1190,26094988.1886946,20813.0,1170,4.0,11.0,18.0,"['A', 'B']",24896862.675182175,19639.833333333332,1183.3333333333333,21,42,1975/07,46,blank,,False,,,POINT Z (22.2740512 114.1936083 0),22.2740512,114.19360829999998
4,"ELM TREE TOWER(Block A),CHUN FAI RD|愉富大廈A座,春暉道",HJL,39480290.0,24446.0,1615,40232880.0,24912.0,1615,48049480.0,29752.0,1615,6.0,16.0,25.0,"['1', '2']",42896284.166666664,26561.166666666668,1615.0,30,60,1983/11,38,ELM TREE TOWER,愉富大廈,True,2.0,110.0,POINT Z (22.273643 114.193771 0),22.273643,114.193771
5,"CAVENDISH HEIGHTS(Block 3),PERKINS RD|嘉雲臺3座,白建時道",HJL,38957222.431147,24415.0,1489,41797437.70566847,26195.0,1489,46493366.66798121,29138.0,1489,5.0,13.0,21.0,"['A', 'B']",42482227.437119104,26624.166666666668,1489.0,25,50,1986/12,35,CAVENDISH HEIGHTS,嘉雲臺,True,6.0,328.0,POINT Z (22.2704416 114.1924472 0),22.2704416,114.1924472
6,"BUTLER TOWER,BOYCE RD|柏麗園,布思道",HJL,32797740.0,23097.0,1420,34788580.0,24499.0,1420,40847976.0,27378.0,1492,5.0,11.0,17.0,"['A', 'B', 'B1', 'C', 'C2', 'D', 'E', 'F']",37066552.25,25351.625,1461.5,19,152,1974/12,47,blank,,False,,,POINT Z (22.270329 114.1956517 0),22.270329,114.1956517
7,"SWISS TOWERS(Block 2),TAI HANG RD|瑞士花園2座,大坑道",HJL,29080451.55926846,9231.0,1286,30954653.72591641,9879.0,1286,41859508.52835204,24071.0,1286,5.0,11.0,18.0,"['C', 'D']",34928214.6360352,16247.0,1286.0,19,38,1971/07,50,SWISS TOWERS,瑞士花園,True,2.0,72.0,POINT Z (22.2734498 114.1921686 0),22.2734498,114.1921686
8,"ELM TREE TOWER(Block B),CHUN FAI RD|愉富大廈B座,春暉道",HJL,62003617.62419849,10879.0,1880,66853794.90135566,11730.0,1880,77478662.58318073,12960.0,1972,5.0,13.0,21.0,"['1', '2']",67949228.96974076,11816.5,1895.3333333333333,25,50,1983/11,38,ELM TREE TOWER,愉富大廈,True,2.0,110.0,POINT Z (22.273643 114.193771 0),22.273643,114.193771
9,"BELLEVUE HEIGHTS,TAI HANG DR|碧蘭閣,大坑徑",HJL,25415341.289878655,18823.0,1260,27725581.365689225,20534.0,1260,33304980.570235107,23545.0,1320,5.0,14.0,22.0,"['A', 'B']",28426392.55230552,20866.166666666668,1270.0,26,52,1973/11,48,blank,,False,,,POINT Z (22.273383 114.1934225 0),22.273383,114.19342250000001
10,"PARK GARDEN,TAI HANG DR|柏園,大坑徑",HJL,26246220.0,23023.0,1140,27931140.0,24501.0,1140,32999880.0,27966.0,1180,5.0,12.0,19.0,"['A', 'B', 'C', 'D']",29396546.666666668,25331.0,1160.0,22,88,1972/08,49,blank,,False,,,POINT Z (22.273318 114.192986 0),22.273318,114.192986
11,"CAVENDISH HEIGHTS(Block 8),PERKINS RD|嘉雲臺8座,白建時道",HJL,,,1337,49650336.60347919,22779.0,1337,58240944.85211175,30989.0,1337,5.0,12.0,19.0,"['A', 'B']",53425227.029102445,26975.0,1337.0,23,46,1988/04,33,CAVENDISH HEIGHTS,嘉雲臺,True,6.0,328.0,POINT Z (22.2705778 114.1940727 0),22.2705778,114.19407269999999
12,"CAVENDISH HEIGHTS(Block 6),PERKINS RD|嘉雲臺6座,白建時道",HJL,45410044.46717078,27008.0,1569,49378043.021026045,29368.0,1569,54775193.59639698,32578.0,1569,6.0,16.0,26.0,"['A', 'B']",50103267.615473606,29799.333333333332,1569.0,31,62,1986/12,35,CAVENDISH HEIGHTS,嘉雲臺,True,6.0,328.0,POINT Z (22.2704696 114.1933761 0),22.270469600000002,114.1933761
13,"CAVENDISH HEIGHTS(Block 4),PERKINS RD|嘉雲臺4座,白建時道",HJL,41987317.26615614,26314.0,1489,41267689.68817345,25863.0,1489,44479685.95087666,27876.0,1489,5.0,12.0,20.0,"['A', 'B']",42578230.96840208,26684.333333333332,1489.0,24,48,1986/12,35,CAVENDISH HEIGHTS,嘉雲臺,True,6.0,328.0,POINT Z (22.2703614 114.1926794 0),22.2703614,114.1926794
14,"LINDEN HEIGHTS,BOYCE RD|年達園,布思道",HJL,21923587.433959123,21311.0,960,23293875.945152104,22643.0,960,24280442.523405906,23602.0,960,5.0,10.0,14.0,"['A', 'B']",23393492.76509744,22739.833333333332,960.0,16,32,1975/01,46,blank,,False,,,POINT Z (22.2689761 114.1950448 0),22.268976100000003,114.19504479999999
15,"CAVENDISH HEIGHTS(Block 1),PERKINS RD|嘉雲臺1座,白建時道",HJL,66918532.965008676,27301.0,1894,72457307.46903113,29552.0,1894,78875088.90989682,32064.0,1912,7.0,16.0,26.0,"['A', 'B']",72681506.45561652,29686.166666666668,1903.0,30,60,1986/12,35,CAVENDISH HEIGHTS,嘉雲臺,True,6.0,328.0,POINT Z (22.2709431 114.1923079 0),22.2709431,114.19230790000002
16,"CAVENDISH HEIGHTS(Block 7),PERKINS RD|嘉雲臺7座,白建時道",HJL,42940133.50292782,22579.0,1569,47686599.56967927,25011.0,1569,55516425.45141105,31633.0,1569,6.0,16.0,26.0,"['A', 'B']",49232697.0652017,26771.0,1569.0,31,62,1986/12,35,CAVENDISH HEIGHTS,嘉雲臺,True,6.0,328.0,POINT Z (22.2707019 114.1935618 0),22.2707019,114.1935618
17,"WING ON TOWERS(Block 2),BOYCE RD|永安閣2座,布思道",HJL,31431146.998974506,19389.0,1260,32640473.713154454,20135.0,1260,124276325.46453018,40501.0,2385,5.0,9.0,15.0,"['A', 'B']",47819092.95131167,23471.333333333332,1447.5,13,26,1974/08,47,WING ON TOWERS,永安閣,True,1.0,26.0,POINT Z (22.2693717 114.1955038 0),22.2693717,114.1955038
18,"PINEWOOD GARDEN,PERKINS RD|松峰園,白建時道",HJL,22092912.452457,20514.0,1005,22303998.09351586,20710.0,1005,24195153.122594275,22466.0,2010,1.0,2.0,3.0,"['A', 'A & C', 'B', 'C', 'D']",22907099.925112624,21270.0,1273.3333333333333,5,25,1968/10,53,PINEWOOD GARDEN,松峰園,True,1.0,25.0,POINT Z (22.2701495 114.1937476 0),22.2701495,114.19374760000001
19,"SERENE VILLA,PERKINS RD|寧苑,白建時道",HJL,66376578.0,47378.0,1401,66551703.0,47503.0,1401,66551703.0,47503.0,1401,1.0,2.0,2.0,['whole floor'],66493328.0,47461.333333333336,1401.0,4,4,1965/03,56,blank,,False,,,POINT Z (22.2699681 114.1935154 0),22.2699681,114.19351540000001
20,"FLORA GARDEN(Block 2),CHUN FAI RD|慧景園2座,春暉道",HJL,25869358.663381234,23878.0,1011,27047011.43442971,24885.0,1011,33845776.88176666,26930.0,1199,5.0,10.0,16.0,"['A', 'B', 'C', 'D']",30157661.59710956,25973.166666666668,1103.5,18,72,1987/10,34,FLORA GARDEN,慧景園,True,3.0,228.0,POINT Z (22.2732729 114.1943978 0),22.2732729,114.19439779999999
21,"FLORA GARDEN(Block 3),CHUN FAI RD|慧景園3座,春暉道",HJL,26290483.065404274,18799.0,1017,27816251.299052663,19890.0,1017,35047239.211348146,22988.0,1199,4.0,10.0,16.0,"['A', 'B', 'C', 'D']",30514764.48688309,20837.166666666668,1122.0,19,76,1987/10,34,FLORA GARDEN,慧景園,True,3.0,228.0,POINT Z (22.2730096 114.1943397 0),22.2730096,114.19433970000001
22,"NEW HAVEN COURT,WILSON RD|復園,衛信道",HJL,38278638.56896386,24483.0,1459,38585080.31056076,24679.0,1459,39874949.886159964,25504.0,1459,0.0,1.0,2.0,['whole floor'],38912889.58856153,24888.666666666668,1459.0,3,3,1961/11,60,blank,,False,,,POINT Z (22.2843535 114.224114 0),22.2843535,114.22411399999999
23,"CYPRESS COURT,WILSON RD|CYPRESS COURT,衛信道",HJL,41950601.68960414,10965.0,1262,42302581.2021845,11057.0,1262,42348491.57339063,11069.0,1262,1.0,2.0,2.0,"['3', 'whole floor']",42200558.15505976,11030.333333333334,1262.0,4,8,1963/06,58,blank,,False,,,POINT Z (22.36414 114.179189 0),22.36414,114.179189
24,"DUKES PLACE,PERKINS RD|皇第,白建時道",HJL,171632307.0,60243.0,2846,176427174.0,61926.0,2846,216954944.0,76178.0,2849,7.0,10.0,16.0,"['A', 'B']",189919689.83333334,66689.83333333333,2847.8333333333335,12,24,2018/06,3,blank,,False,,,POINT Z (22.2696913 114.1941656 0),22.2696913,114.19416559999999
