,final_address,district,lowZone_value,lowZone_npsf_min,lowZone_nfa_min,midZone_value,midZone_npsf_min,midZone_nfa_min,highZone_value,highZone_npsf_max,highZone_nfa_max,oneSixth_floor,middle_floor,fifthSixth_floor,unit_list,value_avg,npsf_avg,unitSize_avg,noStorey,noFlat,op_date,bldgAge,est_name_en,est_name_ch,est_orNot,est_bldgNo,est_flatNo,final_coords,lat,long
0,"SWISS TOWERS(Block 3),TAI HANG RD|瑞士花園3座,大坑道",HJL,27274295.920822337,20400.0,1286,28613945.1616392,21402.0,1286,30913542.660845786,23122.0,1286,6.0,11.0,17.0,"['E', 'F']",28999885.362087432,21690.666666666668,1286.0,17,34,1971/07,50,SWISS TOWERS,瑞士花園,True,2.0,72.0,POINT Z (22.273377 114.1923543 0),22.273377,114.1923543
1,"TAI HANG TERR,CHUN FAI RD|大坑台,春暉道",HJL,10767137.0,20431.0,511,11501077.0,21951.0,511,17827491.0,28433.0,627,5.0,12.0,18.0,"['1', '10', '11', '12', '1612', '1708', '1808', '2', '3', '310', '4', '5', '6', '7', '8', '9']",12470625.931216931,22929.49206349206,560.875,20,320,1975/06,46,blank,,False,,,POINT Z (22.2742507 114.1938637 0),22.2742507,114.19386370000001
2,"FLORA GARDEN(Block 1),CHUN FAI RD|慧景園1座,春暉道",HJL,20639945.90751402,17706.0,1000,21970683.365914162,18655.0,1000,32652509.86434737,26160.0,1200,4.0,10.0,17.0,"['A', 'B', 'C', 'D']",26712820.880578656,21310.75,1096.25,20,80,1987/10,34,FLORA GARDEN,慧景園,True,3.0,228.0,POINT Z (22.2735198 114.1944907 0),22.2735198,114.19449070000002
3,"YICK KING BLDG,CHUN FAI RD|億景樓,春暉道",HJL,23100437.882550303,18672.0,1190,24770617.356706414,20022.0,1190,25748272.74040198,21168.0,1170,4.0,11.0,18.0,"['A', 'B']",24567719.7471149,19976.166666666668,1183.3333333333333,21,42,1975/07,46,blank,,False,,,POINT Z (22.2740512 114.1936083 0),22.2740512,114.19360829999998
4,"ELM TREE TOWER(Block A),CHUN FAI RD|愉富大廈A座,春暉道",HJL,39412460.0,24404.0,1615,39614335.0,24529.0,1615,47272665.0,29271.0,1615,6.0,16.0,25.0,"['1', '2']",42313538.333333336,26200.333333333332,1615.0,30,60,1983/11,38,ELM TREE TOWER,愉富大廈,True,2.0,110.0,POINT Z (22.273643 114.193771 0),22.273643,114.193771
5,"CAVENDISH HEIGHTS(Block 3),PERKINS RD|嘉雲臺3座,白建時道",HJL,35867668.21146435,23170.0,1489,39022536.91301654,25208.0,1489,42363168.24665228,27366.0,1489,5.0,13.0,21.0,"['A', 'B']",39190497.29285875,25316.5,1489.0,25,50,1986/12,35,CAVENDISH HEIGHTS,嘉雲臺,True,6.0,328.0,POINT Z (22.2704416 114.1924472 0),22.2704416,114.1924472
6,"BUTLER TOWER,BOYCE RD|柏麗園,布思道",HJL,32466880.0,22864.0,1420,34308620.0,24161.0,1420,40428724.0,27097.0,1492,5.0,11.0,17.0,"['A', 'B', 'B1', 'C', 'C2', 'D', 'E', 'F']",36722740.166666664,25114.958333333332,1461.5,19,152,1974/12,47,blank,,False,,,POINT Z (22.270329 114.1956517 0),22.270329,114.1956517
7,"SWISS TOWERS(Block 2),TAI HANG RD|瑞士花園2座,大坑道",HJL,28000273.5034207,8969.0,1286,29811875.021691002,9655.0,1286,42288486.77905187,23909.0,1286,5.0,11.0,18.0,"['C', 'D']",33530454.140639454,16194.833333333334,1286.0,19,38,1971/07,50,SWISS TOWERS,瑞士花園,True,2.0,72.0,POINT Z (22.2734498 114.1921686 0),22.2734498,114.1921686
8,"ELM TREE TOWER(Block B),CHUN FAI RD|愉富大廈B座,春暉道",HJL,57839248.21715667,10661.0,1880,62917339.98446356,11597.0,1880,72347212.79874016,12713.0,1972,5.0,13.0,21.0,"['1', '2']",64367933.66678679,11657.0,1895.3333333333333,25,50,1983/11,38,ELM TREE TOWER,愉富大廈,True,2.0,110.0,POINT Z (22.273643 114.193771 0),22.273643,114.193771
9,"BELLEVUE HEIGHTS,TAI HANG DR|碧蘭閣,大坑徑",HJL,24083333.044988316,18385.0,1260,26226402.55065059,20021.0,1260,31619694.334591266,23041.0,1320,5.0,14.0,22.0,"['A', 'B']",26947350.36151165,20388.5,1270.0,26,52,1973/11,48,blank,,False,,,POINT Z (22.273383 114.1934225 0),22.273383,114.19342250000001
10,"PARK GARDEN,TAI HANG DR|柏園,大坑徑",HJL,25790220.0,22623.0,1140,25711560.0,22554.0,1140,32434660.0,27487.0,1180,5.0,12.0,19.0,"['A', 'B', 'C', 'D']",28744840.0,24767.166666666668,1160.0,22,88,1972/08,49,blank,,False,,,POINT Z (22.273318 114.192986 0),22.273318,114.192986
11,"CAVENDISH HEIGHTS(Block 8),PERKINS RD|嘉雲臺8座,白建時道",HJL,44765807.98772728,19117.0,1337,47976244.91565395,20488.0,1337,53139639.09951851,22693.0,1337,5.0,12.0,19.0,"['A', 'B']",48027761.77372426,20510.0,1337.0,23,46,1988/04,33,CAVENDISH HEIGHTS,嘉雲臺,True,6.0,328.0,POINT Z (22.2705778 114.1940727 0),22.2705778,114.19407269999999
12,"CAVENDISH HEIGHTS(Block 6),PERKINS RD|嘉雲臺6座,白建時道",HJL,42990092.1786069,26355.0,1569,46689637.95971411,28623.0,1569,53020298.09043592,32504.0,1569,6.0,16.0,26.0,"['A', 'B']",47861650.14830562,29341.5,1569.0,31,62,1986/12,35,CAVENDISH HEIGHTS,嘉雲臺,True,6.0,328.0,POINT Z (22.2704696 114.1933761 0),22.270469600000002,114.1933761
13,"CAVENDISH HEIGHTS(Block 4),PERKINS RD|嘉雲臺4座,白建時道",HJL,41474603.65651933,26792.0,1489,38881666.91701986,25117.0,1489,41974614.74121087,27115.0,1489,5.0,12.0,20.0,"['A', 'B']",40776961.771583356,26341.333333333332,1489.0,24,48,1986/12,35,CAVENDISH HEIGHTS,嘉雲臺,True,6.0,328.0,POINT Z (22.2703614 114.1926794 0),22.2703614,114.1926794
14,"LINDEN HEIGHTS,BOYCE RD|年達園,布思道",HJL,20871286.297547773,20912.0,960,21901277.090349477,21944.0,960,23840494.251603078,23887.0,960,5.0,10.0,14.0,"['A', 'B']",22336760.923610926,22380.333333333332,960.0,16,32,1975/01,46,blank,,False,,,POINT Z (22.2689761 114.1950448 0),22.268976100000003,114.19504479999999
15,"CAVENDISH HEIGHTS(Block 1),PERKINS RD|嘉雲臺1座,白建時道",HJL,62440467.55289635,26202.0,1894,67046207.21986014,28299.0,1894,73602910.5778336,30774.0,1912,7.0,16.0,26.0,"['A', 'B']",67727368.59543438,28451.333333333332,1903.0,30,60,1986/12,35,CAVENDISH HEIGHTS,嘉雲臺,True,6.0,328.0,POINT Z (22.2709431 114.1923079 0),22.2709431,114.19230790000002
16,"CAVENDISH HEIGHTS(Block 7),PERKINS RD|嘉雲臺7座,白建時道",HJL,40248056.703280084,21374.0,1569,44583767.76420732,23680.0,1569,51109749.49079959,30087.0,1569,6.0,16.0,26.0,"['A', 'B']",45574195.08439083,25531.333333333332,1569.0,31,62,1986/12,35,CAVENDISH HEIGHTS,嘉雲臺,True,6.0,328.0,POINT Z (22.2707019 114.1935618 0),22.2707019,114.1935618
17,"WING ON TOWERS(Block 2),BOYCE RD|永安閣2座,布思道",HJL,28603716.62620806,18148.0,1260,29718044.797616985,18855.0,1260,113076839.59866989,37902.0,2385,5.0,9.0,15.0,"['A', 'B']",43519498.685528986,21971.333333333332,1447.5,13,26,1974/08,47,WING ON TOWERS,永安閣,True,1.0,26.0,POINT Z (22.2693717 114.1955038 0),22.2693717,114.1955038
18,"PINEWOOD GARDEN,PERKINS RD|松峰園,白建時道",HJL,20245803.30474733,19377.0,1005,20439098.118773144,19562.0,1005,22519368.252423964,21553.0,2010,1.0,2.0,3.0,"['A', 'A & C', 'B', 'C', 'D']",21063852.498160493,20159.94444444444,1273.3333333333333,5,25,1968/10,53,PINEWOOD GARDEN,松峰園,True,1.0,25.0,POINT Z (22.2701495 114.1937476 0),22.2701495,114.19374760000001
19,"SERENE VILLA,PERKINS RD|寧苑,白建時道",HJL,65573805.0,46805.0,1401,65690088.0,46888.0,1401,65690088.0,46888.0,1401,1.0,2.0,2.0,['whole floor'],65651327.0,46860.333333333336,1401.0,4,4,1965/03,56,blank,,False,,,POINT Z (22.2699681 114.1935154 0),22.2699681,114.19351540000001
20,"FLORA GARDEN(Block 2),CHUN FAI RD|慧景園2座,春暉道",HJL,24877886.2318785,22865.0,1011,26220108.578327812,23805.0,1011,32044462.612396672,26213.0,1199,4.0,10.0,16.0,"['A', 'B', 'C', 'D']",28681044.392426554,25011.583333333332,1103.5,19,76,1987/10,34,FLORA GARDEN,慧景園,True,3.0,228.0,POINT Z (22.2732729 114.1943978 0),22.2732729,114.19439779999999
21,"FLORA GARDEN(Block 3),CHUN FAI RD|慧景園3座,春暉道",HJL,23405033.334815037,17213.0,1017,24751166.083404295,18203.0,1017,31348069.666389056,21148.0,1199,4.0,10.0,16.0,"['A', 'B', 'C', 'D']",27228121.808987126,19121.0,1122.0,19,76,1987/10,34,FLORA GARDEN,慧景園,True,3.0,228.0,POINT Z (22.2730096 114.1943397 0),22.2730096,114.19433970000001
22,"NEW HAVEN COURT,WILSON RD|復園,衛信道",HJL,35122262.90161199,23155.0,1459,36446556.98979564,19970.0,1459,36625444.18148664,24146.0,1459,0.0,1.0,2.0,['whole floor'],36064754.69096476,22423.666666666668,1459.0,3,3,1961/11,60,blank,,False,,,POINT Z (22.2843535 114.224114 0),22.2843535,114.22411399999999
23,"CYPRESS COURT,WILSON RD|CYPRESS COURT,衛信道",HJL,26084348.406243656,19881.0,1262,26573733.344402142,20254.0,1262,26573733.344402142,20254.0,1262,1.0,2.0,2.0,"['3', 'whole floor']",26410605.03168265,20129.666666666668,1262.0,4,8,1963/06,58,blank,,False,,,POINT Z (22.36414 114.179189 0),22.36414,114.179189
24,"DUKES PLACE,PERKINS RD|皇第,白建時道",HJL,169224902.0,59398.0,2846,173996977.0,61073.0,2846,212950656.0,74772.0,2849,7.0,10.0,16.0,"['A', 'B']",186971774.83333334,65654.66666666667,2847.8333333333335,12,24,2018/06,3,blank,,False,,,POINT Z (22.2696913 114.1941656 0),22.2696913,114.19416559999999
