,final_address,district,lowZone_value,lowZone_npsf_min,lowZone_nfa_min,midZone_value,midZone_npsf_min,midZone_nfa_min,highZone_value,highZone_npsf_max,highZone_nfa_max,oneSixth_floor,middle_floor,fifthSixth_floor,unit_list,value_avg,npsf_avg,unitSize_avg,noStorey,noFlat,op_date,bldgAge,est_name_en,est_name_ch,est_orNot,est_bldgNo,est_flatNo,final_coords,lat,long
0,"SWISS TOWERS(Block 3),TAI HANG RD|瑞士花園3座,大坑道",HJL,27486935.61005943,20042.0,1286,28836458.84328458,21026.0,1286,31177552.500922114,22733.0,1286,6.0,11.0,17.0,"['E', 'F']",29231898.40857582,21314.333333333332,1286.0,17,34,1971/07,50,SWISS TOWERS,瑞士花園,True,2.0,72.0,POINT Z (22.273377 114.1923543 0),22.273377,114.1923543
1,"TAI HANG TERR,CHUN FAI RD|大坑台,春暉道",HJL,10389015.0,18585.0,511,11606343.0,22064.0,511,17738457.0,28291.0,627,5.0,12.0,18.0,"['1', '10', '11', '12', '1612', '1708', '1808', '2', '3', '310', '4', '5', '6', '7', '8', '9']",12876849.648569023,22995.074915824913,560.875,20,320,1975/06,46,blank,,False,,,POINT Z (22.2742507 114.1938637 0),22.2742507,114.19386370000001
2,"FLORA GARDEN(Block 1),CHUN FAI RD|慧景園1座,春暉道",HJL,20831150.124058716,17646.0,1000,22171689.503874507,18705.0,1000,32970230.111879878,25763.0,1200,4.0,10.0,17.0,"['A', 'B', 'C', 'D']",27018312.951858576,21051.25,1096.25,20,80,1987/10,34,FLORA GARDEN,慧景園,True,3.0,232.0,POINT Z (22.2735198 114.1944907 0),22.2735198,114.19449070000002
3,"YICK KING BLDG,CHUN FAI RD|億景樓,春暉道",HJL,23310582.753272183,18368.0,1190,24997198.85078409,19697.0,1190,25983300.47174405,20824.0,1170,4.0,11.0,18.0,"['A', 'B']",24791928.536070768,19651.5,1183.3333333333333,21,42,1975/07,46,blank,,False,,,POINT Z (22.2740512 114.1936083 0),22.2740512,114.19360829999998
4,"ELM TREE TOWER(Block A),CHUN FAI RD|愉富大廈A座,春暉道",HJL,39196050.0,24270.0,1615,39982555.00000001,24757.0,1615,47700640.0,29536.0,1615,6.0,16.0,25.0,"['1', '2']",42606391.666666664,26381.666666666668,1615.0,30,60,1983/11,38,ELM TREE TOWER,愉富大廈,True,2.0,110.0,POINT Z (22.273643 114.193771 0),22.273643,114.193771
5,"CAVENDISH HEIGHTS(Block 3),PERKINS RD|嘉雲臺3座,白建時道",HJL,36189561.56076112,22790.0,1489,38809692.16959201,24440.0,1489,43221039.34009637,27218.0,1489,5.0,13.0,21.0,"['A', 'B']",39476369.84672786,24859.833333333332,1489.0,25,50,1986/12,35,CAVENDISH HEIGHTS,嘉雲臺,True,6.0,328.0,POINT Z (22.2704416 114.1924472 0),22.2704416,114.1924472
6,"BUTLER TOWER,BOYCE RD|柏麗園,布思道",HJL,32765080.0,23074.0,1420,34755920.0,24476.0,1420,40791280.0,27340.0,1492,5.0,11.0,17.0,"['A', 'B', 'B1', 'C', 'C2', 'D', 'E', 'F']",37128917.5,25392.875,1461.5,19,152,1974/12,47,blank,,False,,,POINT Z (22.270329 114.1956517 0),22.270329,114.1956517
7,"SWISS TOWERS(Block 2),TAI HANG RD|瑞士花園2座,大坑道",HJL,28249471.095499657,8686.0,1286,30077636.2071756,9352.0,1286,42677778.53715089,23516.0,1286,5.0,11.0,18.0,"['C', 'D']",33855350.68132919,15850.0,1286.0,19,38,1971/07,50,SWISS TOWERS,瑞士花園,True,2.0,72.0,POINT Z (22.2734498 114.1921686 0),22.2734498,114.1921686
8,"ELM TREE TOWER(Block B),CHUN FAI RD|愉富大廈B座,春暉道",HJL,58437677.74154892,10319.0,1880,63019137.3105879,11128.0,1880,73106602.05051714,12307.0,1972,5.0,13.0,21.0,"['1', '2']",64051954.83235818,11210.0,1895.3333333333333,25,50,1983/11,38,ELM TREE TOWER,愉富大廈,True,2.0,110.0,POINT Z (22.273643 114.193771 0),22.273643,114.193771
9,"BELLEVUE HEIGHTS,TAI HANG DR|碧蘭閣,大坑徑",HJL,24282703.092394922,18071.0,1260,26446122.49246995,19681.0,1260,31828692.04333985,22610.0,1320,5.0,14.0,22.0,"['A', 'B']",27142552.429781884,20019.833333333332,1270.0,26,52,1973/11,48,blank,,False,,,POINT Z (22.273383 114.1934225 0),22.273383,114.19342250000001
10,"PARK GARDEN,TAI HANG DR|柏園,大坑徑",HJL,26027340.0,22831.0,1140,25961220.0,22773.0,1140,32726120.0,27734.0,1180,5.0,12.0,19.0,"['A', 'B', 'C', 'D']",29007008.333333332,24993.083333333332,1160.0,22,88,1972/08,49,blank,,False,,,POINT Z (22.273318 114.192986 0),22.273318,114.192986
11,"CAVENDISH HEIGHTS(Block 8),PERKINS RD|嘉雲臺8座,白建時道",HJL,42847091.22809205,19707.0,1337,45710854.38402929,21137.0,1337,53642926.534524165,23438.0,1337,5.0,12.0,19.0,"['A', 'B']",47580227.061565936,22978.166666666668,1337.0,23,46,1988/04,33,CAVENDISH HEIGHTS,嘉雲臺,True,6.0,328.0,POINT Z (22.2705778 114.1940727 0),22.2705778,114.19407269999999
12,"CAVENDISH HEIGHTS(Block 6),PERKINS RD|嘉雲臺6座,白建時道",HJL,43332794.67991361,25897.0,1569,47065870.51614512,28128.0,1569,52308240.12390544,31261.0,1569,6.0,16.0,26.0,"['A', 'B']",47850357.46723724,28596.833333333332,1569.0,31,62,1986/12,35,CAVENDISH HEIGHTS,嘉雲臺,True,6.0,328.0,POINT Z (22.2704696 114.1933761 0),22.270469600000002,114.1933761
13,"CAVENDISH HEIGHTS(Block 4),PERKINS RD|嘉雲臺4座,白建時道",HJL,41761705.9888748,26299.0,1489,39251144.47823139,24718.0,1489,42369893.88171251,26682.0,1489,5.0,12.0,20.0,"['A', 'B']",41127581.44960623,25899.666666666668,1489.0,24,48,1986/12,35,CAVENDISH HEIGHTS,嘉雲臺,True,6.0,328.0,POINT Z (22.2703614 114.1926794 0),22.2703614,114.1926794
14,"LINDEN HEIGHTS,BOYCE RD|年達園,布思道",HJL,21035014.48988655,20546.0,960,22073148.661635064,21560.0,960,24688320.0,25717.0,960,5.0,10.0,14.0,"['A', 'B']",22615807.302685987,22859.833333333332,960.0,16,32,1975/01,46,blank,,False,,,POINT Z (22.2689761 114.1950448 0),22.268976100000003,114.19504479999999
15,"CAVENDISH HEIGHTS(Block 1),PERKINS RD|嘉雲臺1座,白建時道",HJL,63006567.205769114,25879.0,1894,68222823.53801776,28014.0,1894,74271417.28554215,30395.0,1912,7.0,16.0,26.0,"['A', 'B']",68436656.77271698,28139.833333333332,1903.0,30,60,1986/12,35,CAVENDISH HEIGHTS,嘉雲臺,True,6.0,328.0,POINT Z (22.2709431 114.1923079 0),22.2709431,114.19230790000002
16,"CAVENDISH HEIGHTS(Block 7),PERKINS RD|嘉雲臺7座,白建時道",HJL,40588624.186224826,21138.0,1569,44970930.602670506,23415.0,1569,51629523.84965992,29588.0,1569,6.0,16.0,26.0,"['A', 'B']",46005828.821432464,25170.333333333332,1569.0,31,62,1986/12,35,CAVENDISH HEIGHTS,嘉雲臺,True,6.0,328.0,POINT Z (22.2707019 114.1935618 0),22.2707019,114.1935618
17,"WING ON TOWERS(Block 2),BOYCE RD|永安閣2座,布思道",HJL,28864323.628408175,17925.0,1260,29988301.195639912,18623.0,1260,114106267.03668796,37436.0,2385,5.0,9.0,15.0,"['A', 'B']",43915639.27441829,21701.166666666668,1447.5,13,26,1974/08,47,WING ON TOWERS,永安閣,True,1.0,26.0,POINT Z (22.2693717 114.1955038 0),22.2693717,114.1955038
18,"PINEWOOD GARDEN,PERKINS RD|松峰園,白建時道",HJL,20420845.89311725,19053.0,1005,20615911.969459414,19235.0,1005,22741274.76828645,21218.0,2010,1.0,2.0,3.0,"['A', 'A & C', 'B', 'C', 'D']",21254997.499795344,19831.277777777777,1273.3333333333333,5,25,1968/10,53,PINEWOOD GARDEN,松峰園,True,1.0,25.0,POINT Z (22.2701495 114.1937476 0),22.2701495,114.19374760000001
19,"SERENE VILLA,PERKINS RD|寧苑,白建時道",HJL,66146814.0,47214.0,1401,66321939.0,47339.0,1401,66321939.0,47339.0,1401,1.0,2.0,2.0,['whole floor'],66263564.0,47297.333333333336,1401.0,4,4,1965/03,56,blank,,False,,,POINT Z (22.2699681 114.1935154 0),22.2699681,114.19351540000001
20,"FLORA GARDEN(Block 2),CHUN FAI RD|慧景園2座,春暉道",HJL,25099193.954798568,22501.0,1011,26456635.648560822,23418.0,1011,32345609.147201605,25786.0,1199,4.0,10.0,16.0,"['A', 'B', 'C', 'D']",28943635.784319673,24605.25,1103.5,19,76,1987/10,34,FLORA GARDEN,慧景園,True,3.0,232.0,POINT Z (22.2732729 114.1943978 0),22.2732729,114.19439779999999
21,"FLORA GARDEN(Block 3),CHUN FAI RD|慧景園3座,春暉道",HJL,23687055.315947965,17051.0,1017,25062352.05882454,18041.0,1017,31591069.589027673,20860.0,1199,4.0,10.0,16.0,"['A', 'B', 'C', 'D']",27499342.708055247,18903.833333333332,1122.0,19,76,1987/10,34,FLORA GARDEN,慧景園,True,3.0,232.0,POINT Z (22.2730096 114.1943397 0),22.2730096,114.19433970000001
22,"NEW HAVEN COURT,WILSON RD|復園,衛信道",HJL,35440195.78160677,22777.0,1459,35726493.18792962,22961.0,1459,36954148.91395534,23750.0,1459,0.0,1.0,2.0,['whole floor'],36040279.294497244,23162.666666666668,1459.0,3,3,1961/11,60,blank,,False,,,POINT Z (22.2843535 114.224114 0),22.2843535,114.22411399999999
23,"CYPRESS COURT,WILSON RD|CYPRESS COURT,衛信道",HJL,26360242.65541521,19586.0,1262,26832643.613857504,19937.0,1262,26832643.613857504,19937.0,1262,1.0,2.0,2.0,"['3', 'whole floor']",26675176.627710074,19820.0,1262.0,4,8,1963/06,58,blank,,False,,,POINT Z (22.36414 114.179189 0),22.36414,114.179189
24,"DUKES PLACE,PERKINS RD|皇第,白建時道",HJL,170814644.0,59956.0,2846,175589568.0,61632.0,2846,214861664.0,75443.0,2849,7.0,10.0,16.0,"['A', 'B']",188666705.83333334,66249.83333333333,2847.8333333333335,12,24,2018/06,3,blank,,False,,,POINT Z (22.2696913 114.1941656 0),22.2696913,114.19416559999999
