,final_address,district,lowZone_value,lowZone_npsf_min,lowZone_nfa_min,midZone_value,midZone_npsf_min,midZone_nfa_min,highZone_value,highZone_npsf_max,highZone_nfa_max,oneSixth_floor,middle_floor,fifthSixth_floor,unit_list,value_avg,npsf_avg,unitSize_avg,noStorey,noFlat,op_date,bldgAge,est_name_en,est_name_ch,est_orNot,est_bldgNo,est_flatNo,final_coords,lat,long
0,"CARMEL HILL,CARMEL RD|海明山,佳美道",HSL,77546185.04652324,13380.0,1974,77546185.04652324,13380.0,1974,85708818.13986392,22910.0,2024,0.0,0.0,0.0,"['1', '11', '12', '13', '14', '15', '17', '18', '2', '20', '21', '4', '5', '6', '8', '9']",81007112.00012161,15523.214285714284,1991.75,1,16,1992/03,28,blank,,False,,,POINT Z (22.2199239 114.2110354 0),22.219923899999998,114.2110354
1,"BEACH POINTE,STANLEY BEACH RD|海灣閣,赤柱灘道",HSL,39723788.01193382,11039.0,1070,40868109.47110539,11357.0,1187,40868109.47110539,11357.0,1545,1.0,2.0,2.0,"['A', 'B', 'C', 'D', 'E', 'F']",40486668.98471487,11251.0,1345.6666666666667,4,24,1988/04,32,blank,,False,,,POINT Z (22.2212998 114.213578 0),22.2212998,114.213578
2,"PARISIAN,STANLEY MOUND RD|海寧雅舍,赤柱崗道",HSL,28895154.20104076,6693.0,1372,29598777.291008346,6934.0,1372,36657584.86988194,19687.0,1518,1.0,2.0,2.0,"['B', 'C', 'D', 'F']",32766377.28198279,11791.777777777776,1434.5,4,16,1989/12,31,blank,,False,,,POINT Z (22.221644 114.212829 0),22.221644,114.212829
3,"GORDON TERR,CARMEL RD|歌敦臺,佳美道",HSL,59898555.55891653,14701.0,1344,62388047.256522,15312.0,1344,63704096.05902048,15635.0,1344,0.0,1.0,2.0,"['6', '8', '8A', 'whole floor']",62191454.82704661,15263.75,1344.0,3,12,1964/05,56,blank,,False,,,POINT Z (22.2200148 114.2116521 0),22.2200148,114.2116521
4,"TALLOWAY COURT,STANLEY MAIN ST|德偉閣,赤柱大街",HSL,9878893.126418917,18547.0,414,9836814.485291664,18468.0,414,11243519.43740642,21109.0,414,2.0,5.0,8.0,"['A', 'B']",10351523.264312323,19434.33333333333,414.0,9,18,1977/04,43,blank,,False,,,POINT Z (22.2186952 114.2113797 0),22.2186952,114.21137970000001
5,"SEA AND SKY COURT,STANLEY MAIN ST|海天別墅,赤柱大街",HSL,,,1510,,,1510,,,1560,2.0,6.0,8.0,"['A', 'B']",,,1535.0,8,16,1966/07,54,blank,,False,,,POINT Z (22.2188014 114.2107976 0),22.2188014,114.2107976
6,"NEW TOWN MANSION,STANLEY MAIN ST|新城樓,赤柱大街",HSL,,,395,,,395,,,551,2.0,3.0,4.0,"['A', 'B', 'C']",,,458.66666666666674,5,15,1976/07,44,blank,,False,,,POINT Z (22.217542 114.213198 0),22.217542,114.21319799999999
7,"LUNG TAN HSE(Block B,LUNG YAN COURT),CAPE RD|龍欣苑,B座(龍騰閣),環角道",HSL,4580805.952773937,10011.0,427,5099437.093223848,11041.0,427,8976829.991493937,13089.0,640,2.0,6.0,9.0,"['1', '10', '11', '12', '13', '15', '16', '2', '3', '5', '6', '7', '8', '9']",6342317.382808606,11544.892857142857,511.5714285714286,12,168,1993/12,27,LUNG YAN COURT,龍欣苑,True,2.0,336.0,POINT Z (22.220921 114.205434 0),22.220921,114.20543400000001
8,"LUNG CHUN HSE(Block A,LUNG YAN COURT),CAPE RD|龍欣苑,A座(龍駿閣),環角道",HSL,4891285.0,11455.0,427,5078311.0,11893.0,427,8924800.0,13945.0,640,2.0,6.0,9.0,"['1', '10', '11', '12', '13', '14', '15', '16', '2', '3', '4', '6', '8', '9']",6361052.19047619,12582.904761904763,503.8571428571428,12,168,1993/12,27,LUNG YAN COURT,龍欣苑,True,2.0,336.0,POINT Z (22.2219581 114.2053813 0),22.221958100000002,114.20538130000001
9,"REALFOUND MANSION,STANLEY MAIN ST|倫輝樓,赤柱大街",HSL,4084192.745085492,8401.0,282,4217885.5203382615,8676.0,282,4217885.5203382615,8676.0,316,3.0,4.0,4.0,"['A', 'B', 'C']",4173321.2619206714,8584.333333333334,301.0,4,12,1988/12,32,blank,,False,,,POINT Z (22.2177405 114.2132065 0),22.2177405,114.2132065
10,"YAU SHING LAU,STANLEY MAIN ST|友誠樓,赤柱大街",HSL,3941579.987524968,4562.0,285,4034892.271315563,4670.0,258,4843398.646015014,4931.0,324,2.0,3.0,4.0,"['A', 'B', 'C', 'D']",4272873.9635102,4725.444444444445,293.3333333333333,5,20,1978/02,42,blank,,False,,,POINT Z (22.2182205 114.2126492 0),22.218220499999997,114.21264920000002
11,130 STANLEY MAIN ST|130 赤柱大街,HSL,,,179,,,179,,,179,3.0,4.0,5.0,['A'],,,179.0,3,3,1992/11,28,blank,,False,,,POINT Z (22.2186923 114.2107454 0),22.2186923,114.21074540000001
12,"STANLEY COURT,STANLEY MOUND RD|海灣園,赤柱崗道",HSL,92529843.01095876,14868.0,2049,92529843.01095876,14868.0,2049,112979814.36531201,26691.0,2199,0.0,0.0,0.0,"['10', '17', '23', '25', '6']",102480923.43312159,17841.25,2112.4,1,5,1988/06,32,blank,,False,,,POINT Z (22.2214144 114.2116043 0),22.221414399999997,114.2116043
13,39 TUNG TAU WAN RD|39 東頭灣道,HSL,,,1618,,,1618,,,1656,0.0,0.0,0.0,"['B', 'C']",,,1637.0,1,2,1979/05,41,blank,,False,,,POINT Z (22.2131519 114.2176357 0),22.213151899999996,114.2176357
14,12 STANLEY MARKET RD|12 赤柱市場道,HSL,,,249,,,249,,,249,0.0,1.0,2.0,"['F.P.', 'R.P.']",,,249.0,3,6,1969/10,51,blank,,False,,,POINT Z (22.2189681 114.2119525 0),22.2189681,114.2119525
15,"LUNG TAK COURT(Block B),CAPE RD|龍德苑B座,環角道",HSL,2816792.033876405,10863.0,214,2977777.787176188,11392.0,214,7968240.0,15120.0,527,2.0,4.0,7.0,"['1', '10', '11', '12', '13', '14', '15', '16', '17', '18', '19', '2', '20', '21', '22', '23', '24', '25', '26', '28', '29', '31', '32', '33', '34', '4', '5', '6', '7', '8', '9']",5759910.069683053,13552.612903225809,414.22580645161287,10,310,2000/08,20,LUNG TAK COURT,龍德苑,True,4.0,1001.0,POINT Z (22.2200515 114.2086321 0),22.2200515,114.2086321
16,"LUNG TAK COURT(Block D),CAPE RD|龍德苑D座,環角道",HSL,3075469.9964435776,12187.0,214,3258241.5710588587,12915.0,214,7463940.0,15141.0,527,1.0,4.0,6.0,"['1', '10', '12', '13', '14', '15', '16', '17', '18', '19', '20', '21', '22', '23', '24', '26', '27', '29', '31', '33', '34', '5', '6', '7', '8']",5331270.647694843,13449.213333333333,395.88,8,200,2000/08,20,LUNG TAK COURT,龍德苑,True,4.0,1001.0,POINT Z (22.2200515 114.2086321 0),22.2200515,114.2086321
17,"LUNG TAK COURT(Block A),CAPE RD|龍德苑A座,環角道",HSL,2448934.4347564937,6638.0,214,2582116.9190811543,6999.0,214,8146049.7172028385,14820.0,632,2.0,5.0,8.0,"['1', '11', '12', '13', '14', '15', '16', '17', '18', '2', '20', '21', '22', '23', '24', '25', '26', '27', '29', '3', '4', '6', '7', '8', '9']",5984280.4143527625,11961.361111111108,454.76,11,275,2000/08,20,LUNG TAK COURT,龍德苑,True,4.0,1001.0,POINT Z (22.2200515 114.2086321 0),22.2200515,114.2086321
18,"LUNG TAK COURT(Block C),CAPE RD|龍德苑C座,環角道",HSL,2272218.61760549,6159.0,214,2475497.1463115504,6710.0,214,7655729.0,15200.0,527,2.0,5.0,8.0,"['1', '10', '11', '13', '14', '16', '17', '18', '19', '2', '20', '21', '22', '23', '24', '26', '27', '29', '3', '30', '5', '6', '7', '8']",5470754.561557006,12368.012987012988,390.625,9,216,2000/08,20,LUNG TAK COURT,龍德苑,True,4.0,1001.0,POINT Z (22.2200515 114.2086321 0),22.2200515,114.2086321
19,"YAU WING LAU,STANLEY MAIN ST|友榮樓,赤柱大街",HSL,3166488.2216896727,12513.0,235,3294416.9648595755,13018.0,235,3907116.1312178494,14337.0,269,2.0,3.0,4.0,"['A', 'B', 'C', 'D']",3541809.0932824113,13179.333333333336,250.75,5,20,1978/09,42,blank,,False,,,POINT Z (22.2178206 114.2129743 0),22.2178206,114.2129743
20,18 STANLEY MAIN ST|18 赤柱大街,HSL,,,346,,,346,,,374,3.0,4.0,5.0,"['A', 'B', 'C']",,,357.0,3,9,1974/03,46,blank,,False,,,POINT Z (22.2186923 114.2107454 0),22.2186923,114.21074540000001
21,58 STANLEY MAIN ST|58 赤柱大街,HSL,,,283,,,283,,,283,3.0,4.0,4.0,['whole floor'],,,283.0,2,2,1979/09,41,blank,,False,,,POINT Z (22.2186923 114.2107454 0),22.2186923,114.21074540000001
