,final_address,district,lowZone_value,lowZone_npsf_min,lowZone_nfa_min,midZone_value,midZone_npsf_min,midZone_nfa_min,highZone_value,highZone_npsf_max,highZone_nfa_max,oneSixth_floor,middle_floor,fifthSixth_floor,unit_list,value_avg,npsf_avg,unitSize_avg,noStorey,noFlat,op_date,bldgAge,est_name_en,est_name_ch,est_orNot,est_bldgNo,est_flatNo,final_coords,lat,long
0,"BEACH POINTE,STANLEY BEACH RD|海灣閣,赤柱灘道",HSL,29786822.95913515,12205.0,1070.0,30433566.759558808,12470.0,1187.0,44230435.488845184,19125.0,1545.0,1,2,2,"['A', 'B', 'C', 'D', 'E', 'F']",37084291.9889902,15692.833333333334,1346.5,4,24,1988/04,35,blank,,False,,,POINT Z (22.2212998 114.213578 0),22.2212998,114.213578
1,"YAU SHING LAU,STANLEY MAIN ST|友誠樓,赤柱大街",HSL,3359405.920208631,5733.0,285.0,2851553.6253664466,5868.0,258.0,4114890.5962082883,12961.0,324.0,2,3,4,"['A', 'B', 'C', 'D']",3511441.858781198,7817.5,293.3333333333333,5,20,1978/02,45,blank,,False,,,POINT Z (22.2182205 114.2126492 0),22.218220499999997,114.21264920000002
2,"REALFOUND MANSION,STANLEY MAIN ST|倫輝樓,赤柱大街",HSL,3370710.836552522,13568.0,282.0,3422881.331516852,13778.0,282.0,3919084.2296872134,14078.0,316.0,3,4,4,"['A', 'B', 'C']",3668811.603918473,13830.777777777776,301.0,4,12,1988/12,35,blank,,False,,,POINT Z (22.2177405 114.2132065 0),22.2177405,114.2132065
3,"PARISIAN,STANLEY MOUND RD|海寧雅舍,赤柱崗道",HSL,22512928.81991935,16479.0,1372.0,23306667.0106089,17060.0,1372.0,26057387.67480562,17252.0,1518.0,1,2,2,"['B', 'C', 'D', 'F']",24432596.9928643,17301.666666666668,1434.5,4,16,1989/12,34,blank,,False,,,POINT Z (22.221644 114.212829 0),22.221644,114.212829
4,"TALLOWAY COURT,STANLEY MAIN ST|德偉閣,赤柱大街",HSL,6088698.0,14707.0,414.0,6390504.0,15436.0,414.0,9440248.71141843,19268.0,414.0,2,5,8,"['A', 'B']",7690962.218418043,16894.166666666668,414.0,9,18,1977/04,46,blank,,False,,,POINT Z (22.2186952 114.2113797 0),22.2186952,114.21137970000001
5,"SEA AND SKY COURT,STANLEY MAIN ST|海天別墅,赤柱大街",HSL,,,1510.0,,,1510.0,,,1510.0,2,6,8,"['A', 'B']",,,1518.3333333333333,8,16,1966/07,57,blank,,False,,,POINT Z (22.2188014 114.2107976 0),22.2188014,114.2107976
6,"NEW TOWN MANSION,STANLEY MAIN ST|新城樓,赤柱大街",HSL,,,395.0,,,395.0,,,551.0,2,3,4,"['A', 'B', 'C']",,,458.6666666666667,5,15,1976/07,47,blank,,False,,,POINT Z (22.217542 114.213198 0),22.217542,114.21319799999999
7,"LUNG TAN HSE(Block B,LUNG YAN COURT),CAPE RD|龍欣苑,B座(龍騰閣),環角道",HSL,3945264.120235256,9279.0,427.0,4374908.079149111,10194.0,427.0,7698284.223766039,12080.0,640.0,2,6,9,"['1', '10', '11', '12', '13', '15', '16', '2', '3', '5', '6', '7', '8', '9']",5522872.503357372,10685.77156177156,511.5714285714286,12,168,1993/12,30,LUNG YAN COURT,龍欣苑,True,2.0,336.0,POINT Z (22.220921 114.205434 0),22.220921,114.20543400000001
8,"LUNG CHUN HSE(Block A,LUNG YAN COURT),CAPE RD|龍欣苑,A座(龍駿閣),環角道",HSL,4031574.0,9354.0,427.0,4353962.0,10102.0,427.0,7895040.0,12336.0,640.0,2,6,9,"['1', '10', '11', '12', '13', '14', '15', '16', '2', '3', '4', '6', '8', '9']",5770454.738095239,11406.57142857143,503.85714285714283,12,168,1993/12,30,LUNG YAN COURT,龍欣苑,True,2.0,336.0,POINT Z (22.2219581 114.2053813 0),22.221958100000002,114.20538130000001
9,130 STANLEY MAIN ST|130 赤柱大街,HSL,,,179.0,,,179.0,,,179.0,3,4,5,['A'],,,179.0,3,3,1992/11,31,blank,,False,,,POINT Z (22.2186923 114.2107454 0),22.2186923,114.21074540000001
10,"LUNG TAK COURT(Block B),CAPE RD|龍德苑B座,環角道",HSL,2248409.2927767625,8878.0,214.0,2551100.1872364427,10477.0,214.0,7349542.0,13946.0,527.0,2,4,7,"['1', '10', '11', '12', '13', '14', '15', '16', '17', '18', '19', '2', '20', '21', '22', '23', '24', '25', '26', '28', '29', '3', '31', '32', '33', '34', '4', '5', '6', '7', '8', '9']",5261081.190907908,12491.510416666666,414.4375,10,320,2000/08,23,LUNG TAK COURT,龍德苑,True,4.0,1001.0,POINT Z (22.2200515 114.2086321 0),22.2200515,114.2086321
11,"LUNG TAK COURT(Block D),CAPE RD|龍德苑D座,環角道",HSL,2622271.8763892134,10879.0,214.0,2778039.854744529,11441.0,214.0,6592770.0,13622.0,527.0,1,4,6,"['1', '10', '12', '13', '14', '15', '16', '17', '18', '19', '20', '21', '22', '23', '24', '26', '27', '29', '31', '33', '34', '5', '6', '7', '8']",4680007.094321228,11959.106666666667,395.87999999999994,8,200,2000/08,23,LUNG TAK COURT,龍德苑,True,4.0,1001.0,POINT Z (22.2200515 114.2086321 0),22.2200515,114.2086321
12,"LUNG TAK COURT(Block A),CAPE RD|龍德苑A座,環角道",HSL,2091790.7705081806,6530.0,214.0,2206150.5415757797,6887.0,214.0,8499051.110409904,15265.0,632.0,2,5,8,"['1', '11', '12', '13', '14', '15', '16', '17', '18', '2', '20', '21', '22', '23', '24', '25', '26', '27', '29', '3', '4', '6', '7', '8', '9']",3588365.260580798,8440.252380952383,454.76,11,275,2000/08,23,LUNG TAK COURT,龍德苑,True,4.0,1001.0,POINT Z (22.2200515 114.2086321 0),22.2200515,114.2086321
13,"LUNG TAK COURT(Block C),CAPE RD|龍德苑C座,環角道",HSL,1943155.101669621,6066.0,214.0,2117097.274469918,6609.0,214.0,6892033.363928867,14845.0,527.0,2,5,8,"['1', '10', '11', '13', '14', '16', '17', '18', '19', '2', '20', '21', '22', '23', '24', '25', '26', '27', '29', '3', '30', '5', '6', '7', '8']",4493641.895872715,11421.462222222222,396.08,9,225,2000/08,23,LUNG TAK COURT,龍德苑,True,4.0,1001.0,POINT Z (22.2200515 114.2086321 0),22.2200515,114.2086321
14,"YAU WING LAU,STANLEY MAIN ST|友榮樓,赤柱大街",HSL,3122915.0,13289.0,235.0,3250519.9999999995,13832.0,235.0,3564636.0,16090.0,269.0,2,3,4,"['A', 'B', 'C', 'D']",3417708.1539429277,14868.444444444445,250.75,5,20,1978/09,45,blank,,False,,,POINT Z (22.2178206 114.2129743 0),22.2178206,114.2129743
15,18 STANLEY MAIN ST|18 赤柱大街,HSL,,,346.0,,,346.0,,,374.0,3,4,5,"['A', 'B', 'C']",,,357.0,3,9,1974/03,49,blank,,False,,,POINT Z (22.2186923 114.2107454 0),22.2186923,114.21074540000001
16,58 STANLEY MAIN ST|58 赤柱大街,HSL,,,283.0,,,283.0,,,283.0,3,4,4,['whole floor'],,,283.0,2,2,1979/09,44,blank,,False,,,POINT Z (22.2186923 114.2107454 0),22.2186923,114.21074540000001
