,final_address,district,lowZone_value,lowZone_npsf_min,lowZone_nfa_min,midZone_value,midZone_npsf_min,midZone_nfa_min,highZone_value,highZone_npsf_max,highZone_nfa_max,oneSixth_floor,middle_floor,fifthSixth_floor,unit_list,value_avg,npsf_avg,unitSize_avg,noStorey,noFlat,op_date,bldgAge,est_name_en,est_name_ch,est_orNot,est_bldgNo,est_flatNo,final_coords,lat,long
0,"CARMEL HILL,CARMEL RD|海明山,佳美道",HSL,78088681.67046458,13708.0,1974.0,78088681.67046458,13708.0,1974.0,84635959.39400786,14602.0,2024.0,0.0,0.0,0.0,"['1', '11', '12', '13', '14', '15', '17', '18', '2', '20', '21', '4', '5', '6', '8', '9']",80490634.90503624,14003.0625,1991.75,1,16,1992/03,29,blank,,False,,,POINT Z (22.2199239 114.2110354 0),22.219923899999998,114.2110354
1,"BEACH POINTE,STANLEY BEACH RD|海灣閣,赤柱灘道",HSL,36254957.217087165,10584.0,1070.0,37323697.4525115,10896.0,1187.0,37323697.4525115,10896.0,1545.0,1.0,2.0,2.0,"['A', 'B', 'C', 'D', 'E', 'F']",36967450.70737005,10792.0,1345.6666666666667,4,24,1988/04,33,blank,,False,,,POINT Z (22.2212998 114.213578 0),22.2212998,114.213578
2,"PARISIAN,STANLEY MOUND RD|海寧雅舍,赤柱崗道",HSL,27028099.094631918,6164.0,1372.0,27783660.634352338,6388.0,1372.0,33762825.30604785,19048.0,1518.0,1.0,2.0,2.0,"['B', 'C', 'D', 'F']",30160864.19064277,9832.22222222222,1434.5,4,16,1989/12,32,blank,,False,,,POINT Z (22.221644 114.212829 0),22.221644,114.212829
3,"GORDON TERR,CARMEL RD|歌敦臺,佳美道",HSL,55206863.88553442,14234.0,1344.0,57421499.21493164,14805.0,1344.0,58627719.15791332,15116.0,1344.0,0.0,1.0,2.0,"['6', '8', '8A', 'whole floor']",57211412.67609507,14750.833333333334,1344.0,3,12,1964/05,57,blank,,False,,,POINT Z (22.2200148 114.2116521 0),22.2200148,114.2116521
4,"TALLOWAY COURT,STANLEY MAIN ST|德偉閣,赤柱大街",HSL,9727213.55833899,18783.0,414.0,9686301.570312114,18704.0,414.0,10133226.199010756,19567.0,414.0,2.0,5.0,8.0,"['A', 'B']",9848913.775887286,19018.0,414.0,9,18,1977/04,44,blank,,False,,,POINT Z (22.2186952 114.2113797 0),22.2186952,114.21137970000001
5,"SEA AND SKY COURT,STANLEY MAIN ST|海天別墅,赤柱大街",HSL,,,1510.0,,,1510.0,,,1560.0,2.0,6.0,8.0,"['A', 'B']",,,1535.0,8,16,1966/07,55,blank,,False,,,POINT Z (22.2188014 114.2107976 0),22.2188014,114.2107976
6,"NEW TOWN MANSION,STANLEY MAIN ST|新城樓,赤柱大街",HSL,,,395.0,,,395.0,,,551.0,2.0,3.0,4.0,"['A', 'B', 'C']",,,458.6666666666667,5,15,1976/07,45,blank,,False,,,POINT Z (22.217542 114.213198 0),22.217542,114.21319799999999
7,"LUNG TAN HSE(Block B,LUNG YAN COURT),CAPE RD|龍欣苑,B座(龍騰閣),環角道",HSL,4512504.730468885,10165.0,427.0,4928030.620770247,10998.0,427.0,8728306.989646507,13118.0,640.0,2.0,6.0,9.0,"['1', '10', '11', '12', '13', '15', '16', '2', '3', '5', '6', '7', '8', '9']",6243386.39043102,11568.822843822845,511.5714285714286,12,168,1993/12,28,LUNG YAN COURT,龍欣苑,True,2.0,336.0,POINT Z (22.220921 114.205434 0),22.220921,114.20543400000001
8,"LUNG CHUN HSE(Block A,LUNG YAN COURT),CAPE RD|龍欣苑,A座(龍駿閣),環角道",HSL,4832786.0,11318.0,427.0,5004867.0,11721.0,427.0,8920320.0,13938.0,640.0,2.0,6.0,9.0,"['1', '10', '11', '12', '13', '14', '15', '16', '2', '3', '4', '6', '8', '9']",6286445.595238096,12430.880952380952,503.85714285714283,12,168,1993/12,28,LUNG YAN COURT,龍欣苑,True,2.0,336.0,POINT Z (22.2219581 114.2053813 0),22.221958100000002,114.20538130000001
9,"REALFOUND MANSION,STANLEY MAIN ST|倫輝樓,赤柱大街",HSL,4084109.526963445,8269.0,282.0,4160664.9722022084,8424.0,282.0,4160664.9722022084,8424.0,316.0,3.0,4.0,4.0,"['A', 'B', 'C']",4135146.490455954,8372.333333333334,301.0,4,12,1988/12,33,blank,,False,,,POINT Z (22.2177405 114.2132065 0),22.2177405,114.2132065
10,"YAU SHING LAU,STANLEY MAIN ST|友誠樓,赤柱大街",HSL,3890208.2236077236,4730.0,285.0,3541764.692765922,4757.0,258.0,4779722.709293268,5112.0,324.0,2.0,3.0,4.0,"['A', 'B', 'C', 'D']",4135357.763286158,4880.583333333333,293.3333333333333,5,20,1978/02,43,blank,,False,,,POINT Z (22.2182205 114.2126492 0),22.218220499999997,114.21264920000002
11,130 STANLEY MAIN ST|130 赤柱大街,HSL,,,179.0,,,179.0,,,179.0,3.0,4.0,5.0,['A'],,,179.0,3,3,1992/11,29,blank,,False,,,POINT Z (22.2186923 114.2107454 0),22.2186923,114.21074540000001
12,"STANLEY COURT,STANLEY MOUND RD|海灣園,赤柱崗道",HSL,96177311.8727585,13745.0,2049.0,96177311.8727585,13745.0,2049.0,111380939.81708463,15725.0,2199.0,0.0,0.0,0.0,"['10', '17', '23', '25', '6']",103153757.40246616,14785.799999999997,2112.4,1,5,1988/06,33,blank,,False,,,POINT Z (22.2214144 114.2116043 0),22.221414399999997,114.2116043
13,39 TUNG TAU WAN RD|39 東頭灣道,HSL,,,1618.0,,,1618.0,,,1656.0,0.0,0.0,0.0,"['B', 'C']",,,1637.0,1,2,1979/05,42,blank,,False,,,POINT Z (22.2131519 114.2176357 0),22.213151899999996,114.2176357
14,12 STANLEY MARKET RD|12 赤柱市場道,HSL,,,249.0,,,249.0,,,249.0,0.0,1.0,2.0,"['F.P.', 'R.P.']",,,249.0,3,6,1969/10,52,blank,,False,,,POINT Z (22.2189681 114.2119525 0),22.2189681,114.2119525
15,"LUNG TAK COURT(Block B),CAPE RD|龍德苑B座,環角道",HSL,2889477.6412610956,10794.0,214.0,2956400.877347373,11044.0,214.0,7841760.0,14880.0,527.0,2.0,4.0,7.0,"['1', '10', '11', '12', '13', '14', '15', '16', '17', '18', '19', '2', '20', '21', '22', '23', '24', '25', '26', '28', '29', '31', '32', '33', '34', '4', '5', '6', '7', '8', '9']",5685417.832418243,13225.096774193547,414.2258064516129,10,310,2000/08,21,LUNG TAK COURT,龍德苑,True,4.0,1001.0,POINT Z (22.2200515 114.2086321 0),22.2200515,114.2086321
16,"LUNG TAK COURT(Block D),CAPE RD|龍德苑D座,環角道",HSL,2838615.9818355255,7709.0,214.0,3050938.535532285,8140.0,214.0,7347168.0,14979.0,527.0,1.0,4.0,6.0,"['1', '10', '12', '13', '14', '15', '16', '17', '18', '19', '20', '21', '22', '23', '24', '26', '27', '29', '31', '33', '34', '5', '6', '7', '8']",5214864.453626029,12466.24,395.87999999999994,8,200,2000/08,21,LUNG TAK COURT,龍德苑,True,4.0,1001.0,POINT Z (22.2200515 114.2086321 0),22.2200515,114.2086321
17,"LUNG TAK COURT(Block A),CAPE RD|龍德苑A座,環角道",HSL,2535202.4882482034,6764.0,214.0,2648769.3649393925,7067.0,214.0,8028513.74581945,14599.0,632.0,2.0,5.0,8.0,"['1', '11', '12', '13', '14', '15', '16', '17', '18', '2', '20', '21', '22', '23', '24', '25', '26', '27', '29', '3', '4', '6', '7', '8', '9']",5895826.1980332965,12055.263888888889,454.76,11,275,2000/08,21,LUNG TAK COURT,龍德苑,True,4.0,1001.0,POINT Z (22.2200515 114.2086321 0),22.2200515,114.2086321
18,"LUNG TAK COURT(Block C),CAPE RD|龍德苑C座,環角道",HSL,2241727.6880858224,5981.0,214.0,2442250.0611214214,6516.0,214.0,7539789.0,14951.0,527.0,2.0,5.0,8.0,"['1', '10', '11', '13', '14', '16', '17', '18', '19', '2', '20', '21', '22', '23', '24', '26', '27', '29', '3', '30', '5', '6', '7', '8']",5383616.581538434,12153.911976911977,390.625,9,216,2000/08,21,LUNG TAK COURT,龍德苑,True,4.0,1001.0,POINT Z (22.2200515 114.2086321 0),22.2200515,114.2086321
19,"YAU WING LAU,STANLEY MAIN ST|友榮樓,赤柱大街",HSL,3236363.8952155304,12706.0,235.0,3367030.877605391,13219.0,235.0,3846153.542754606,14671.0,269.0,2.0,3.0,4.0,"['A', 'B', 'C', 'D']",3482892.2506165057,13697.444444444445,250.75,5,20,1978/09,43,blank,,False,,,POINT Z (22.2178206 114.2129743 0),22.2178206,114.2129743
20,18 STANLEY MAIN ST|18 赤柱大街,HSL,,,346.0,,,346.0,,,374.0,3.0,4.0,5.0,"['A', 'B', 'C']",,,357.0,3,9,1974/03,47,blank,,False,,,POINT Z (22.2186923 114.2107454 0),22.2186923,114.21074540000001
21,58 STANLEY MAIN ST|58 赤柱大街,HSL,,,283.0,,,283.0,,,283.0,3.0,4.0,4.0,['whole floor'],,,283.0,2,2,1979/09,42,blank,,False,,,POINT Z (22.2186923 114.2107454 0),22.2186923,114.21074540000001
