,final_address,district,lowZone_value,lowZone_npsf_min,lowZone_nfa_min,midZone_value,midZone_npsf_min,midZone_nfa_min,highZone_value,highZone_npsf_max,highZone_nfa_max,oneSixth_floor,middle_floor,fifthSixth_floor,unit_list,value_avg,npsf_avg,unitSize_avg,noStorey,noFlat,op_date,bldgAge,est_name_en,est_name_ch,est_orNot,est_bldgNo,est_flatNo,final_coords,lat,long
0,"CARMEL HILL,CARMEL RD|海明山,佳美道",HSL,,,1974.0,,,1974.0,,,2024.0,0.0,0.0,0.0,"['1', '11', '12', '13', '14', '15', '17', '18', '2', '20', '21', '4', '5', '6', '8', '9']",,,1991.75,1,16,1992/03,29,blank,,False,,,POINT Z (22.2199239 114.2110354 0),22.219923899999998,114.2110354
1,"BEACH POINTE,STANLEY BEACH RD|海灣閣,赤柱灘道",HSL,,,1070.0,,,1187.0,,,1545.0,1.0,2.0,2.0,"['A', 'B', 'C', 'D', 'E', 'F']",,,1345.6666666666667,4,24,1988/04,33,blank,,False,,,POINT Z (22.2212998 114.213578 0),22.2212998,114.213578
2,"PARISIAN,STANLEY MOUND RD|海寧雅舍,赤柱崗道",HSL,,,1372.0,,,1372.0,,,1518.0,1.0,2.0,2.0,"['B', 'C', 'D', 'F']",,,1434.5,4,16,1989/12,32,blank,,False,,,POINT Z (22.221644 114.212829 0),22.221644,114.212829
3,"GORDON TERR,CARMEL RD|歌敦臺,佳美道",HSL,,,1344.0,,,1344.0,,,1344.0,0.0,1.0,2.0,"['6', '8', '8A', 'whole floor']",,,1344.0,3,12,1964/05,57,blank,,False,,,POINT Z (22.2200148 114.2116521 0),22.2200148,114.2116521
4,"TALLOWAY COURT,STANLEY MAIN ST|德偉閣,赤柱大街",HSL,,,414.0,,,414.0,,,414.0,2.0,5.0,8.0,"['A', 'B']",,,414.0,9,18,1977/04,44,blank,,False,,,POINT Z (22.2186952 114.2113797 0),22.2186952,114.21137970000001
5,"SEA AND SKY COURT,STANLEY MAIN ST|海天別墅,赤柱大街",HSL,,,1510.0,,,1510.0,,,1560.0,2.0,6.0,8.0,"['A', 'B']",,,1535.0,8,16,1966/07,55,blank,,False,,,POINT Z (22.2188014 114.2107976 0),22.2188014,114.2107976
6,"NEW TOWN MANSION,STANLEY MAIN ST|新城樓,赤柱大街",HSL,,,395.0,,,395.0,,,551.0,2.0,3.0,4.0,"['A', 'B', 'C']",,,458.6666666666667,5,15,1976/07,45,blank,,False,,,POINT Z (22.217542 114.213198 0),22.217542,114.21319799999999
7,"LUNG TAN HSE(Block B,LUNG YAN COURT),CAPE RD|龍欣苑,B座(龍騰閣),環角道",HSL,,,427.0,,,427.0,,,640.0,2.0,6.0,9.0,"['1', '10', '11', '12', '13', '15', '16', '2', '3', '5', '6', '7', '8', '9']",,,511.5714285714286,12,168,1993/12,28,LUNG YAN COURT,龍欣苑,True,2.0,336.0,POINT Z (22.220921 114.205434 0),22.220921,114.20543400000001
8,"LUNG CHUN HSE(Block A,LUNG YAN COURT),CAPE RD|龍欣苑,A座(龍駿閣),環角道",HSL,,,427.0,,,427.0,,,640.0,2.0,6.0,9.0,"['1', '10', '11', '12', '13', '14', '15', '16', '2', '3', '4', '6', '8', '9']",,,503.85714285714283,12,168,1993/12,28,LUNG YAN COURT,龍欣苑,True,2.0,336.0,POINT Z (22.2219581 114.2053813 0),22.221958100000002,114.20538130000001
9,"REALFOUND MANSION,STANLEY MAIN ST|倫輝樓,赤柱大街",HSL,,,282.0,,,282.0,,,316.0,3.0,4.0,4.0,"['A', 'B', 'C']",,,301.0,4,12,1988/12,33,blank,,False,,,POINT Z (22.2177405 114.2132065 0),22.2177405,114.2132065
10,"YAU SHING LAU,STANLEY MAIN ST|友誠樓,赤柱大街",HSL,,,285.0,,,258.0,,,324.0,2.0,3.0,4.0,"['A', 'B', 'C', 'D']",,,293.3333333333333,5,20,1978/02,43,blank,,False,,,POINT Z (22.2182205 114.2126492 0),22.218220499999997,114.21264920000002
11,130 STANLEY MAIN ST|130 赤柱大街,HSL,,,179.0,,,179.0,,,179.0,3.0,4.0,5.0,['A'],,,179.0,3,3,1992/11,29,blank,,False,,,POINT Z (22.2186923 114.2107454 0),22.2186923,114.21074540000001
12,"STANLEY COURT,STANLEY MOUND RD|海灣園,赤柱崗道",HSL,,,2049.0,,,2049.0,,,2199.0,0.0,0.0,0.0,"['10', '17', '23', '25', '6']",,,2112.4,1,5,1988/06,33,blank,,False,,,POINT Z (22.2214144 114.2116043 0),22.221414399999997,114.2116043
13,39 TUNG TAU WAN RD|39 東頭灣道,HSL,,,1618.0,,,1618.0,,,1656.0,0.0,0.0,0.0,"['B', 'C']",,,1637.0,1,2,1979/05,42,blank,,False,,,POINT Z (22.2131519 114.2176357 0),22.213151899999996,114.2176357
14,12 STANLEY MARKET RD|12 赤柱市場道,HSL,,,249.0,,,249.0,,,249.0,0.0,1.0,2.0,"['F.P.', 'R.P.']",,,249.0,3,6,1969/10,52,blank,,False,,,POINT Z (22.2189681 114.2119525 0),22.2189681,114.2119525
15,"LUNG TAK COURT(Block B),CAPE RD|龍德苑B座,環角道",HSL,,,214.0,,,214.0,,,527.0,2.0,4.0,7.0,"['1', '10', '11', '12', '13', '14', '15', '16', '17', '18', '19', '2', '20', '21', '22', '23', '24', '25', '26', '28', '29', '31', '32', '33', '34', '4', '5', '6', '7', '8', '9']",,,414.2258064516129,10,310,2000/08,21,LUNG TAK COURT,龍德苑,True,4.0,1001.0,POINT Z (22.2200515 114.2086321 0),22.2200515,114.2086321
16,"LUNG TAK COURT(Block D),CAPE RD|龍德苑D座,環角道",HSL,,,214.0,,,214.0,,,527.0,1.0,4.0,6.0,"['1', '10', '12', '13', '14', '15', '16', '17', '18', '19', '20', '21', '22', '23', '24', '26', '27', '29', '31', '33', '34', '5', '6', '7', '8']",,,395.87999999999994,8,200,2000/08,21,LUNG TAK COURT,龍德苑,True,4.0,1001.0,POINT Z (22.2200515 114.2086321 0),22.2200515,114.2086321
17,"LUNG TAK COURT(Block A),CAPE RD|龍德苑A座,環角道",HSL,,,214.0,,,214.0,,,632.0,2.0,5.0,8.0,"['1', '11', '12', '13', '14', '15', '16', '17', '18', '2', '20', '21', '22', '23', '24', '25', '26', '27', '29', '3', '4', '6', '7', '8', '9']",,,454.76,11,275,2000/08,21,LUNG TAK COURT,龍德苑,True,4.0,1001.0,POINT Z (22.2200515 114.2086321 0),22.2200515,114.2086321
18,"LUNG TAK COURT(Block C),CAPE RD|龍德苑C座,環角道",HSL,,,214.0,,,214.0,,,527.0,2.0,5.0,8.0,"['1', '10', '11', '13', '14', '16', '17', '18', '19', '2', '20', '21', '22', '23', '24', '26', '27', '29', '3', '30', '5', '6', '7', '8']",,,390.625,9,216,2000/08,21,LUNG TAK COURT,龍德苑,True,4.0,1001.0,POINT Z (22.2200515 114.2086321 0),22.2200515,114.2086321
19,"YAU WING LAU,STANLEY MAIN ST|友榮樓,赤柱大街",HSL,,,235.0,,,235.0,,,269.0,2.0,3.0,4.0,"['A', 'B', 'C', 'D']",,,250.75,5,20,1978/09,43,blank,,False,,,POINT Z (22.2178206 114.2129743 0),22.2178206,114.2129743
20,18 STANLEY MAIN ST|18 赤柱大街,HSL,,,346.0,,,346.0,,,374.0,3.0,4.0,5.0,"['A', 'B', 'C']",,,357.0,3,9,1974/03,47,blank,,False,,,POINT Z (22.2186923 114.2107454 0),22.2186923,114.21074540000001
21,58 STANLEY MAIN ST|58 赤柱大街,HSL,,,283.0,,,283.0,,,283.0,3.0,4.0,4.0,['whole floor'],,,283.0,2,2,1979/09,42,blank,,False,,,POINT Z (22.2186923 114.2107454 0),22.2186923,114.21074540000001
