,final_address,district,lowZone_value,lowZone_npsf_min,lowZone_nfa_min,midZone_value,midZone_npsf_min,midZone_nfa_min,highZone_value,highZone_npsf_max,highZone_nfa_max,oneSixth_floor,middle_floor,fifthSixth_floor,unit_list,value_avg,npsf_avg,unitSize_avg,noStorey,noFlat,op_date,bldgAge,est_name_en,est_name_ch,est_orNot,est_bldgNo,est_flatNo,final_coords,lat,long
0,"FAIR WAY GARDEN(Block D),PEACE AVE|富威花園D座,太平道",KHMT,4431350.0,16114.0,274.0,4485117.0,16429.0,273.0,5092404.0,18042.0,284.0,8.0,16.0,23.0,"['1', '2', '3', '4']",4712316.0,17097.5,275.5833333333333,24,96,1984/10,37,FAIR WAY GARDEN,富威花園,True,3.0,276.0,POINT Z (22.3192831 114.1738234 0),22.3192831,114.17382340000002
1,"CHAMPION HSE,PEACE AVE|正平大廈,太平道",KHMT,8952300.0,15435.0,580.0,9524180.0,16421.0,580.0,12831700.000000002,18331.0,700.0,6.0,13.0,20.0,"['A', 'B', 'C', 'D', 'E', 'F']",10133726.666666666,16642.666666666668,603.3333333333334,20,120,1971/06,50,blank,,False,,,POINT Z (22.3181782 114.1741949 0),22.318178200000002,114.1741949
2,"PEACE GARDEN,PEACE AVE|太平花園,太平道",KHMT,4967840.000000001,15556.0,305.0,4681445.0,15349.0,305.0,6515100.0,19226.0,380.0,7.0,15.0,23.0,"['A', 'B', 'C', 'D']",5799881.666666667,16986.333333333332,342.5,25,100,1994/05,27,blank,,False,,,POINT Z (22.31788 114.1744272 0),22.31788,114.17442720000001
3,"YEE FU BLDG,VALLEY RD|怡富大廈,山谷道",KHMT,3963000.0,15852.0,250.0,3958000.0,15832.0,250.0,4604347.0,18199.0,253.0,5.0,13.0,21.0,"['A', 'B', 'C', 'D']",4215449.5,16760.25,251.5,25,100,1985/05,36,blank,,False,,,POINT Z (22.3097793 114.1834039 0),22.3097793,114.18340390000002
4,"HARRISON COURT(Phase 4),MAN WAN RD|恒信園4期,文運道",KHMT,9158514.025676684,11775.0,740.0,10936549.10531124,14061.0,740.0,11933980.0,16127.0,850.0,4.0,10.0,17.0,"['A', 'B', 'C', 'D']",11248935.029431323,14230.555555555555,767.5,20,80,1971/09,50,HARRISON COURT,恒信園,True,5.0,330.0,POINT Z (22.3187474 114.1780498 0),22.3187474,114.1780498
5,"PEACE BLDG(Block A),PEACE AVE|金富大廈A座,太平道",KHMT,6200127.0,14251.0,433.0,6398874.0,14778.0,433.0,7652645.000000001,16931.0,455.0,4.0,13.0,22.0,"['1', '2', '3', '4', 'A2', 'A3', 'A4']",6874960.80952381,15381.809523809521,447.0952380952381,27,189,1980/01,41,PEACE BLDG,金富大廈,True,2.0,373.0,POINT Z (22.318375 114.174056 0),22.318375,114.17405600000001
6,"PEACE BLDG(Block B),PEACE AVE|金富大廈B座,太平道",KHMT,6179343.000000001,14027.0,433.0,6535702.0,14756.0,433.0,7244055.0,16220.0,455.0,8.0,15.0,22.0,"['1', '2', '3', '4', 'B1', 'B2', 'B3', 'B4']",6683830.833333333,15041.083333333334,444.5,23,184,1980/01,41,PEACE BLDG,金富大廈,True,2.0,373.0,POINT Z (22.3193087 114.1735982 0),22.3193087,114.1735982
7,"PEACE TOWER,PEACE AVE|太平居,太平道",KHMT,5376637.0,16760.0,317.0,5735275.0,17647.0,317.0,6669634.0,20459.0,326.0,9.0,17.0,25.0,"['A', 'B', 'C', 'D']",5956170.833333333,18542.166666666668,321.25,23,92,1998/11,23,blank,,False,,,POINT Z (22.3189162 114.1738002 0),22.318916199999997,114.17380020000002
8,"TSAN YUNG MANSION,WATERLOO RD|曾榕大廈,窩打老道",KHMT,13393134.058840595,11207.0,802.0,12543385.61209881,11939.0,802.0,,,1090.0,3.0,7.0,10.0,"['A', 'B', 'C', 'D', 'E', 'F']",13251946.738759449,11728.75,970.0,11,66,1964/07,57,blank,,False,,,POINT Z (22.3172581 114.1749148 0),22.3172581,114.17491480000001
9,"PRINCE PARK,PRINCE EDWARD RD W|皇子花園,太子道西",KHMT,8362661.023925653,8687.0,482.0,8811197.911509862,9328.0,482.0,9688816.884200322,16052.0,515.0,4.0,8.0,12.0,"['A', 'B', 'C']",8975374.459814863,12110.166666666666,504.0,13,39,1993/08,28,blank,,False,,,POINT Z (22.3255227 114.1754489 0),22.325522699999997,114.1754489
10,"YEE KING BLDG,WATERLOO RD|怡景大廈,窩打老道",KHMT,5122264.0,13041.0,392.0,5529159.999999999,13958.0,392.0,7352179.999999999,16565.0,470.0,5.0,13.0,21.0,"['A', 'B', 'C', 'D', 'E', 'F']",6450649.444444445,14608.055555555557,441.5555555555556,24,144,1977/03,44,blank,,False,,,POINT Z (22.3183083 114.1747523 0),22.3183083,114.17475230000001
11,"MANDARIN GARDEN,MAN FUK RD|仁華園,文福道",KHMT,10358920.0,14429.0,715.0,10765755.0,15009.0,715.0,11365167.000000002,15851.0,724.0,4.0,9.0,15.0,"['A', 'B', 'C', 'D']",10920416.666666666,15130.583333333334,721.8333333333334,17,68,1966/05,55,blank,,False,,,POINT Z (22.3194819 114.1775389 0),22.3194819,114.1775389
12,"MAN KEE MANSION,WATERLOO RD|萬基大廈,窩打老道",KHMT,9160500.0,11625.0,772.0,9560448.0,12317.0,773.0,11281994.0,13613.0,838.0,9.0,16.0,22.0,"['A', 'B', 'C', 'D', 'E', 'F', 'G', 'H']",10089449.0,12716.75,793.2083333333334,20,160,1966/05,55,blank,,False,,,POINT Z (22.3199514 114.1769119 0),22.3199514,114.1769119
13,"MENON MANSION,HO MAN TIN ST|文安大廈,何文田街",KHMT,4903230.0,17895.0,271.0,5062698.0,18477.0,271.0,5470136.0,19964.0,274.0,3.0,6.0,10.0,"['A', 'B', 'C', 'D']",5150898.5,18902.5,272.5,12,48,1980/10,41,blank,,False,,,POINT Z (22.3164748 114.1752516 0),22.3164748,114.17525159999998
14,"MANDARIN COURT(Block 4),ARGYLE ST|翠華大廈4座,亞皆老街",KHMT,10943240.0,11704.0,935.0,11200365.0,11979.0,935.0,24568000.0,13280.0,1850.0,3.0,6.0,10.0,"['A', 'A & B', 'B', 'C', 'D']",15488319.666666666,12377.800000000001,1242.6666666666667,12,60,1961/12,60,MANDARIN COURT,翠華大廈,True,3.0,156.0,POINT Z (22.3214855 114.1789322 0),22.3214855,114.17893219999999
15,"ORIENTAL GARDEN(Block C),PRINCE EDWARD RD W|東方花園C座,太子道西",KHMT,11795633.418499447,4538.0,905.0,12414267.343929784,4776.0,905.0,16025301.263410347,11150.0,1065.0,3.0,6.0,10.0,"['C1', 'C2', 'C3', 'C4', 'D1', 'D4']",14373746.241172304,7615.416666666667,985.0,12,72,1967/01,54,ORIENTAL GARDEN,東方花園,True,2.0,116.0,POINT Z (22.3257145 114.1760295 0),22.3257145,114.1760295
16,"PERTH APTS(Block B1),PERTH ST|巴富洋樓B1座,巴富街",KHMT,19020960.0,15984.0,1190.0,19612390.0,16481.0,1190.0,20475140.0,17206.0,1190.0,3.0,6.0,10.0,"['A', 'B', 'C', 'D']",19712449.166666668,16565.083333333332,1190.0,12,48,1974/12,47,PERTH APTS,巴富洋樓,True,3.0,144.0,POINT Z (22.3219259 114.1811151 0),22.3219259,114.18111509999999
17,"PERTH APTS(Block B3),PERTH ST|巴富洋樓B3座,巴富街",KHMT,22458072.0,16562.0,1356.0,22990980.000000004,16955.0,1356.0,24745643.999999996,18249.0,1356.0,3.0,6.0,10.0,"['A', 'B', 'C', 'D']",23435522.0,17282.833333333332,1356.0,12,48,1974/02,47,PERTH APTS,巴富洋樓,True,3.0,144.0,POINT Z (22.3219259 114.1811151 0),22.3219259,114.18111509999999
18,"GREENFIELD TERR(Block B),HO MAN TIN HILL RD|嘉輝臺B座,何文田山道",KHMT,12687151.211276185,11834.0,932.0,12801003.307364013,12188.0,932.0,15240383.266793834,15263.0,1020.0,5.0,11.0,18.0,"['1', '2', '3']",13709912.147199722,13429.833333333334,969.5555555555557,19,57,1978/11,43,GREENFIELD TERR,嘉輝臺,True,2.0,201.0,POINT Z (22.313525 114.1766212 0),22.313525,114.1766212
19,"SPRING HEIGHTS,BOUNDARY ST|春秋閣,界限街",KHMT,11818324.760508455,14233.0,790.0,12299925.853819417,14813.0,790.0,12976658.424592577,15628.0,790.0,3.0,8.0,13.0,"['A', 'B']",12407040.579745477,14942.0,790.0,15,30,1973/08,48,blank,,False,,,POINT Z (22.3267123 114.177028 0),22.3267123,114.177028
20,"CLASSIC MANSION,SOARES AVE|典雅大廈,梭椏道",KHMT,4798112.0,13948.0,344.0,5386695.999999999,15659.0,344.0,5402176.0,15704.0,344.0,6.0,12.0,19.0,"['A', 'B']",5218938.666666667,15171.333333333334,344.0,20,40,1992/10,29,blank,,False,,,POINT Z (22.3192472 114.1749497 0),22.3192472,114.1749497
21,"KIN FUNG COURT,VICTORY AVE|建豐閣,勝利道",KHMT,5804739.0,15731.0,369.0,6099569.999999999,16530.0,369.0,6585174.0,17846.0,369.0,6.0,13.0,20.0,"['A', 'B']",6200676.0,16804.0,369.0,23,46,1994/09,27,blank,,False,,,POINT Z (22.3198167 114.1741717 0),22.319816699999997,114.17417169999999
22,"SUNVIEW GARDEN,SHEUNG SHING ST|日麗園,常盛街",KHMT,18273093.250610467,12418.0,1400.0,19080947.026950065,12967.0,1400.0,20074209.86671187,13642.0,1400.0,5.0,11.0,18.0,"['A', 'B']",19233002.07896298,13070.333333333334,1400.0,19,38,1974/10,47,blank,,False,,,POINT Z (22.3196636 114.1844706 0),22.319663600000002,114.1844706
23,"HANNOVER COURT,WATERLOO RD|恒懋大樓,窩打老道",KHMT,14895484.570244165,11909.0,1150.0,15203175.32549482,12155.0,1150.0,17218110.0,14469.0,1190.0,3.0,6.0,10.0,"['89', 'whole floor']",15824144.307592139,13142.166666666666,1176.6666666666667,12,24,1963/03,58,blank,,False,,,POINT Z (22.3245021 114.1780498 0),22.3245021,114.1780498
24,"TAK WAI MANSION(Block 1),MAN FUK RD|德威大廈1座,文福道",KHMT,8494787.41720957,11272.0,717.0,8819596.978673136,11703.0,717.0,10099994.762725571,13402.0,717.0,4.0,8.0,14.0,"['A', 'B', 'C', 'D']",9336202.441279342,12388.5,717.0,16,64,1965/07,56,TAK WAI MANSION,德威大廈,True,2.0,132.0,POINT Z (22.3192642 114.1781475 0),22.3192642,114.17814750000001
25,"PRINCE'S HEIGHTS(Phase 1),PRINCE EDWARD RD W|太子閣1期,太子道西",KHMT,14880200.0,13830.0,940.0,15084180.0,13942.0,940.0,19143353.363297172,16572.0,1149.0,3.0,6.0,10.0,"['A', 'B', 'C', 'D']",16835722.338501006,15278.0,1037.8333333333333,12,48,1972/02,49,PRINCE'S HEIGHTS,太子閣,True,2.0,96.0,POINT Z (22.32571 114.1795394 0),22.32571,114.17953940000001
26,"K.C.C. BLDG,LIBERTY AVE|九龍總商會大廈,自由道",KHMT,6630949.143224626,12250.0,515.0,6961143.345458669,12860.0,515.0,9792285.088182729,14718.0,663.0,9.0,16.0,22.0,"['A', 'B', 'C', 'F']",8013655.802630628,13684.5,557.0,22,88,1984/08,37,blank,,False,,,POINT Z (22.318505 114.1743343 0),22.318505,114.17433429999998
27,"CHEERWORLD COURT,BELFRAN RD|昌和閣,巴芬道",KHMT,14066250.0,17050.0,825.0,14496900.0,17572.0,825.0,14927550.0,18094.0,825.0,3.0,7.0,11.0,['whole floor'],14496900.0,17572.0,825.0,13,13,1994/03,27,blank,,False,,,POINT Z (22.3260947 114.1770745 0),22.3260947,114.17707450000002
28,"HARRISON COURT(Phase 6),MAN WAN RD|恒信園6期,文運道",KHMT,14820670.0,14389.0,1030.0,14471500.0,14050.0,1030.0,21884800.0,15632.0,1400.0,4.0,10.0,17.0,"['A', 'B', 'C', 'D']",17967222.5,14753.083333333334,1215.0,20,80,1972/01,49,HARRISON COURT,恒信園,True,5.0,330.0,POINT Z (22.3183407 114.177864 0),22.3183407,114.17786399999999
29,"DRAGON COURT,WATERLOO RD|龍騰閣,窩打老道",KHMT,7953254.450212943,8821.0,720.0,8074072.508973688,8955.0,720.0,9304167.649113407,9887.0,778.0,3.0,6.0,10.0,"['104', '106', '111', '113', '115', '121', '16', '22', '25', '34', '36', '45', '53', '55', '61', '66', '71', '72', '74', '76', '82', '83', '84', '92', '93', '94', '96']",8502161.411680134,9127.518518518518,743.7037037037038,12,324,1967/02,54,blank,,False,,,POINT Z (22.3233158 114.1785203 0),22.3233158,114.1785203
30,"VALIANT COURT,PEACE AVE|華欣閣,太平道",KHMT,4614600.0,15382.0,300.0,4596900.0,15323.0,300.0,6371440.0,18085.0,365.0,5.0,12.0,19.0,"['A', 'B', 'C', 'D', 'E', 'F']",5395062.5,16690.722222222223,323.3333333333333,23,138,1979/12,42,blank,,False,,,POINT Z (22.3183745 114.1740556 0),22.3183745,114.17405559999999
31,"MIAMI MANSION,WATERLOO RD|美佳大廈,窩打老道",KHMT,,,1020.0,,,992.0,,,1046.0,3.0,7.0,10.0,"['1', '2', '3', '4']",,,1026.0,11,44,1975/03,46,blank,,False,,,POINT Z (22.326631 114.1780963 0),22.326631,114.17809629999999
32,"KNIGHT COURT,KNIGHT ST|勵德閣,勵德街",KHMT,,,550.0,,,550.0,,,550.0,3.0,8.0,11.0,"['A', 'B']",,,550.0,12,24,1980/09,41,blank,,False,,,POINT Z (22.3260427 114.1765055 0),22.3260427,114.17650549999999
33,"HARRISON COURT(Phase 5),MAN WAN RD|恒信園5期,文運道",KHMT,13318930.0,12812.0,1030.0,13931780.0,13430.0,1030.0,21362400.0,14835.0,1440.0,4.0,10.0,17.0,"['A', 'B', 'C', 'D']",16990934.166666668,13759.833333333334,1235.0,20,80,1972/01,49,HARRISON COURT,恒信園,True,5.0,330.0,POINT Z (22.3184718 114.1775854 0),22.3184718,114.1775854
34,"EDWARD COURT,MAN WAN RD|德星樓,文運道",KHMT,8706060.0,13191.0,660.0,9116580.0,13813.0,660.0,13316180.0,14962.0,890.0,4.0,10.0,17.0,"['A', 'B', 'C']",11456764.444444442,14064.777777777776,813.3333333333334,20,60,1965/12,56,blank,,False,,,POINT Z (22.318995 114.1775854 0),22.318995,114.1775854
35,"HOMESTEAD,PRINCE EDWARD RD W|碧廬,太子道西",KHMT,16704158.392502058,10595.0,1500.0,17139302.11277866,10871.0,1500.0,17546066.894776348,11129.0,1500.0,4.0,7.0,10.0,"['A', 'B']",17134046.753838122,10867.666666666666,1500.0,11,22,1983/10,38,blank,,False,,,POINT Z (22.3260925 114.1787465 0),22.326092499999998,114.1787465
36,"YEN YEE MANSION,SOARES AVE|仁儀苑,梭椏道",KHMT,5487225.376995202,13560.0,368.0,5800755.887100586,14997.0,368.0,6097814.000142744,15765.0,385.0,7.0,13.0,19.0,"['A', 'B', 'C']",5844639.535683133,14794.0,376.0,19,57,1978/10,43,blank,,False,,,POINT Z (22.3198851 114.1747058 0),22.319885100000004,114.1747058
37,"CARRIE COURT,MAN FUK RD|嘉景樓,文福道",KHMT,8871375.0,14425.0,615.0,9052800.0,14720.0,615.0,11309928.0,17562.0,644.0,4.0,9.0,14.0,"['A', 'B', 'C', 'D']",9916371.25,15769.416666666666,628.25,17,68,1966/01,55,blank,,False,,,POINT Z (22.3189723 114.178282 0),22.3189723,114.17828200000001
38,"KIU WANG MANSION,HOK YU LANE|僑宏大廈,學餘里",KHMT,9834668.506966386,10880.0,860.0,11152586.400638903,11483.0,860.0,12692810.181783356,12064.0,1001.0,4.0,9.0,14.0,"['A', 'B', 'C', 'D', 'E', 'F']",11641883.84449324,11644.016666666668,954.0,17,102,1965/10,56,blank,,False,,,POINT Z (22.3201079 114.1780614 0),22.3201079,114.1780614
39,"STAR COURT,MAN WAN RD|文星樓,文運道",KHMT,,,1303.0,,,1303.0,15861419.0,12173.0,1303.0,3.0,10.0,17.0,"['A', 'B', 'C', 'D']",15861419.0,12173.0,1303.0,20,80,1966/04,55,blank,,False,,,POINT Z (22.3188576 114.1770745 0),22.3188576,114.17707450000002
40,"ARRAN COURT,SHEK KU ST|毅廬,石鼓街",KHMT,9768740.029057328,12645.0,735.0,10437757.732905779,13511.0,735.0,11234244.167856991,14542.0,1470.0,4.0,10.0,17.0,"['A', 'A & B', 'B', 'C', 'D']",10619625.998241792,13746.416666666666,882.0,20,100,1979/08,42,blank,,False,,,POINT Z (22.3205504 114.1798442 0),22.3205504,114.1798442
41,"RICHLAND HSE,WATERLOO RD|芝齡大廈,窩打老道",KHMT,5351405.880535921,12418.0,410.0,5617321.787568237,12575.0,425.0,8746160.694981625,14573.0,585.0,7.0,12.0,18.0,"['A', 'B', 'C']",7357266.574317745,13492.888888888889,525.3333333333334,18,54,1975/06,46,blank,,False,,,POINT Z (22.3198725 114.1760295 0),22.3198725,114.1760295
42,"KINGSLAND VILLA(Block A),MAN FUK RD|瓊林別墅A座,文福道",KHMT,9866780.0,13244.0,745.0,10246729.999999998,13754.0,745.0,11364975.0,15255.0,745.0,4.0,9.0,14.0,"['1', '2', '3', '4']",10542495.0,14151.0,745.0,17,68,1966/05,55,KINGSLAND VILLA,瓊林別墅,True,2.0,136.0,POINT Z (22.3196152 114.1780717 0),22.3196152,114.17807169999999
43,"DOMINION COURT,WATERLOO RD|高明大廈,窩打老道",KHMT,12208392.216080267,12024.0,966.0,12801432.0,13252.0,966.0,14018735.140337678,13953.0,966.0,3.0,6.0,9.0,"['A', 'B', 'C', 'D']",13287702.45739981,13197.166666666666,966.0,11,44,1970/04,51,blank,,False,,,POINT Z (22.3251407 114.1787 0),22.325140700000002,114.1787
44,"SUNSHINE BLDG,VICTORY AVE|新勝大樓,勝利道",KHMT,6017373.0,13707.0,439.0,6320283.0,14397.0,439.0,8009208.0,15988.0,519.0,6.0,12.0,18.0,"['A', 'B', 'C', 'D']",7082879.222222223,14838.555555555555,477.8333333333333,19,76,1975/12,46,blank,,False,,,POINT Z (22.319949 114.1744528 0),22.319948999999998,114.1744528
45,"LUCKY COURT,WATERLOO RD|幸運閣,窩打老道",KHMT,15065082.360757863,11277.0,1271.0,15419099.105069365,11542.0,1271.0,16441890.755646266,11923.0,1312.0,3.0,6.0,10.0,"['A', 'B', 'C', 'D']",15729045.11002004,11586.833333333334,1291.5,12,48,1974/06,47,blank,,False,,,POINT Z (22.3253378 114.1780034 0),22.3253378,114.1780034
46,"LA BELLE MANSION,ARGYLE ST|利寶大廈,亞皆老街",KHMT,8990178.0,9978.0,901.0,9348776.0,10376.0,901.0,13136464.0,11824.0,1171.0,2.0,7.0,12.0,"['A', 'B', 'C', 'D', 'E', 'F', 'G', 'H']",10970082.958333334,10597.333333333334,1033.3333333333333,15,120,1964/07,57,blank,,False,,,POINT Z (22.3201565 114.1756115 0),22.3201565,114.1756115
47,"FAIR WAY GARDEN(Block C),PEACE AVE|富威花園C座,太平道",KHMT,4782339.0,17110.0,279.0,4736025.0,16975.0,279.0,6607004.0,19462.0,356.0,9.0,16.0,23.0,"['1', '2', '3', '4', '5', '6']",5781112.666666667,17969.77777777778,322.0,23,138,1984/10,37,FAIR WAY GARDEN,富威花園,True,3.0,276.0,POINT Z (22.3191084 114.1741021 0),22.319108399999998,114.1741021
48,"IMPERIAL COURT,WATERLOO RD|帝國大廈,窩打老道",KHMT,,,722.0,,,722.0,,,1130.0,3.0,7.0,11.0,"['A', 'B', 'C', 'D', 'E', 'F', 'G', 'H', 'whole floor']",,,932.5555555555555,13,117,1960/06,61,blank,,False,,,POINT Z (22.3200902 114.1763082 0),22.3200902,114.1763082
49,"MANNER COURT,HO MAN TIN ST|文雅閣,何文田街",KHMT,4278069.0,15320.0,249.0,4712474.055550268,15693.0,249.0,7840322.853339259,19014.0,460.0,3.0,6.0,10.0,"['A', 'B', 'C']",6132022.516574369,17377.0,347.6666666666667,12,36,1989/05,32,blank,,False,,,POINT Z (22.3165656 114.1752283 0),22.3165656,114.1752283
50,"FORUM COURT,PEACE AVE|富臨閣,太平道",KHMT,5967970.0,13879.0,430.0,6303800.0,14531.0,430.0,6786690.0,15783.0,440.0,5.0,12.0,19.0,"['A', 'B', 'C', 'D']",6362950.166666667,14679.0,433.5,23,92,1979/01,42,blank,,False,,,POINT Z (22.3194868 114.1736376 0),22.3194868,114.17363759999999
51,"GALLANT GARDEN MANSION,HO MAN TIN ST|嘉景花園大廈,何文田街",KHMT,10667142.000000002,14754.0,723.0,10921637.999999998,15106.0,723.0,13823650.0,16655.0,830.0,3.0,6.0,10.0,"['A', 'B', 'C', 'D', 'E']",12003115.800000003,15399.4,778.8666666666667,12,60,1971/07,50,blank,,False,,,POINT Z (22.3156848 114.1750774 0),22.3156848,114.17507739999999
52,"HING YIP KING'S BLDG,PRINCE EDWARD RD W|皇帝大廈,太子道西",KHMT,11571682.936947035,2656.0,987.0,12111770.682105903,3533.0,987.0,14108746.826127648,13600.0,1030.0,3.0,6.0,8.0,"['A', 'B', 'C']",12880564.426559819,8265.333333333334,1015.6666666666666,8,24,1965/03,56,blank,,False,,,POINT Z (22.3259583 114.1812544 0),22.3259583,114.1812544
53,"MANSION COURT,HO MAN TIN ST|文翠閣,何文田街",KHMT,9443280.0,16534.0,560.0,9306946.383593258,15812.0,560.0,9582999.878021872,16281.0,560.0,5.0,8.0,11.0,"['A', 'B']",9581393.339100929,16414.833333333332,560.0,9,18,1990/05,31,blank,,False,,,POINT Z (22.3160695 114.1754025 0),22.3160695,114.17540249999999
54,"SUNLIGHT GARDEN,MAN WAN RD|明德園,文運道",KHMT,15863400.0,7405.0,1260.0,16560180.0,7668.0,1205.0,23771984.178805705,13721.0,1610.0,5.0,11.0,17.0,"['A', 'B', 'C']",19807685.03429811,10404.333333333334,1375.6666666666667,19,57,1964/00,57,blank,,False,,,POINT Z (22.3189451 114.1767958 0),22.3189451,114.1767958
55,"GRANDCO MANSION,PRINCE EDWARD RD W|寶堡大廈,太子道西",KHMT,8174333.4651990235,11412.0,572.0,8440794.387829065,11784.0,572.0,14458589.0,17441.0,829.0,3.0,7.0,10.0,"['A', 'B', 'C', 'D']",11300964.864724688,14816.416666666666,713.0,11,44,1995/03,26,blank,,False,,,POINT Z (22.3258503 114.1805578 0),22.3258503,114.1805578
56,"WATERLOO HEIGHTS GARDEN,MAN WAN RD|德信園,文運道",KHMT,8602480.0,14680.0,532.0,8627444.0,14943.0,532.0,10821244.0,18021.0,652.0,5.0,11.0,18.0,"['A', 'B', 'C', 'D']",9434624.833333334,16039.333333333334,589.0,19,76,1965/12,56,blank,,False,,,POINT Z (22.3192496 114.1773532 0),22.319249600000003,114.17735320000001
57,"TAI GARDEN,PRINCE EDWARD RD W|泰園,太子道西",KHMT,6383781.688077723,2744.0,550.0,6793237.07331886,2920.0,550.0,15369170.000000002,15217.0,1010.0,3.0,6.0,9.0,"['A', 'B', 'C']",12061426.314559735,10706.22222222222,856.6666666666666,11,33,1973/08,48,blank,,False,,,POINT Z (22.3257997 114.1803256 0),22.3257997,114.1803256
58,"HARRISON COURT(Phase 2),WATERLOO RD|恒信園2期,窩打老道",KHMT,16457626.722454604,6380.0,1380.0,17404065.935554855,4391.0,1380.0,18192817.72812498,4590.0,1380.0,3.0,6.0,8.0,['whole floor'],17351503.46204481,5120.333333333333,1380.0,10,10,1966/02,55,HARRISON COURT,恒信園,True,5.0,330.0,POINT Z (22.318833 114.177849 0),22.318832999999998,114.177849
59,"HUNG HING COURT,VALLEY RD|鴻興閣,山谷道",KHMT,5080720.0,12392.0,410.0,5391910.0,13151.0,410.0,5359110.0,13071.0,410.0,6.0,13.0,20.0,['whole floor'],5277246.666666667,12871.333333333334,410.0,21,21,1992/11,29,blank,,False,,,POINT Z (22.3097572 114.183983 0),22.3097572,114.18398300000001
60,"CYPRESS GARDEN,HO MAN TIN HILL RD|龍柏花園,何文田山道",KHMT,11860296.0,15569.0,622.0,12489760.0,16271.0,622.0,25025209.949568152,19355.0,2200.0,5.0,11.0,19.0,"['A', 'A-C', 'B', 'B & C', 'B+C', 'B-C', 'BC', 'C']",19179989.81749035,17730.333333333332,1211.375,19,152,1996/08,25,blank,,False,,,POINT Z (22.3169114 114.1761456 0),22.3169114,114.1761456
61,"PINE MANOR,WATERLOO RD|松亭閣,窩打老道",KHMT,8325180.0,15417.0,540.0,8678880.0,16072.0,540.0,,,720.0,6.0,12.0,19.0,"['A', 'B', 'C']",8541720.0,15818.0,604.4444444444445,20,60,1979/11,42,blank,,False,,,POINT Z (22.3175312 114.1744272 0),22.3175312,114.17442720000001
62,"KAISER'S MANSION,PRINCE EDWARD RD W|國城大廈,太子道西",KHMT,10442608.429207895,9032.0,1051.0,10718675.587569755,9297.0,1051.0,11280838.180223808,9919.0,1100.0,2.0,5.0,8.0,"['A', 'B', 'C']",10824194.786521465,9507.333333333334,1083.6666666666667,9,27,1964/09,57,blank,,False,,,POINT Z (22.3259514 114.1810222 0),22.3259514,114.1810222
63,"GREENFIELD TERR(Block A),HO MAN TIN HILL RD|嘉輝臺A座,何文田山道",KHMT,9630180.0,15286.0,630.0,10103310.0,16037.0,630.0,12905670.0,17679.0,730.0,5.0,12.0,20.0,"['1', '2', '3', '4', '5', '6']",10976589.833333334,16436.888888888887,667.3333333333334,24,144,1978/11,43,GREENFIELD TERR,嘉輝臺,True,2.0,201.0,POINT Z (22.313525 114.1766212 0),22.313525,114.1766212
64,"PARC REGAL(Block 2),HO MAN TIN HILL RD|賀龍居2座,何文田山道",KHMT,11095619.705618935,12475.0,685.0,11694362.848604787,13224.0,685.0,24064670.67811624,14634.0,1603.0,3.0,10.0,16.0,"['A', 'A & B', 'A&B', 'A-B', 'AB', 'B', 'C', 'C & D', 'CD', 'D']",16954802.060663056,13533.916666666666,1222.3333333333333,18,180,1995/05,26,PARC REGAL,賀龍居,True,3.0,450.0,POINT Z (22.3150144 114.1765636 0),22.315014399999995,114.1765636
65,"HELENA GARDEN,PRINCE EDWARD RD W|海倫苑,太子道西",KHMT,15481601.088949192,12797.0,1151.0,16203841.914932054,13394.0,1151.0,17685092.16018936,14235.0,1182.0,2.0,8.0,13.0,"['A', 'B', 'C', 'D']",16619941.062755557,13613.5,1166.5,15,60,1991/08,30,blank,,False,,,POINT Z (22.3255257 114.1787465 0),22.3255257,114.1787465
66,"LUNG CHEUNG BLDG,WATERLOO RD|龍翔大廈,窩打老道",KHMT,7096855.632595562,11291.0,598.0,7460416.108743085,11771.0,603.0,7606602.326248473,12102.0,899.0,3.0,8.0,12.0,"['A', 'B', 'C', 'D']",7387958.02252904,11721.333333333334,753.8333333333334,14,56,1965/01,56,blank,,False,,,POINT Z (22.3170586 114.1746594 0),22.3170586,114.17465940000001
67,"PARC REGAL(Block 3),HO MAN TIN HILL RD|賀龍居3座,何文田山道",KHMT,11410730.0,7973.0,685.0,12021750.0,8451.0,685.0,40897935.051929444,19182.0,1603.0,3.0,10.0,16.0,"['A', 'AB', 'B', 'C', 'C & D', 'CD', 'D']",20792946.06073152,14429.285714285716,1045.142857142857,18,126,1995/05,26,PARC REGAL,賀龍居,True,3.0,450.0,POINT Z (22.3152907 114.1764707 0),22.315290700000002,114.1764707
68,"KAM BIT BLDG,VICTORY AVE|金碧大廈,勝利道",KHMT,4850477.679185236,14791.0,312.0,4889829.806931989,14911.0,312.0,5331456.0,17088.0,312.0,7.0,12.0,18.0,"['A', 'B']",4992395.329879712,15620.833333333334,312.0,18,36,1984/01,37,blank,,False,,,POINT Z (22.3193183 114.1747058 0),22.319318300000003,114.1747058
69,"LAI SZE COURT,HO MAN TIN ST|麗思閣,何文田街",KHMT,11132166.91794203,7268.0,870.0,11377296.841267237,10443.0,870.0,12435916.16073225,10735.0,870.0,3.0,6.0,10.0,"['A', 'B']",11639611.008687658,9459.0,870.0,12,24,1973/03,48,blank,,False,,,POINT Z (22.3167165 114.1751703 0),22.316716500000002,114.1751703
70,"WEI KING BLDG,CHATHAM RD N|蔚景樓,漆咸道北",KHMT,5221575.0,13387.0,345.0,5278350.0,14483.0,345.0,6569220.0,16575.0,420.0,10.0,16.0,22.0,"['A', 'B', 'C', 'D', 'E', 'F', 'G', 'H']",5802659.583333333,15158.0,383.75,19,152,1975/08,46,blank,,False,,,POINT Z (22.3095747 114.1835907 0),22.3095747,114.18359070000001
71,"DUCHY HEIGHTS,DUKE ST|公爵閣,公爵街",KHMT,15194890.0,15746.0,965.0,15653265.000000002,16221.0,965.0,16236124.999999998,16825.0,1030.0,4.0,8.0,13.0,"['A', 'B', 'C', 'D']",15694760.0,16264.0,990.5,16,64,1972/05,49,blank,,False,,,POINT Z (22.3263068 114.1760063 0),22.3263068,114.17600630000001
72,"SUNFIELD COURT,PEACE AVE|新雅閣,太平道",KHMT,8089926.126220141,12121.0,635.0,8528428.020859744,12778.0,635.0,9165766.421014627,13520.0,645.0,5.0,12.0,19.0,"['A', 'B']",8645194.213480102,12851.166666666666,640.0,21,42,1978/07,43,blank,,False,,,POINT Z (22.3176766 114.1743343 0),22.3176766,114.17433429999998
73,"CAMBRIDGE COURT,WATERLOO RD|冠華園,窩打老道",KHMT,11762247.97846933,10381.0,1055.0,11629941.163925909,10488.0,1055.0,14151861.790875828,12490.0,1078.0,9.0,16.0,22.0,"['A1', 'A2', 'A3', 'B1', 'B2', 'B3']",12776256.382684639,11377.133333333331,1068.3888888888887,20,120,1965/07,56,blank,,False,,,POINT Z (22.3194868 114.1765404 0),22.3194868,114.17654040000001
74,"PRINCESS TERR,MAN FUK RD|公主台,文福道",KHMT,15511580.0,13350.0,1097.0,15749629.0,13874.0,1097.0,34033649.84319524,15456.0,2243.0,4.0,9.0,14.0,"['A', 'A & B', 'B', 'C', 'D', 'E', 'F']",19245649.78587761,14525.666666666666,1316.142857142857,17,119,1967/05,54,blank,,False,,,POINT Z (22.319568 114.1783749 0),22.319568,114.17837490000001
75,"MANDARIN COURT(Block 5),ARGYLE ST|翠華大廈5座,亞皆老街",KHMT,15872834.183134016,11938.0,1265.0,16254431.051165467,12225.0,1265.0,17977080.0,13619.0,1565.0,3.0,6.0,10.0,"['126A', '128A', 'whole floor']",17295302.77321787,12743.666666666666,1404.4444444444443,12,36,1963/00,58,MANDARIN COURT,翠華大廈,True,3.0,156.0,POINT Z (22.3213551 114.1786536 0),22.3213551,114.17865359999999
76,"BEAUTY COURT,MAN FUK RD|麗苑,文福道",KHMT,16340350.0,13952.0,1150.0,16886600.0,14093.0,1150.0,18423606.73066749,15547.0,1200.0,5.0,10.0,15.0,"['A', 'B']",17483729.447940826,14515.333333333334,1175.0,17,34,1965/09,56,blank,,False,,,POINT Z (22.319613 114.1772603 0),22.319613,114.17726029999999
77,"KING'S COURT,MAN FUK RD|瓊苑,文福道",KHMT,20975858.327798385,10469.0,1600.0,21921565.189076524,10941.0,1600.0,23600595.591091525,11779.0,1600.0,4.0,10.0,15.0,"['A', 'B']",22319950.883110713,11139.833333333334,1600.0,16,32,1964/00,57,blank,,False,,,POINT Z (22.3200486 114.1775389 0),22.3200486,114.1775389
78,"GRAND COURT(Block 3),HO MAN TIN HILL RD|加林閣3座,何文田山道",KHMT,15429502.975146987,11602.0,1062.0,15787246.148764858,11871.0,1062.0,16821860.975796472,12496.0,1075.0,3.0,6.0,10.0,"['A', 'B']",16198826.07310366,12105.166666666666,1068.5,12,24,1981/10,40,GRAND COURT,加林閣,True,2.0,48.0,POINT Z (22.3164594 114.1773532 0),22.3164594,114.17735320000001
79,"THE CRESCENT(Block C),HO MAN TIN HILL RD|仁禮花園C座,何文田山道",KHMT,41319313.70537574,21365.0,1840.0,43270691.54430503,22374.0,1840.0,51973616.40128284,23502.0,2104.0,4.0,10.0,16.0,"['A', 'B', 'C']",47140016.59929953,22418.55555555556,2000.3333333333333,19,57,1987/07,34,THE CRESCENT,仁禮花園,True,1.0,57.0,POINT Z (22.316112 114.1762385 0),22.316112,114.1762385
80,"DELTEC COURT,WATERLOO RD|愷悌閣,窩打老道",KHMT,4458286.0,16037.0,278.0,4558366.0,16397.0,278.0,4777986.0,18594.0,278.0,7.0,13.0,19.0,"['A', 'B']",4411241.555532315,16799.166666666668,262.5,19,38,1988/01,33,blank,,False,,,POINT Z (22.3193471 114.1756637 0),22.3193471,114.17566370000002
81,"LUNG MAN BLDG,HO MAN TIN ST|龍文大廈,何文田街",KHMT,7748650.0,11921.0,635.0,7938450.000000001,12213.0,635.0,16652272.233682122,12841.0,1247.0,3.0,6.0,9.0,"['A', 'B', 'C', 'D', 'E', 'F']",13214211.853419797,12404.555555555555,844.0,11,66,1963/02,58,blank,,False,,,POINT Z (22.3169055 114.1750774 0),22.3169055,114.17507739999999
82,"REGAL COURT,WATERLOO RD|麗豪閣,窩打老道",KHMT,10400045.546944082,9657.0,860.0,11657915.817093268,10353.0,860.0,13497005.10176336,11215.0,991.0,3.0,8.0,13.0,"['A', 'B', 'C', 'D']",12196205.997238673,10552.083333333334,923.25,17,68,1989/03,32,blank,,False,,,POINT Z (22.322952 114.1785642 0),22.322951999999997,114.1785642
83,"BELAIRE HEIGHTS,WATERLOO RD|碧儷閣,窩打老道",KHMT,12421963.560480366,6470.0,1185.0,12887917.037722133,6736.0,1185.0,16014894.805547902,8990.0,1185.0,2.0,7.0,12.0,"['A', 'B', 'PORTION A', 'REMARK']",14535215.980193952,7278.416666666667,1185.0,15,60,1974/01,47,blank,,False,,,POINT Z (22.3243197 114.1786536 0),22.3243197,114.17865359999999
84,"PERTH APTS(Block B2),PERTH ST|巴富洋樓B2座,巴富街",KHMT,19203155.14375335,15353.0,1190.0,17026805.899297487,13613.0,1190.0,20356370.088229384,16275.0,1190.0,3.0,6.0,10.0,"['A', 'B', 'C', 'D']",18993580.772065006,15185.444444444445,1190.0,12,48,1974/05,47,PERTH APTS,巴富洋樓,True,3.0,144.0,POINT Z (22.3219259 114.1811151 0),22.3219259,114.18111509999999
85,"PEACE GARDEN,PRINCE EDWARD RD W|太和大廈,太子道西",KHMT,11974828.206569798,6741.0,890.0,12249327.602802644,6902.0,890.0,14131298.080325348,7675.0,985.0,3.0,6.0,10.0,"['249', '249A', '251', 'whole floor']",12894565.677970042,7287.916666666667,947.4166666666666,12,48,1962/01,59,blank,,False,,,POINT Z (22.325317 114.177703 0),22.325317000000002,114.17770300000001
86,"STEPHEN MANSION,BELFRAN RD|鐘山閣,巴芬道",KHMT,12515194.9456737,4885.0,865.0,12334432.86418949,4982.0,862.0,11189177.439323926,4705.0,940.0,3.0,6.0,10.0,"['A', 'B']",12012935.083062373,4857.333333333333,875.3333333333334,12,24,1973/11,48,blank,,False,,,POINT Z (22.3261159 114.1774925 0),22.326115899999998,114.1774925
87,"TAK WAI MANSION(Block 2),MAN FUK RD|德威大廈2座,文福道",KHMT,8796234.806038864,11672.0,717.0,9115769.03819792,12096.0,717.0,9524230.250061614,12638.0,717.0,4.0,9.0,14.0,"['E', 'F', 'G', 'H']",9180098.748327948,12181.361111111111,717.0,17,68,1967/07,54,TAK WAI MANSION,德威大廈,True,2.0,132.0,POINT Z (22.3192642 114.1781475 0),22.3192642,114.17814750000001
88,"SHING TAK MANSION,PEACE AVE|成德大廈,太平道",KHMT,6667840.0,12440.0,536.0,6803448.0,12693.0,536.0,11892800.0,14866.0,802.0,2.0,5.0,8.0,"['1', '10', '11', '12', '13', '14', '15', '16', '2', '3', '4', '5', '6', '7', '8', '9']",9159128.047619047,13662.428571428572,683.0,11,176,1962/06,59,blank,,False,,,POINT Z (22.3197449 114.1735215 0),22.3197449,114.1735215
89,"CRYSTAL COURT,MAN WAN RD|麗晶樓,文運道",KHMT,9282000.0,13260.0,660.0,10005800.0,14294.0,700.0,12149199.999999998,17356.0,700.0,4.0,10.0,17.0,"['A', 'B', 'C', 'D', 'E', 'E1', 'F']",11026722.857142856,15840.714285714284,696.1904761904761,20,140,1967/07,54,blank,,False,,,POINT Z (22.3187445 114.1774597 0),22.3187445,114.1774597
90,"SUNLAND COURT,LIBERTY AVE|新麟閣,自由道",KHMT,8628710.780163104,11402.0,720.0,9090341.509500017,12012.0,720.0,9688968.935698891,12457.0,740.0,5.0,12.0,20.0,"['A', 'B']",9406665.067703664,12090.166666666666,740.0,21,42,1977/05,44,blank,,False,,,POINT Z (22.3187226 114.1746129 0),22.3187226,114.1746129
91,"KAM WAH HSE,WATERLOO RD|金華樓,窩打老道",KHMT,7589340.988393441,6161.0,659.0,7886213.44062568,6402.0,659.0,8493760.88878633,11574.0,1155.0,3.0,8.0,12.0,"['F.P.', 'R', 'R.P.', 'RP']",7987842.45770806,8064.888888888888,788.4166666666666,13,52,1966/07,55,blank,,False,,,POINT Z (22.3196982 114.1760295 0),22.319698199999998,114.1760295
92,"MANDARIN COURT(Block 1),ARGYLE ST|翠華大廈1座,亞皆老街",KHMT,8958715.0,10729.0,835.0,9450530.0,11231.0,835.0,10230000.0,11625.0,880.0,2.0,6.0,9.0,"['1', '2', '3', '4', '5']",9761999.333333334,11258.933333333334,867.0,12,60,1958/12,63,MANDARIN COURT,翠華大廈,True,3.0,156.0,POINT Z (22.3216086 114.1792574 0),22.3216086,114.1792574
93,"MANCHESTER COURT,HO MAN TIN ST|文采閣,何文田街",KHMT,12566755.142235598,15878.0,753.0,13066164.544852467,16196.0,753.0,14435775.0,18675.0,773.0,3.0,6.0,10.0,"['A', 'B', 'C', 'D']",13456786.254241647,16998.666666666668,763.0,12,48,1990/10,31,blank,,False,,,POINT Z (22.3157786 114.1755883 0),22.3157786,114.17558829999999
94,"KINGSLAND VILLA(Block B),MAN FUK RD|瓊林別墅B座,文福道",KHMT,9486632.361129213,12115.0,745.0,9611920.118271654,12275.0,745.0,10988519.349874228,14033.0,745.0,4.0,9.0,14.0,"['1', '2', '3', '4']",10226482.6686714,13059.833333333334,745.0,17,68,1967/00,54,KINGSLAND VILLA,瓊林別墅,True,2.0,136.0,POINT Z (22.3196152 114.1780717 0),22.3196152,114.17807169999999
95,"SPRINGVALE,PRINCE EDWARD RD W|春苑,太子道西",KHMT,,,1325.0,,,1325.0,,,1330.0,2.0,5.0,8.0,"['A', 'B', 'C', 'D']",,,1323.4166666666667,9,36,1963/03,58,blank,,False,,,POINT Z (22.3264519 114.1840479 0),22.3264519,114.18404790000001
96,"KING'S COURT,PRINCE EDWARD RD W|乾隆閣,太子道西",KHMT,14124197.581412831,12798.0,1050.0,14458596.070799306,13101.0,1050.0,15341550.0,14611.0,1050.0,3.0,6.0,10.0,"['A', 'B', 'C', 'D']",14720791.829162315,13569.416666666666,1050.0,12,48,1972/08,49,blank,,False,,,POINT Z (22.3255905 114.1791645 0),22.3255905,114.1791645
97,"KOWLOON TONG MANSION,BOUNDARY ST|九龍塘大廈,界限街",KHMT,17299978.960961815,5526.0,1090.0,18929267.539256383,5633.0,1090.0,17976199.63696032,5742.0,1090.0,4.0,6.0,9.0,"['110A', 'whole floor']",17917223.33564969,5565.666666666667,1103.3333333333333,10,20,1964/03,57,blank,,False,,,POINT Z (22.3266984 114.1765636 0),22.326698399999998,114.1765636
98,"MOUNT TRIO COURT(Block 2),HOK YU LANE|鼎峰花園2座,學餘里",KHMT,15146627.663294625,12194.0,1150.0,15787255.918146284,12906.0,1150.0,16491484.526896343,13586.0,1160.0,4.0,9.0,14.0,"['A', 'B', 'C']",15812480.47320333,12959.333333333334,1161.111111111111,17,51,1965/02,56,MOUNT TRIO COURT,鼎峰花園,True,2.0,78.0,POINT Z (22.3204044 114.1777711 0),22.3204044,114.17777109999999
99,"IMPERIAL GARDEN,DUKE ST|嘉爵園,公爵街",KHMT,17198906.29173867,16396.0,998.0,17967801.04118027,17129.0,998.0,19153136.73950088,18259.0,998.0,3.0,8.0,13.0,"['A', 'B', 'C', 'D']",18207140.948407542,17357.166666666668,998.0,14,56,1988/08,33,blank,,False,,,POINT Z (22.326311 114.1755651 0),22.326310999999997,114.17556509999999
100,"KARIN COURT,PRINCE EDWARD RD W|嘉倫閣,太子道西",KHMT,7896151.387614581,13416.0,470.0,7919693.878334958,13456.0,470.0,8783390.222736634,13753.0,770.0,4.0,7.0,10.0,"['A', 'B']",8199745.162895392,13541.666666666666,626.6666666666666,11,22,1975/08,46,blank,,False,,,POINT Z (22.3250641 114.1761456 0),22.3250641,114.1761456
101,"LIBERTY MANSION,WATERLOO RD|自由大廈,窩打老道",KHMT,5617815.791308647,9219.0,435.0,5821734.228919427,9855.0,435.0,13513844.398345828,16132.0,874.0,3.0,8.0,13.0,"['A', 'B', 'C', 'D']",8877562.826054139,12771.75,635.25,15,60,1962/01,59,blank,,False,,,POINT Z (22.3176902 114.1750774 0),22.3176902,114.17507739999999
102,"YEE ON COURT(Block C),ARGYLE ST|怡安閣C座,亞皆老街",KHMT,8771610.0,12442.0,705.0,9162180.0,12380.0,705.0,18989740.0,15746.0,1210.0,9.0,17.0,24.0,"['1', '2', '3', '4', '5', '6']",12116536.38888889,13755.611111111111,871.0,21,126,1976/06,45,YEE ON COURT,怡安閣,True,3.0,320.0,POINT Z (22.3202757 114.1760992 0),22.3202757,114.17609920000001
103,"HEALTH MANSION,PRINCE EDWARD RD W|康寧大廈,太子道西",KHMT,,,1017.0,,,1017.0,,,780.0,4.0,6.0,8.0,['whole floor'],,,938.0,7,7,1959/04,62,blank,,False,,,POINT Z (22.3252443 114.1772138 0),22.3252443,114.1772138
104,"ORIENTAL GARDEN(Block B),PRINCE EDWARD RD W|東方花園B座,太子道西",KHMT,15143416.638981955,14627.0,980.0,15653675.204595672,15163.0,980.0,17189180.72448331,16603.0,985.0,3.0,7.0,10.0,"['1', '2', '3', '4']",15938140.338955196,15433.25,982.5,11,44,1967/01,54,ORIENTAL GARDEN,東方花園,True,2.0,116.0,POINT Z (22.3255524 114.1757144 0),22.325552399999996,114.1757144
105,"WELLIVE COURT,VICTORY AVE|慧宜閣,勝利道",KHMT,7749008.000000001,14704.0,527.0,8181675.0,15525.0,527.0,8609599.0,16337.0,527.0,6.0,13.0,20.0,['whole floor'],8180094.0,15522.0,527.0,20,20,1995/01,26,blank,,False,,,POINT Z (22.318953 114.17488 0),22.318953,114.17488
106,"CELEBRITY GARDEN,HO MAN TIN ST|名人花園,何文田街",KHMT,,,884.0,,,884.0,,,884.0,6.0,10.0,15.0,"['A', 'B']",,,884.0,12,24,1996/11,25,blank,,False,,,POINT Z (22.3167789 114.1746362 0),22.3167789,114.1746362
107,"SCENERY MANSION,WATERLOO RD|匯景大廈,窩打老道",KHMT,12681311.330888517,6659.0,1010.0,12951287.141565464,6811.0,1010.0,15756844.8113365,7971.0,1150.0,3.0,6.0,10.0,"['A', 'B', 'C', 'D']",14245518.615611752,7061.0,1080.0,12,48,1965/01,56,blank,,False,,,POINT Z (22.3240581 114.1786536 0),22.324058100000002,114.17865359999999
108,"PRINCE EDWARD TOWERS,PRINCE EDWARD RD W|愛華苑,太子道西",KHMT,12240615.000000002,14759.0,795.0,12533970.0,15112.0,795.0,16801251.148928512,16636.0,1025.0,3.0,6.0,10.0,"['A', 'B', 'C']",14945684.518450955,15514.888888888889,948.3333333333334,12,36,1973/04,48,blank,,False,,,POINT Z (22.3258543 114.1774925 0),22.3258543,114.1774925
109,"FU TAO BLDG,ARGYLE ST|富都大廈,亞皆老街",KHMT,5819448.147780293,12876.0,430.0,6145311.934247332,13596.0,430.0,7114075.000000001,14977.0,475.0,9.0,14.0,18.0,"['A', 'B', 'C', 'D', 'E', 'F']",6500268.752470787,14032.222222222224,448.3333333333333,16,96,1979/06,42,blank,,False,,,POINT Z (22.3199228 114.1736376 0),22.3199228,114.17363759999999
110,"KERIN COURT,MAN WAN RD|嘉嗚閣,文運道",KHMT,12746456.885848375,10527.0,1152.0,13626733.71267575,11254.0,1152.0,17417088.0,15119.0,1152.0,4.0,10.0,17.0,"['A', 'B']",15084046.14162269,12807.166666666666,1152.0,18,36,1964/09,57,blank,,False,,,POINT Z (22.3193734 114.1771209 0),22.3193734,114.1771209
111,"CAMBRIDGE BLDG,WATERLOO RD|金碧大廈,窩打老道",KHMT,11809303.92428347,4819.0,1130.0,14434350.273817006,6435.0,1130.0,14773058.415440373,6586.0,1200.0,2.0,5.0,8.0,"['A', 'B']",13647112.389858397,5932.166666666667,1165.0,9,18,1962/06,59,blank,,False,,,POINT Z (22.3226496 114.178533 0),22.322649600000002,114.178533
112,"TUNG LUNG COURT,JULIA AVE|騰龍閣,棗梨雅道",KHMT,6696341.574521748,13701.0,465.0,6648570.0,14298.0,465.0,7294569.593441142,14925.0,465.0,3.0,8.0,14.0,['whole floor'],6879827.05598763,14308.0,465.0,14,14,1981/11,40,blank,,False,,,POINT Z (22.319946 114.175122 0),22.319945999999998,114.175122
113,"GALLANT COURT,PRINCE EDWARD RD W|麒麟閣,太子道西",KHMT,11064166.879659908,6980.0,848.0,11335223.116969628,7151.0,848.0,25883415.744475525,11612.0,1780.0,3.0,6.0,10.0,"['A', 'B', 'C', 'D', 'E', 'F', 'G', 'H']",18105750.117836382,10447.833333333334,1332.5,12,96,1964/12,57,blank,,False,,,POINT Z (22.3258844 114.1767494 0),22.3258844,114.17674939999999
114,"SHUNG MING MANSION,BOUNDARY ST|崇明大廈,界限街",KHMT,,,832.0,11855484.352505216,13557.0,832.0,12293604.708085738,14058.0,877.0,3.0,6.0,10.0,"['F.P.', 'R.P.']",12074544.530295476,13807.5,854.5,12,24,1975/01,46,blank,,False,,,POINT Z (22.3267054 114.1767958 0),22.326705399999998,114.1767958
115,1 PERTH ST|1 巴富街,KHMT,15154100.91508378,5246.0,1215.0,15545125.40656737,5369.0,1215.0,19308349.198794533,10554.0,1215.0,3.0,6.0,10.0,"['1', 'whole floor']",17184716.986226376,7813.166666666667,1215.0,12,24,1963/00,58,blank,,False,,,POINT Z (22.3215521 114.1807198 0),22.3215521,114.18071979999999
116,"EDWARDIAN HEIGHTS,PRINCE EDWARD RD W|愛華閣,太子道西",KHMT,9376703.916026391,12288.0,715.0,10737333.162880454,12866.0,715.0,11083671.827779831,13281.0,794.0,3.0,6.0,10.0,"['A', 'B', 'C']",10399236.302228892,12811.666666666666,748.4444444444445,12,36,1972/04,49,blank,,False,,,POINT Z (22.3262902 114.1830193 0),22.3262902,114.1830193
117,"EARL GARDENS,EARL ST|伯爵園,伯爵街",KHMT,19065550.0,14328.0,1330.0,19505780.0,14658.0,1330.0,25532460.0,15381.0,1660.0,3.0,6.0,10.0,"['A', 'B', 'C', 'D']",22286923.333333332,14829.333333333334,1501.6666666666667,12,48,1972/12,49,blank,,False,,,POINT Z (22.3268004 114.1801884 0),22.3268004,114.1801884
118,"PRINCE'S HEIGHTS(Phase 2),PRINCE EDWARD RD W|太子閣2期,太子道西",KHMT,16432035.906560969,13028.0,1200.0,16819250.75329986,13335.0,1200.0,17933807.277409293,13930.0,1240.0,3.0,6.0,10.0,"['A', 'B', 'C', 'D']",17130590.424535304,13522.888888888889,1220.0,12,48,1973/12,48,PRINCE'S HEIGHTS,太子閣,True,2.0,96.0,POINT Z (22.32571 114.1795394 0),22.32571,114.17953940000001
119,"COIN ORGANIZE BLDG,WATERLOO RD|集貴大廈,窩打老道",KHMT,5190064.000000001,12752.0,407.0,5386238.0,13234.0,407.0,5675615.0,13945.0,407.0,3.0,9.0,16.0,['whole floor'],5417305.666666667,13310.333333333334,407.0,17,17,1997/04,24,blank,,False,,,POINT Z (22.3181555 114.1748916 0),22.3181555,114.1748916
120,"HAPPY COURT,MAN FUK RD|樂園,文福道",KHMT,12449991.57729471,13074.0,906.0,13283228.73731711,13949.0,906.0,14380244.975426603,15101.0,906.0,4.0,8.0,14.0,"['A', 'B']",13584439.634994082,14244.166666666666,907.3333333333334,16,32,1966/01,55,blank,,False,,,POINT Z (22.3197794 114.177864 0),22.319779399999998,114.17786399999999
121,"PARC REGAL(Block 1),HO MAN TIN HILL RD|賀龍居1座,何文田山道",KHMT,11525125.0,13825.0,685.0,12192314.999999998,14604.0,685.0,32190233.619719744,20062.0,1603.0,3.0,10.0,16.0,"['A', 'A & B', 'AB', 'B', 'C', 'C & D', 'CD', 'D']",20187544.3018451,16816.97619047619,1130.625,18,144,1995/05,26,PARC REGAL,賀龍居,True,3.0,450.0,POINT Z (22.3147895 114.1763314 0),22.3147895,114.1763314
122,"YEE ON COURT(Block B),WATERLOO RD|怡安閣B座,窩打老道",KHMT,6394339.0,11563.0,553.0,7037520.0,12390.0,568.0,10538676.0,14108.0,747.0,9.0,17.0,24.0,"['1', '2', '3', '4', '5', '6']",8890976.61111111,12932.388888888889,684.8333333333334,21,126,1976/06,45,YEE ON COURT,怡安閣,True,3.0,320.0,POINT Z (22.3203898 114.1764127 0),22.3203898,114.17641270000001
123,"PEACE MANSION,PEACE AVE|太平閣,太平道",KHMT,4712796.0,13309.0,297.0,5006825.999999999,14359.0,297.0,7008285.0,18053.0,435.0,5.0,12.0,20.0,"['A', 'B', 'C', 'D']",5754027.333333333,15878.833333333334,367.3333333333333,24,96,1991/05,30,blank,,False,,,POINT Z (22.3194139 114.1738234 0),22.3194139,114.17382340000002
124,"SHARON COURT,HO MAN TIN ST|瑞麟閣,何文田街",KHMT,8858769.373144122,15608.0,540.0,9343481.638947882,16462.0,540.0,9642595.648407578,16989.0,540.0,3.0,6.0,10.0,"['A', 'B']",9323010.964802695,16386.333333333332,541.3333333333334,12,24,1988/08,33,blank,,False,,,POINT Z (22.3161597 114.1753584 0),22.316159699999996,114.17535840000001
125,"WING YING MANSION,EMMA AVE|榮英大廈,艷馬道",KHMT,12117600.0,12240.0,990.0,12597750.0,12725.0,990.0,12446595.0,13171.0,945.0,4.0,9.0,14.0,['whole floor'],12387315.0,12712.0,975.0,17,17,1964/02,57,blank,,False,,,POINT Z (22.3194662 114.1753044 0),22.319466199999997,114.1753044
126,"HOMAN VILLA,HO MAN TIN ST|浩文苑,何文田街",KHMT,5048345.26796543,13398.0,293.0,5242074.921391242,13888.0,293.0,9420672.351066515,17370.0,560.0,3.0,6.0,10.0,"['A', 'B', 'C']",7937194.577766702,14857.777777777776,456.3333333333333,12,36,1987/04,34,blank,,False,,,POINT Z (22.315546 114.1756812 0),22.315545999999998,114.17568119999999
127,"HARRISON COURT(Phase 3),MAN WAN RD|恒信園3期,文運道",KHMT,8823327.23244913,9876.0,850.0,9289687.784832528,10398.0,850.0,9972253.804029686,11162.0,850.0,4.0,10.0,17.0,"['A', 'B', 'C', 'D']",9389600.917223735,10509.833333333334,850.0,20,80,1971/09,50,HARRISON COURT,恒信園,True,5.0,330.0,POINT Z (22.318833 114.177849 0),22.318832999999998,114.177849
128,271 CHATHAM RD N|271 漆咸道北,KHMT,2045576.5850478255,3773.0,250.0,2059130.630800859,3711.0,250.0,2307982.9108265555,4257.0,250.0,2.0,3.0,4.0,"['A', 'B']",2268954.4878822207,3923.6666666666665,267.5,5,10,1986/03,35,blank,,False,,,POINT Z (22.3095972 114.1842974 0),22.3095972,114.18429740000002
129,"PRINCE GARDEN,PRINCE EDWARD RD W|太子花園,太子道西",KHMT,15356264.487109749,7824.0,1050.0,15937227.45850347,8120.0,1050.0,16164902.136482092,8236.0,1050.0,3.0,6.0,8.0,"['A', 'B']",15819791.81282197,8060.166666666667,1050.0,10,20,1978/09,43,blank,,False,,,POINT Z (22.32652 114.180506 0),22.326520000000002,114.18050600000001
130,"WALTON MANSION,PRINCE EDWARD RD W|華苑,太子道西",KHMT,13207758.195773598,4612.0,990.0,12556611.451568615,4416.0,990.0,16461872.02017406,4924.0,1164.0,3.0,6.0,8.0,"['A', 'B', 'C']",14829823.618000781,4725.88888888889,1091.3333333333333,10,30,1964/02,57,blank,,False,,,POINT Z (22.326958 114.1834837 0),22.326957999999998,114.18348370000001
131,"EVERWELL GARDEN,SHEUNG HONG ST|常康園,常康街",KHMT,17494860.0,11412.0,1485.0,20549590.0,13609.0,1485.0,24685860.0,14871.0,3003.0,3.0,10.0,17.0,"['A', 'B', 'C', 'D', 'E', 'F', 'G', 'H']",20349692.285714287,13201.698412698412,1627.3333333333333,21,168,1972/07,49,blank,,False,,,POINT Z (22.3204041 114.1835766 0),22.3204041,114.18357659999998
132,"DUKE GARDEN,DUKE ST|爵園,公爵街",KHMT,14096015.982239582,7481.0,1000.0,14428742.523127878,7662.0,1000.0,18024955.655061454,8010.0,1220.0,3.0,6.0,10.0,"['A', 'B', 'C', 'D']",16039854.903865213,7738.416666666667,1108.8333333333333,12,48,1964/01,57,blank,,False,,,POINT Z (22.325829 114.1746129 0),22.325829000000002,114.1746129
133,"MANSFIELD COURT,PRINCE EDWARD RD W|文蔚閣,太子道西",KHMT,12808890.550061975,15387.0,792.0,11980603.93816156,14392.0,792.0,,,796.0,3.0,6.0,10.0,"['A', 'B', 'C']",12468509.360057592,14965.0,793.3333333333334,12,36,1994/12,27,blank,,False,,,POINT Z (22.32637 114.1837345 0),22.32637,114.1837345
134,108A BOUNDARY ST|108A 界限街,KHMT,22749219.999999996,19279.0,1180.0,21123960.45758194,18489.0,1087.0,21399306.580697164,18730.0,1087.0,0.0,1.0,2.0,['A'],21757495.67942637,18832.666666666668,1118.0,3,3,1957/03,64,blank,,False,,,POINT Z (22.3267128 114.1749031 0),22.3267128,114.1749031
135,"PARIS GARDEN,BELFRAN RD|巴豪苑,巴芬道",KHMT,14554615.6829301,14954.0,926.0,15029582.411114525,15442.0,926.0,15565866.565273577,15993.0,926.0,3.0,7.0,11.0,['whole floor'],15050021.553106068,15463.0,926.0,13,13,1993/01,28,blank,,False,,,POINT Z (22.3261089 114.1772603 0),22.326108899999998,114.17726029999999
136,"LATIN COURT,PRINCE EDWARD RD W|蘭亭閣,太子道西",KHMT,12947443.963093182,7416.0,934.0,13190121.24341545,7555.0,934.0,13973673.554705093,11657.0,950.0,3.0,6.0,10.0,"['A', 'B', 'C']",13507650.725467911,8896.0,944.6666666666666,12,36,1972/11,49,blank,,False,,,POINT Z (22.3250564 114.1764707 0),22.325056399999998,114.1764707
137,"GLEN HAVEN,ARGYLE ST|嘉麗園,亞皆老街",KHMT,10214904.237032237,13498.0,720.0,10748428.27667572,14203.0,720.0,22784881.96537017,15372.0,1440.0,4.0,10.0,16.0,"['A', 'B', 'C', 'D', 'E']",16328597.409320995,14439.199999999999,1072.4,18,90,1973/02,48,blank,,False,,,POINT Z (22.3204679 114.1734983 0),22.320467899999997,114.1734983
138,"ILFORD COURT(PERTH GARDEN),PERTH ST|巴富花園(宜富閣),巴富街",KHMT,14567699.999999998,14865.0,785.0,15411480.0,15726.0,785.0,16707419.999999998,16542.0,1010.0,8.0,14.0,20.0,"['A', 'B', 'C', 'D', 'E', 'F']",14812023.0,15576.766666666668,868.0,19,114,1980/07,41,PERTH GARDEN,巴富花園,True,3.0,360.0,POINT Z (22.3210928 114.1792109 0),22.321092800000002,114.17921090000002
139,"ERIN COURT,PRINCE EDWARD RD W|楓嗚閣,太子道西",KHMT,16644150.60062585,4750.0,1220.0,17029594.08821929,4860.0,1220.0,18363512.898849014,7887.0,1249.0,2.0,5.0,8.0,"['297A', 'A', 'B', 'whole floor']",17478014.33875097,5621.25,1229.6666666666667,9,36,1963/11,58,blank,,False,,,POINT Z (22.3260594 114.1817189 0),22.3260594,114.1817189
140,"HARITA COURT,PRINCE EDWARD RD W|恒泰大樓,太子道西",KHMT,11152653.893909337,10861.0,820.0,11396018.130430516,11098.0,820.0,12132271.959905976,11815.0,820.0,3.0,6.0,10.0,['whole floor'],11560314.661415277,11258.0,820.0,12,12,1963/06,58,blank,,False,,,POINT Z (22.324694 114.174471 0),22.324694,114.174471
141,"TIP TOP MANSION,SHEUNG SHING ST|集德苑,常盛街",KHMT,15673077.591372477,9576.0,1307.0,16471789.14782504,10064.0,1307.0,17741455.70853731,10782.0,1314.0,4.0,10.0,16.0,"['A', 'B']",16774580.433063122,10182.833333333334,1315.5,17,34,1973/01,48,blank,,False,,,POINT Z (22.3198073 114.1843197 0),22.3198073,114.18431969999999
142,"TIVOLI COURT,DUKE ST|德福閣,公爵街",KHMT,13197795.071829101,12114.0,870.0,13511561.373685366,12402.0,870.0,16086408.59281362,13522.0,950.0,3.0,6.0,10.0,"['A', 'B', 'C', 'D']",14619242.866929965,12820.083333333334,910.0,12,48,1976/08,45,blank,,False,,,POINT Z (22.3257989 114.1753493 0),22.3257989,114.17534930000001
143,"MING GARDEN,PRINCE EDWARD RD W|明園,太子道西",KHMT,8393203.431032533,11184.0,714.0,10298634.717816474,13049.0,714.0,12951289.75591481,14019.0,928.0,2.0,4.0,6.0,"['A', 'B']",11231755.229862751,13011.166666666666,821.0,7,14,1989/04,32,blank,,False,,,POINT Z (22.3257345 114.1801862 0),22.3257345,114.1801862
144,"WING ON COURT,HO MAN TIN HILL RD|永安臺,何文田山道",KHMT,,,1590.0,,,1590.0,,,1808.0,6.0,10.0,16.0,"['A', 'B', 'C', 'D']",,,1692.0833333333333,16,64,1977/07,44,blank,,False,,,POINT Z (22.314244 114.1767795 0),22.314244,114.1767795
145,"MAN CHUNG HSE(Block E,CHUN MAN COURT),CHUNG HAU ST|俊民苑,E座(文宗閣),忠孝街",KHMT,6122124.0,11796.0,485.0,6360775.0,12547.0,485.0,7947659.999999999,14216.0,596.0,3.0,8.0,13.0,"['1', '10', '2', '3', '4', '5', '6', '7', '8', '9']",6965708.133333333,13008.033333333333,535.8,15,150,1981/00,40,CHUN MAN COURT,俊民苑,True,12.0,1775.0,POINT Z (22.3141244 114.1781502 0),22.314124399999997,114.1781502
146,"MAN OI HSE(Block K,CHUN MAN COURT),CHUNG HAU ST|俊民苑,K座(文愛閣),忠孝街",KHMT,6361745.0,12214.0,485.0,6592605.0,12344.0,485.0,7840975.999999999,14217.0,596.0,3.0,8.0,13.0,"['1', '10', '2', '3', '4', '5', '6', '7', '8', '9']",6976406.476190477,13386.952380952382,535.8,15,150,1980/01,41,CHUN MAN COURT,俊民苑,True,12.0,1775.0,POINT Z (22.3140271 114.1788161 0),22.3140271,114.17881609999999
147,"NIN FUNG BLDG,WATERLOO RD|年豐樓,窩打老道",KHMT,10923510.559779763,10551.0,985.0,11258949.610236464,10875.0,985.0,12205219.03035197,11789.0,985.0,6.0,10.0,16.0,"['A', 'B']",11447547.800642418,11057.166666666666,985.0,16,32,1973/01,48,blank,,False,,,POINT Z (22.3177635 114.1746129 0),22.3177635,114.1746129
148,"MANTIN COURT,HO MAN TIN HILL RD|文田閣,何文田山道",KHMT,20898372.516888734,6520.0,1094.0,21278571.44555262,6673.0,1094.0,46220878.02186637,7355.0,2188.0,3.0,6.0,9.0,"['A', 'AB', 'B']",29542410.2495276,6828.666666666667,1488.0,10,30,1975/02,46,blank,,False,,,POINT Z (22.3166492 114.1767029 0),22.3166492,114.17670290000001
149,"CASCADES(Block 1),CHUNG HAU ST|欣圖軒1座,忠孝街",KHMT,6804657.0,13920.0,467.0,7126420.0,14578.0,467.0,8228520.0,16031.0,710.0,4.0,10.0,16.0,"['A', 'B', 'C', 'D', 'E', 'F', 'G', 'H', 'J', 'K']",7444477.074074075,14970.37037037037,519.0,19,190,1998/12,23,CASCADES,欣圖軒,True,4.0,740.0,POINT Z (22.3159115 114.1797218 0),22.3159115,114.17972179999998
150,"MAN HUNG HSE(Block G,CHUN MAN COURT),CHUNG HAU ST|俊民苑,G座(文雄閣),忠孝街",KHMT,6271050.0,12276.0,485.0,6650805.0,12594.0,485.0,8407772.0,14273.0,596.0,3.0,8.0,13.0,"['1', '10', '2', '3', '4', '5', '6', '7', '8', '9']",7170407.666666667,13392.066666666666,535.8,15,150,1981/03,40,CHUN MAN COURT,俊民苑,True,12.0,1775.0,POINT Z (22.3141244 114.1781502 0),22.314124399999997,114.1781502
151,"TRIUMPH TERR,VICTORY AVE|凱旋居,勝利道",KHMT,7415153.804331802,13970.0,505.0,7941698.727302249,14962.0,505.0,12410693.219178058,15750.0,777.0,8.0,18.0,26.0,"['A', 'B']",8580726.752851333,14394.833333333334,641.0,24,48,1998/12,23,blank,,False,,,POINT Z (22.319578 114.174331 0),22.319578,114.17433100000001
152,"MAN LAN HSE(Block C,CHUN MAN COURT),CHUNG HAU ST|俊民苑,C座(文蘭閣),忠孝街",KHMT,5811270.0,11535.0,485.0,6029035.0,11734.0,485.0,7956004.0,13355.0,596.0,3.0,8.0,13.0,"['1', '10', '2', '3', '4', '5', '6', '7', '8', '9']",6752474.866666667,12597.799999999997,535.8,15,150,1980/09,41,CHUN MAN COURT,俊民苑,True,12.0,1775.0,POINT Z (22.3141244 114.1781502 0),22.314124399999997,114.1781502
153,"DRAGON VIEW(Block 1),CHUNG HAU ST|御龍居1座,忠孝街",KHMT,8983956.0,15690.0,564.0,11219670.0,6214.0,630.0,,,1602.0,13.0,33.0,64.0,"['A', 'B', 'C', 'D', 'E', 'F', 'G', 'H']",16407567.484565575,15693.958333333332,990.9583333333334,57,456,1998/10,23,DRAGON VIEW,御龍居,True,2.0,648.0,POINT Z (22.3160869 114.1788858 0),22.3160869,114.1788858
154,"MAN PAN HSE(Block B,CHUN MAN COURT),CHUNG HAU ST|俊民苑,B座(文斌閣),忠孝街",KHMT,6084325.0,12390.0,485.0,6434010.0,12874.0,485.0,8122288.0,13894.0,596.0,3.0,8.0,12.0,"['1', '10', '2', '3', '4', '5', '6', '7', '8', '9']",7053728.633333333,13163.9,535.8,14,140,1980/04,41,CHUN MAN COURT,俊民苑,True,12.0,1775.0,POINT Z (22.3141244 114.1781502 0),22.314124399999997,114.1781502
155,"MAN HEI HSE(Block H,CHUN MAN COURT),CHUNG HAU ST|俊民苑,H座(文禧閣),忠孝街",KHMT,6468816.0,12464.0,485.0,6725202.0,12958.0,485.0,8522204.0,14442.0,596.0,3.0,8.0,13.0,"['1', '10', '2', '3', '4', '5', '6', '7', '8', '9']",7318834.233333333,13662.433333333334,535.8,15,150,1981/03,40,CHUN MAN COURT,俊民苑,True,12.0,1775.0,POINT Z (22.3142168 114.1781659 0),22.3142168,114.1781659
156,"DRAGON VIEW(Block 2),CHUNG HAU ST|御龍居2座,忠孝街",KHMT,7892869.999999999,13945.0,532.0,8047388.0,14218.0,532.0,14013580.0,18784.0,796.0,5.0,12.0,21.0,"['A', 'B', 'C', 'D', 'E', 'F', 'G', 'H']",10555882.0,16073.583333333334,659.0,24,192,1998/06,23,DRAGON VIEW,御龍居,True,2.0,648.0,POINT Z (22.316338 114.1785375 0),22.316338000000002,114.1785375
157,"MAN FUK HSE(Block A,CHUN MAN COURT),CHUNG HAU ST|俊民苑,A座(文福閣),忠孝街",KHMT,6192965.0,11402.0,485.0,6164163.0,11602.0,485.0,7374308.0,13286.0,596.0,3.0,8.0,13.0,"['1', '10', '2', '3', '4', '5', '6', '7', '8', '9']",6514898.399999999,12185.1,535.8,15,150,1980/04,41,CHUN MAN COURT,俊民苑,True,12.0,1775.0,POINT Z (22.3141244 114.1781502 0),22.314124399999997,114.1781502
158,"MAN HOI HSE(Block F,CHUN MAN COURT),CHUNG HAU ST|俊民苑,F座(文凱閣),忠孝街",KHMT,6127942.972948852,11721.0,485.0,6319689.999253344,11585.0,485.0,8279641.430758221,13217.0,596.0,3.0,8.0,13.0,"['1', '10', '2', '3', '4', '5', '6', '7', '8', '9']",6955416.33557108,12350.800000000001,535.8,15,150,1980/12,41,CHUN MAN COURT,俊民苑,True,12.0,1775.0,POINT Z (22.3141244 114.1781502 0),22.314124399999997,114.1781502
159,"MAN MING HSE(Block J,CHUN MAN COURT),CHUNG HAU ST|俊民苑,J座(文明閣),忠孝街",KHMT,6038735.0,12040.0,485.0,6286569.999999999,12508.0,485.0,8107388.0,13736.0,596.0,3.0,8.0,13.0,"['1', '10', '2', '3', '4', '5', '6', '7', '8', '9']",6881990.3,12847.066666666666,535.8,15,150,1980/00,41,CHUN MAN COURT,俊民苑,True,12.0,1775.0,POINT Z (22.3141244 114.1781502 0),22.314124399999997,114.1781502
160,"TUNG NAM MANSION,WATERLOO RD|東南大樓,窩打老道",KHMT,7246614.101704513,3630.0,680.0,7420293.282654455,3717.0,680.0,8843565.619729144,12283.0,685.0,5.0,8.0,10.0,"['B', 'whole floor']",8049147.667358083,7893.0,682.5,8,16,1971/04,50,blank,,False,,,POINT Z (22.3179958 114.1747987 0),22.317995800000002,114.1747987
161,"MAN HOR HSE(Block D,CHUN MAN COURT),CHUNG HAU ST|俊民苑,D座(文賀閣),忠孝街",KHMT,5554705.0,11453.0,485.0,5762285.0,11881.0,485.0,8017988.000000001,13453.0,596.0,3.0,8.0,13.0,"['1', '10', '2', '3', '4', '5', '6', '7', '8', '9']",6744040.166666667,12579.5,535.8,15,150,1981/04,40,CHUN MAN COURT,俊民苑,True,12.0,1775.0,POINT Z (22.3141244 114.1781502 0),22.314124399999997,114.1781502
162,"MAN YIN HSE(Block M,CHUN MAN COURT),CHUNG HAU ST|俊民苑,M座(文彥閣),忠孝街",KHMT,6450984.999999999,12336.0,485.0,6686695.0,12818.0,485.0,8305260.0,13935.0,596.0,3.0,8.0,13.0,"['1', '10', '2', '3', '4', '5', '6', '7', '8', '9']",7393048.133333333,13133.066666666666,535.8,15,150,1981/05,40,CHUN MAN COURT,俊民苑,True,12.0,1775.0,POINT Z (22.3141244 114.1781502 0),22.314124399999997,114.1781502
163,"MAN SHUI HSE(Block L,CHUN MAN COURT),CHUNG HAU ST|俊民苑,L座(文瑞閣),忠孝街",KHMT,6136705.0,12570.0,485.0,6384055.000000001,12928.0,485.0,8336252.0,13987.0,596.0,3.0,8.0,13.0,"['1', '10', '2', '3', '4', '5', '6', '8', '9']",7144633.962962963,13188.185185185184,541.4444444444445,15,135,1980/00,41,CHUN MAN COURT,俊民苑,True,12.0,1775.0,POINT Z (22.3141244 114.1781502 0),22.314124399999997,114.1781502
164,"GRAND COURT(Block 2),HO MAN TIN HILL RD|加林閣2座,何文田山道",KHMT,16037831.432431167,14194.0,1075.0,16409569.247090168,14523.0,1075.0,17716662.152416963,15023.0,1122.0,3.0,6.0,10.0,"['A', 'B']",16624310.570903093,14499.833333333334,1098.5,12,24,1981/10,40,GRAND COURT,加林閣,True,2.0,48.0,POINT Z (22.3164594 114.1773532 0),22.3164594,114.17735320000001
165,"YICK FAT BLDG,WATERLOO RD|益發大廈,窩打老道",KHMT,11329443.395259367,6116.0,854.0,8680723.674773328,6660.0,854.0,12848433.516925927,6936.0,1003.0,2.0,6.0,10.0,"['A', 'B', 'C', 'whole floor']",11546219.161233867,6617.833333333333,959.75,12,48,1965/04,56,blank,,False,,,POINT Z (22.3191719 114.1756347 0),22.319171899999997,114.1756347
166,"DAWN GARDEN,HO MAN TIN HILL RD|春曉園,何文田山道",KHMT,20518858.0,16259.0,1262.0,21061517.999999996,16689.0,1262.0,21650872.0,17156.0,1262.0,3.0,6.0,10.0,"['A', 'B']",21085285.666666668,16707.833333333332,1262.0,12,24,1975/09,46,blank,,False,,,POINT Z (22.3168895 114.1762849 0),22.3168895,114.17628490000001
167,"BALWIN COURT(Block 1),ARGYLE ST|寶雲閣1座,亞皆老街",KHMT,7660000.977371496,11212.0,640.0,7974954.638677977,11673.0,640.0,10724069.687986322,12519.0,1309.0,3.0,8.0,13.0,"['A', 'B', 'C', 'D']",9694060.064672539,12468.75,785.75,14,56,1976/12,45,BALWIN COURT,寶雲閣,True,5.0,299.0,POINT Z (22.3223931 114.1808481 0),22.322393100000003,114.18084809999999
168,"THE ASTRID(Block 1),ARGYLE ST|雅麗居1座,亞皆老街",KHMT,10221580.0,10825.0,530.0,,,530.0,,,1483.0,22.0,68.0,102.0,"['A', 'B', 'C', 'D', 'E', 'F']",21803562.923286114,18411.0,1081.6666666666667,96,576,1995/03,26,THE ASTRID,雅麗居,True,2.0,666.0,POINT Z (22.3230467 114.1824387 0),22.3230467,114.1824387
169,"THE ASTRID(Block 2),ARGYLE ST|雅麗居2座,亞皆老街",KHMT,9038620.0,16993.0,530.0,9394250.0,17278.0,530.0,39690425.672500595,14585.0,1836.0,6.0,11.0,18.0,"['A', 'B', 'C', 'D', 'E', 'F']",18878692.97869676,15741.633333333333,892.0,15,90,1995/03,26,THE ASTRID,雅麗居,True,2.0,666.0,POINT Z (22.3229163 114.1821601 0),22.3229163,114.1821601
170,"BALWIN COURT(Block 3),ARGYLE ST|寶雲閣3座,亞皆老街",KHMT,,,638.0,,,638.0,,,815.0,3.0,8.0,12.0,"['A', 'B', 'C', 'D']",,,726.5,14,56,1976/12,45,BALWIN COURT,寶雲閣,True,5.0,299.0,POINT Z (22.3223931 114.1808481 0),22.322393100000003,114.18084809999999
171,"FAIR WAY GARDEN(Block A),PEACE AVE|富威花園A座,太平道",KHMT,11072447.658177523,4708.0,842.0,12225457.277369251,7267.0,873.0,13609716.586896565,7713.0,900.0,7.0,15.0,22.0,"['1', '2']",12246474.224153785,6583.666666666667,876.1666666666666,21,42,1984/10,37,FAIR WAY GARDEN,富威花園,True,3.0,276.0,POINT Z (22.3192759 114.1737752 0),22.319275899999997,114.17377520000001
172,"GLORIOUS COURT,PRINCE EDWARD RD W|堂皇閣,太子道西",KHMT,15975663.71465685,12732.0,1002.0,,,1002.0,,,2064.0,15.0,50.0,76.0,['whole floor'],15975663.71465685,12732.0,1356.0,71,71,1986/01,35,blank,,False,,,POINT Z (22.3268859 114.1831122 0),22.3268859,114.1831122
173,"BRIGHT VIEW COURT,ARGYLE ST|明明閣,亞皆老街",KHMT,16521966.163921582,5263.0,1093.0,16782525.387103323,5193.0,1093.0,17488544.693383362,5426.0,1153.0,6.0,8.0,10.0,"['A', 'B']",17115751.62189354,5307.5,1123.0,7,14,1973/00,48,blank,,False,,,POINT Z (22.3254434 114.1858988 0),22.325443399999997,114.18589879999999
174,"EMMA PLACE,EMMA AVE|盛馬苑,艷馬道",KHMT,4105944.0,17183.0,216.0,4266216.0,17914.0,216.0,5922000.0,20701.0,315.0,6.0,11.0,17.0,"['A', 'B']",4970188.5,18893.0,265.5,17,34,2001/04,20,blank,,False,,,POINT Z (22.319376 114.1756859 0),22.319376000000002,114.17568590000002
175,"CASCADES(Block 2),CHUNG HAU ST|欣圖軒2座,忠孝街",KHMT,6516985.000000001,12796.0,467.0,6833144.0,13373.0,467.0,10965569.197380895,15578.0,725.0,4.0,10.0,16.0,"['A', 'B', 'C', 'D', 'E', 'F', 'G', 'H', 'J', 'K']",7427848.861775357,14347.133333333331,515.6999999999999,19,190,1998/12,23,CASCADES,欣圖軒,True,4.0,740.0,POINT Z (22.3157005 114.179954 0),22.315700500000002,114.17995400000001
176,"CASCADES(Block 3),CHUNG HAU ST|欣圖軒3座,忠孝街",KHMT,6446001.0,13389.0,467.0,6862098.0,13888.0,467.0,8024940.0,15393.0,540.0,5.0,10.0,16.0,"['A', 'B', 'C', 'D', 'E', 'F', 'G', 'H', 'J', 'K']",7128603.633333333,14460.0,493.3,18,180,1998/12,23,CASCADES,欣圖軒,True,4.0,740.0,POINT Z (22.3155404 114.1801398 0),22.3155404,114.1801398
177,"CASCADES(Block 4),CHUNG HAU ST|欣圖軒4座,忠孝街",KHMT,6606535.0,12933.0,467.0,6887316.0,13526.0,467.0,12675175.0,17483.0,725.0,5.0,10.0,16.0,"['A', 'B', 'C', 'D', 'E', 'F', 'G', 'H', 'J', 'K']",7636547.233333333,14703.066666666666,517.1,18,180,1998/12,23,CASCADES,欣圖軒,True,4.0,740.0,POINT Z (22.3156855 114.1803256 0),22.3156855,114.1803256
178,"ELLERY TERR,GOOD SHEPHERD ST|雅利德樺臺,牧愛街",KHMT,12407400.0,13560.0,915.0,13746045.000000002,14949.0,915.0,19440452.0,17068.0,1139.0,16.0,28.0,39.0,"['A', 'B', 'C', 'D', 'E', 'F']",15500799.666666666,15440.88888888889,1002.7777777777778,34,204,2000/12,21,blank,,False,,,POINT Z (22.3165194 114.1787697 0),22.316519399999997,114.17876969999999
179,"VISION COURT,PRINCE EDWARD RD W|青雲閣,太子道西",KHMT,7190908.689410807,14202.0,397.0,7561866.60880303,14901.0,397.0,22020388.55065574,18776.0,1142.0,9.0,16.0,21.0,"['A', 'A & B', 'AB', 'B', 'C']",14232987.323315246,16572.13333333333,764.6,17,85,2001/09,20,blank,,False,,,POINT Z (22.3264749 114.1807436 0),22.326474899999997,114.1807436
180,"BALWIN COURT(Block 4),ARGYLE ST|寶雲閣4座,亞皆老街",KHMT,7588326.289996855,7033.0,638.0,8579449.147598071,7305.0,638.0,19616384.830879945,13712.0,1309.0,3.0,8.0,13.0,"['A', 'B', 'C', 'CD', 'D']",11722394.102019126,12025.4,842.5333333333333,15,75,1976/12,45,BALWIN COURT,寶雲閣,True,5.0,299.0,POINT Z (22.3223931 114.1808481 0),22.322393100000003,114.18084809999999
181,"GRAND EXCELSIOR,WATERLOO RD|嘉多利豪園,窩打老道",KHMT,13262760.0,19944.0,665.0,14604632.0,21896.0,667.0,24064090.0,25198.0,955.0,11.0,22.0,31.0,"['A', 'B', 'C', 'D']",17441255.055555556,21476.416666666668,818.0,28,112,2002/10,19,blank,,False,,,POINT Z (22.3239666 114.1780196 0),22.323966600000002,114.1780196
182,"ST. GEORGE APTS,WATERLOO RD|聖佐治大廈,窩打老道",KHMT,23518794.23519155,12396.0,1015.0,25937837.688714396,13671.0,1015.0,33598541.04312746,14721.0,1221.0,9.0,16.0,22.0,"['A', 'B', 'C', 'D']",27748363.708978225,13718.583333333334,1104.0,18,72,2002/04,19,blank,,False,,,POINT Z (22.3237478 114.1779588 0),22.3237478,114.1779588
183,"NO.1 HO MAN TIN HILL,HO MAN TIN HILL RD|何文田山1號,何文田山道",KHMT,22462128.300324146,20022.0,1041.0,23496181.134038832,21351.0,1008.0,39753103.22534211,25164.0,1503.0,8.0,18.0,27.0,"['A', 'B', 'C', 'D']",28062017.53675072,21508.75,1232.75,28,112,2002/11,19,blank,,False,,,POINT Z (22.3173487 114.1758001 0),22.3173487,114.17580009999999
184,"PRINCESS COURT,KING TAK ST|嘉苑,敬德街",KHMT,9893609.882483542,4355.0,771.0,10178806.598382175,4495.0,771.0,15188077.036119256,4870.0,1109.0,7.0,11.0,16.0,"['A', 'B', 'C']",12434064.230607832,4576.333333333333,926.0,13,39,1972/12,49,blank,,False,,,POINT Z (22.31929 114.1798611 0),22.31929,114.1798611
185,"MING FAI HSE(Block A,KWUN FAI COURT),SHEUNG LOK ST|冠暉苑,A座(鳴暉閣),常樂街",KHMT,4811988.0,10013.0,411.0,4884735.0,10157.0,411.0,8148200.000000001,13100.0,622.0,4.0,6.0,9.0,"['1', '10', '11', '13', '3', '4', '5', '6', '7']",5768257.74074074,11469.481481481482,502.7777777777778,10,90,1999/01,22,KWUN FAI COURT,冠暉苑,True,2.0,234.0,POINT Z (22.3143165 114.1826477 0),22.3143165,114.18264769999999
186,"CARMEL ON THE HILL,CARMEL VILLAGE ST|君逸山,迦密村街",KHMT,7527296.0,15176.0,492.0,7941952.0,16012.0,492.0,9419832.0,19146.0,502.0,10.0,18.0,27.0,"['A', 'B', 'C', 'D', 'E', 'F', 'G', 'H']",8344241.541666667,16798.666666666668,496.75,24,192,2003/10,18,blank,,False,,,POINT Z (22.313789 114.1792695 0),22.313789,114.1792695
187,"EDWARDIAN HEIGHTS,(Phase 2),PRINCE EDWARD RD W|愛華閣,2期,太子道西",KHMT,11087506.137662848,13219.0,793.0,9353180.929408541,10959.0,793.0,11595791.841530288,13825.0,812.0,3.0,6.0,9.0,"['A', 'B', 'C']",10875361.77866683,12964.166666666666,801.1111111111112,11,33,1973/02,48,blank,,False,,,POINT Z (22.3261748 114.1823691 0),22.3261748,114.18236909999999
188,"KO FAI HSE(Block B,KWUN FAI COURT),SHEUNG LOK ST|冠暉苑,B座(高暉閣),常樂街",KHMT,3861279.0,13269.0,287.0,3959228.0,13559.0,287.0,4362152.0,15022.0,296.0,7.0,10.0,13.0,"['1', '10', '11', '12', '13', '14', '15', '16', '24', '3', '4', '5', '6', '7', '8', '9']",4176631.7777777775,14440.555555555557,289.3541666666667,9,144,1999/06,22,KWUN FAI COURT,冠暉苑,True,2.0,234.0,POINT Z (22.3141285 114.1819046 0),22.3141285,114.18190459999998
189,6C DUKE ST|6C 公爵街,KHMT,,,940.0,,,940.0,,,940.0,1.0,2.0,2.0,['whole floor'],,,940.0,2,2,1958/08,63,blank,,False,,,POINT Z (22.3261147 114.1759857 0),22.326114699999998,114.17598570000001
190,6 DUKE ST|6 公爵街,KHMT,,,968.0,,,968.0,,,968.0,0.0,0.0,0.0,['whole floor'],,,968.0,1,1,1958/08,63,blank,,False,,,POINT Z (22.3261147 114.1759857 0),22.326114699999998,114.17598570000001
191,"KAI HING BLDG,ARGYLE ST|皆興大廈,亞皆老街",KHMT,5560140.885777894,7627.0,390.0,5588684.336785559,7550.0,390.0,5741910.516615309,7757.0,950.0,1.0,4.0,7.0,"['A', 'B', 'whole floor']",5640264.427624163,7677.833333333333,575.3333333333334,9,27,1958/07,63,blank,,False,,,POINT Z (22.3201552 114.1751354 0),22.3201552,114.1751354
192,"NG FUNG HSE,WATERLOO RD|五豐樓,窩打老道",KHMT,14233280.0,11705.0,1216.0,14646720.0,11749.0,1216.0,15334683.325479284,12291.0,1216.0,3.0,7.0,10.0,"['A', 'B']",14984645.046232088,12016.0,1216.0,11,22,1964/01,57,blank,,False,,,POINT Z (22.3249226 114.1787 0),22.3249226,114.1787
193,"KWUN HEI COURT,SHEUNG LOK ST|冠熹苑,常樂街",KHMT,3033759.0,10068.0,213.0,3360457.2909279596,11116.0,212.0,8566654.0,16227.0,601.0,8.0,20.0,33.0,"['1', '10', '11', '12', '13', '14', '15', '16', '17', '18', '19', '2', '20', '3', '4', '5', '6', '7', '8', '9']",5955409.270146257,12611.141612200436,439.75,40,800,2000/05,21,blank,,False,,,POINT Z (22.314472 114.1831818 0),22.314472,114.1831818
194,13 LIBERTY AVE|13 自由道,KHMT,,,788.0,,,788.0,,,788.0,1.0,1.0,1.0,['whole floor'],,,788.0,1,1,1964/06,57,blank,,False,,,POINT Z (22.3186438 114.1740588 0),22.3186438,114.1740588
195,268-270C PRINCE EDWARD RD W|268-270C 太子道西,KHMT,7528527.662756042,10771.0,665.0,7587240.53283974,10855.0,665.0,9559410.673881369,11469.0,793.0,0.0,1.0,2.0,"['A', 'E', 'F', 'H']",8966359.358697036,11195.5,761.0,3,12,1958/01,63,blank,,False,,,POINT Z (22.3256252 114.1777429 0),22.325625199999998,114.1777429
196,6A DUKE ST|6A 公爵街,KHMT,,,933.0,,,933.0,,,933.0,1.0,1.0,1.0,['whole floor'],,,933.0,1,1,1958/08,63,blank,,False,,,POINT Z (22.3261147 114.1759857 0),22.326114699999998,114.17598570000001
197,"HOVE COURT(PERTH GARDEN),PERTH ST|巴富花園(豪富閣),巴富街",KHMT,11132085.0,14181.0,785.0,11608580.0,14788.0,785.0,13282447.0,16061.0,980.0,8.0,14.0,21.0,"['A', 'B', 'C', 'D', 'E', 'F']",12061394.333333334,15029.222222222224,865.6666666666666,20,120,1980/07,41,PERTH GARDEN,巴富花園,True,3.0,360.0,POINT Z (22.3211723 114.179536 0),22.3211723,114.17953600000001
198,"GARVE COURT(PERTH GARDEN),PERTH ST|巴富花園(嘉富閣),巴富街",KHMT,11631345.0,14817.0,785.0,12078795.0,15387.0,785.0,17994760.0,18362.0,1010.0,8.0,15.0,22.0,"['A', 'B', 'C', 'D', 'E', 'F']",13907125.055555554,16083.222222222224,862.1111111111112,21,126,1980/07,41,PERTH GARDEN,巴富花園,True,3.0,360.0,POINT Z (22.321344 114.17981 0),22.321344,114.17981
199,"PARK HORIZON,WATERLOO RD|翠林雅軒,窩打老道",KHMT,8927683.0,15209.0,587.0,9491203.0,16169.0,587.0,12976547.999999998,16972.0,772.0,12.0,20.0,27.0,"['A', 'B']",11129478.333333334,16347.5,679.5,22,44,2006/10,15,blank,,False,,,POINT Z (22.3178207 114.1753561 0),22.3178207,114.1753561
200,"GAY MANSION,WATERLOO RD|寶建大廈,窩打老道",KHMT,8645515.9686853,5675.0,815.0,8899930.271199916,5842.0,815.0,8758250.450039081,5749.0,825.0,3.0,7.0,10.0,"['A', 'B']",8767898.896641431,5755.333333333333,820.0,11,22,1966/04,55,blank,,False,,,POINT Z (22.3169498 114.1745201 0),22.316949800000003,114.1745201
201,11 LIBERTY AVE|11 自由道,KHMT,,,803.0,,,803.0,,,650.0,3.0,4.0,5.0,['whole floor'],,,752.0,4,4,1963/05,58,blank,,False,,,POINT Z (22.3186438 114.1740588 0),22.3186438,114.1740588
202,"BELFRAN MANSION,BELFRAN RD|福園,巴芬道",KHMT,16765099.534776548,15337.0,1040.0,17294167.030038454,15821.0,1040.0,17594773.56143726,16096.0,1098.0,2.0,6.0,9.0,"['1', '4A', '5', '6A', '7']",17218013.375417423,15751.333333333334,1074.8,9,45,1966/10,55,blank,,False,,,POINT Z (22.3264068 114.1773067 0),22.3264068,114.1773067
203,"15 HOMANTIN HILL,HO MAN TIN HILL RD|灝畋峰,何文田山道",KHMT,83482900.82454902,21827.0,1620.0,49389569.023081444,28212.0,1620.0,59383822.810708016,29783.0,3498.0,17.0,28.0,40.0,"['A', 'AB', 'B', 'whole floor']",79400357.38883232,27456.94444444444,2512.8333333333335,34,136,2006/04,15,blank,,False,,,POINT Z (22.3159481 114.1765868 0),22.315948100000004,114.1765868
204,"GARTIN COURT,HO MAN TIN ST|嘉田大廈,何文田街",KHMT,11304687.045217095,7239.0,792.0,11513429.956869217,7338.0,792.0,12174090.281056834,8038.0,870.0,4.0,6.0,9.0,"['B', 'FRONT FLAT', 'REAR']",11716558.886998111,7672.777777777777,818.0,10,30,1964/02,57,blank,,False,,,POINT Z (22.3159534 114.175263 0),22.315953399999998,114.17526299999999
205,"BALWIN COURT(Block 5),ARGYLE ST|寶雲閣5座,亞皆老街",KHMT,8081205.383594212,12051.0,638.0,8384979.845362378,12504.0,638.0,12427893.844021533,14703.0,815.0,3.0,8.0,12.0,"['A', 'B', 'C', 'D']",10045504.214754574,13301.5,726.5,14,56,1976/12,45,BALWIN COURT,寶雲閣,True,5.0,299.0,POINT Z (22.3223931 114.1808481 0),22.322393100000003,114.18084809999999
206,23 SOARES AVE|23 梭椏道,KHMT,,,473.0,,,473.0,,,473.0,4.0,6.0,9.0,['whole floor'],,,473.0,10,10,1973/07,48,blank,,False,,,POINT Z (22.3192803 114.1751104 0),22.319280300000003,114.17511040000001
207,"BALWIN COURT(Block 2),ARGYLE ST|寶雲閣2座,亞皆老街",KHMT,9369668.0,14487.0,638.0,9723120.0,15080.0,638.0,12694439.999999998,15879.0,815.0,3.0,8.0,12.0,"['A', 'B', 'C', 'D']",11028985.666666666,15183.416666666666,727.0833333333334,14,56,1976/12,45,BALWIN COURT,寶雲閣,True,5.0,299.0,POINT Z (22.3223931 114.1808481 0),22.322393100000003,114.18084809999999
208,"CHUEN FAT BLDG,VALLEY RD|全發大廈,山谷道",KHMT,3770208.0,12991.0,288.0,4036320.0,13639.0,288.0,5283699.0,14847.0,367.0,4.0,11.0,19.0,"['A', 'B', 'C', 'D']",4530564.083333333,13854.166666666666,327.5,21,84,1978/12,43,blank,,False,,,POINT Z (22.3098464 114.1839017 0),22.309846399999998,114.18390169999999
209,"YEE ON COURT(Block A),WATERLOO RD|怡安閣A座,窩打老道",KHMT,11909142.618359905,11621.0,975.0,12467655.889765648,12166.0,975.0,14873874.534280667,14514.0,975.0,9.0,15.0,20.0,"['1', '2', '3', '4']",13269984.970019007,12948.916666666666,975.0,17,68,1976/06,45,YEE ON COURT,怡安閣,True,3.0,320.0,POINT Z (22.3205439 114.17661 0),22.320543899999997,114.17661000000001
210,"THE HONG GARDEN,HO MAN TIN ST|康園,何文田街",KHMT,,,1141.0,,,1141.0,,,1141.0,1.0,2.0,2.0,['whole floor'],,,1141.0,4,4,1956/11,65,blank,,False,,,POINT Z (22.3151011 114.1753315 0),22.315101100000003,114.1753315
211,"MOUNTAIN COURT(Block B),HO MAN TIN HILL RD|文豪閣B座,何文田山道",KHMT,15447796.518100072,14534.0,985.0,15783235.568556773,14856.0,985.0,18634528.459602434,15562.0,1152.0,3.0,6.0,9.0,"['A', 'B', 'C', 'D']",16925624.911561877,15097.666666666666,1067.25,11,44,1985/03,36,MOUNTAIN COURT,文豪閣,True,2.0,92.0,POINT Z (22.316796 114.176508 0),22.316796,114.17650800000001
212,"ONE VICTORY,VICTORY AVE|勝利道1號,勝利道",KHMT,4084950.0,16698.0,226.0,4276372.0,17307.0,226.0,17151320.0,21112.0,823.0,9.0,18.0,26.0,"['A', 'B', 'C', 'whole floor']",9839503.75,18922.083333333332,515.0,23,92,2011/09,10,blank,,False,,,POINT Z (22.3184736 114.1747407 0),22.3184736,114.17474070000002
213,"MOUNTAIN COURT(Block A),HO MAN TIN HILL RD|文豪閣A座,何文田山道",KHMT,18145670.0,18422.0,985.0,18590890.0,18874.0,985.0,23145984.0,20101.0,1152.0,3.0,6.0,10.0,"['A', 'B', 'C', 'D']",20662420.166666668,19343.5,1067.25,12,48,1985/03,36,MOUNTAIN COURT,文豪閣,True,2.0,92.0,POINT Z (22.316796 114.176508 0),22.316796,114.17650800000001
214,19 VALLEY RD|19 山谷道,KHMT,,,177.0,,,177.0,,,760.0,1.0,2.0,3.0,"['C', 'whole floor']",,,468.5,3,6,1951/10,70,blank,,False,,,POINT Z (22.3095873 114.1838606 0),22.3095873,114.18386059999999
215,"CHEERBOND COURT,BOUNDARY ST|昌邦閣,界限街",KHMT,14815439.147149032,15627.0,902.0,15042975.167838592,15867.0,902.0,15942690.516315231,16816.0,902.0,3.0,5.0,7.0,"['A', 'B']",15173018.324107697,16004.166666666666,902.0,7,14,1991/08,30,blank,,False,,,POINT Z (22.3268522 114.1811151 0),22.3268522,114.18111509999999
216,1B LIBERTY AVE|1B 自由道,KHMT,,,988.0,,,988.0,,,988.0,0.0,1.0,2.0,['whole floor'],,,988.0,3,3,1955/08,66,blank,,False,,,POINT Z (22.3186438 114.1740588 0),22.3186438,114.1740588
217,"KADOORIE HILL,PRINCE EDWARD RD W|KADOORIE HILL,太子道西",KHMT,18507252.859346557,22944.0,610.0,31308300.57808779,25205.0,1102.0,44449321.4046175,29045.0,1456.0,9.0,16.0,20.0,"['A', 'B', 'C', 'D', 'E']",32475796.347119927,26338.93333333333,1160.1333333333334,16,80,2013/01,8,blank,,False,,,POINT Z (22.324937 114.175459 0),22.324937,114.175459
218,"THE PENTLAND COURT,PENTLAND ST|品蘭臺,品蘭街",KHMT,,,1141.0,,,1141.0,,,1178.0,1.0,2.0,4.0,"['A', 'B']",,,1147.1666666666667,5,10,1961/06,60,blank,,False,,,POINT Z (22.3261485 114.1841354 0),22.3261485,114.1841354
219,"KADOORIE LOOKOUT,ARGYLE ST|加多利峰,亞皆老街",KHMT,9494329.0,17813.0,533.0,10044385.0,18845.0,533.0,22566045.0,24555.0,960.0,9.0,16.0,22.0,"['A', 'B', 'C']",16808340.222222224,20613.88888888889,804.0,18,54,2014/03,7,blank,,False,,,POINT Z (22.3200972 114.1749058 0),22.3200972,114.17490579999999
220,"DUNBAR PLACE,DUNBAR RD|DUNBAR PLACE,登巴道",KHMT,23931782.0,19762.0,1211.0,25951730.0,21430.0,1211.0,45532230.0,24881.0,4248.0,9.0,16.0,21.0,"['A', 'A-C', 'B', 'C']",32102179.22222222,22481.0,2124.6666666666665,18,72,2013/08,8,blank,,False,,,POINT Z (22.3220695 114.1801687 0),22.3220695,114.1801687
221,"PAXTON,PRINCE EDWARD RD W|雋瓏,太子道西",KHMT,26606048.195676878,27073.0,935.0,30806330.76459509,31347.0,935.0,62279992.262818724,34604.0,4412.0,5.0,10.0,17.0,"['A', 'ABC', 'B', 'C']",48069953.94043553,31380.833333333332,2206.0,15,60,2014/03,7,blank,,False,,,POINT Z (22.326324 114.183337 0),22.326324,114.18333700000001
222,"3 JULIA AVENUE,JULIA AVE|棗梨雅道3號,棗梨雅道",KHMT,14403449.999999998,21990.0,655.0,,,655.0,,,1887.0,22.0,68.0,102.0,"['A', 'B', 'C']",19686750.291148797,22944.0,1137.4444444444446,96,288,2015/09,6,blank,,False,,,POINT Z (22.31995 114.1751238 0),22.31995,114.1751238
223,"8 LASALLE,LA SALLE RD|傲名,喇沙利道",KHMT,16468237.972158764,23904.0,599.0,17447253.533832766,27176.0,599.0,62551985.46692988,32275.0,2545.0,5.0,10.0,17.0,"['A', 'A-C', 'AB', 'B', 'C', 'D']",32966794.320259854,28287.066666666666,1341.3333333333333,15,90,2014/07,7,blank,,False,,,POINT Z (22.3266361 114.1820819 0),22.3266361,114.18208190000001
224,"EUGENE TERRACE,EARL ST|耀爵臺,伯爵街",KHMT,,,982.0,,,1986.0,,,1986.0,15.0,30.0,57.0,['whole floor'],,,1651.3333333333333,44,44,2010/11,11,blank,,False,,,POINT Z (22.326892 114.180598 0),22.326892,114.180598
225,"ULTIMA(Phase 1),Block 7,FAT KWONG ST|天鑄1期,7座,佛光街",KHMT,33480928.0,31408.0,1066.0,,,1066.0,,,5253.0,23.0,68.0,102.0,"['A', 'B', 'C', 'CD', 'D']",46290717.25,34853.5,2476.0000000000005,95,475,2015/11,6,ULTIMA,天鑄,True,7.0,1567.0,POINT Z (22.3131109 114.1815051 0),22.313110899999998,114.1815051
226,"ULTIMA(Phase 1),Block 6,FAT KWONG ST|天鑄1期,6座,佛光街",KHMT,25785900.0,28599.0,900.0,28928700.0,32143.0,900.0,,,4036.0,14.0,31.0,58.0,"['A', 'B', 'C', 'D']",44052822.70833333,31996.708333333332,1633.9166666666667,47,188,2015/11,6,ULTIMA,天鑄,True,7.0,1567.0,POINT Z (22.3131109 114.1815051 0),22.313110899999998,114.1815051
227,"ULTIMA(Phase 1),Block 8,FAT KWONG ST|天鑄1期,8座,佛光街",KHMT,25581622.0,27337.0,902.0,27575944.0,30523.0,902.0,56011040.0,36060.0,1576.0,8.0,17.0,24.0,"['A', 'B', 'C', 'D']",40268375.0,31208.0,1283.75,21,84,2015/11,6,ULTIMA,天鑄,True,7.0,1567.0,POINT Z (22.3131109 114.1815051 0),22.313110899999998,114.1815051
228,"ONE HOMANTIN(Block 1),SHEUNG FOO ST|ONE HOMANTIN1座,常富街",KHMT,15458195.999999998,26713.0,503.0,,,503.0,,,1470.0,20.0,66.0,102.0,"['A', 'B', 'C', 'D', 'E', 'EF', 'F', 'G']",22496382.656187277,30198.85714285714,829.0833333333334,98,784,2017/06,4,ONE HOMANTIN,ONE HOMANTIN,True,6.0,1823.0,POINT Z (22.3168383 114.1812535 0),22.3168383,114.1812535
229,"ONE HOMANTIN(Block 2),SHEUNG FOO ST|ONE HOMANTIN2座,常富街",KHMT,8040780.0,19750.0,372.0,8531076.0,22199.0,372.0,18579232.0,26873.0,697.0,4.0,10.0,16.0,"['A', 'B', 'C', 'D', 'E', 'F']",11760311.222222224,23614.166666666668,496.3333333333333,16,96,2017/06,4,ONE HOMANTIN,ONE HOMANTIN,True,6.0,1823.0,POINT Z (22.3168383 114.1812535 0),22.3168383,114.1812535
230,"ONE HOMANTIN(Block 3),SHEUNG FOO ST|ONE HOMANTIN3座,常富街",KHMT,12306500.0,24613.0,483.0,,,483.0,,,752.0,19.0,63.0,98.0,"['A', 'B', 'C', 'D', 'E', 'F', 'G']",14913996.42857143,27904.14285714286,535.5714285714286,95,665,2017/06,4,ONE HOMANTIN,ONE HOMANTIN,True,6.0,1823.0,POINT Z (22.3168383 114.1812535 0),22.3168383,114.1812535
231,"ULTIMA(Phase 2),Block 2,FAT KWONG ST|天鑄2期,2座,佛光街",KHMT,84185244.0,48148.0,1237.0,,,1708.0,,,2173.0,23.0,68.0,103.0,"['A', 'B', 'C', 'D']",93322094.0,48293.0,1852.4166666666667,96,384,2016/04,5,ULTIMA,天鑄,True,7.0,1567.0,POINT Z (22.3131109 114.1815051 0),22.313110899999998,114.1815051
232,"ULTIMA(Phase 2),Block 1,FAT KWONG ST|天鑄2期,1座,佛光街",KHMT,31037889.237017743,27950.0,994.0,35024713.84077632,32891.0,994.0,87870384.0,40908.0,2148.0,7.0,14.0,20.0,"['A', 'B', 'C', 'CD', 'D']",58124462.39166828,34723.0,1627.5999999999997,18,90,2016/04,5,ULTIMA,天鑄,True,7.0,1567.0,POINT Z (22.3131109 114.1815051 0),22.313110899999998,114.1815051
233,"ULTIMA(Phase 2),Block 3,FAT KWONG ST|天鑄2期,3座,佛光街",KHMT,42554037.0,34251.0,1237.0,99688204.0,51303.0,1738.0,,,3446.0,16.0,36.0,65.0,"['A', 'AB', 'B', 'C', 'D']",107034289.75266518,47669.1,2211.5333333333333,54,270,2016/04,5,ULTIMA,天鑄,True,7.0,1567.0,POINT Z (22.3131109 114.1815051 0),22.313110899999998,114.1815051
234,"MANTIN HEIGHTS(Block 1),SHEUNG SHING ST|皓畋1座,常盛街",KHMT,9825684.0,19467.0,399.0,10489386.0,21518.0,399.0,37058164.0,28224.0,1339.0,6.0,15.0,22.0,"['A', 'AB', 'B', 'C', 'CD', 'D', 'E', 'EF', 'F', 'G', 'H', 'J']",17099298.97222222,23882.666666666668,717.5,23,276,2017/03,4,MANTIN HEIGHTS,皓畋,True,9.0,2327.0,POINT Z (22.3193908 114.1812438 0),22.3193908,114.1812438
235,"MANTIN HEIGHTS(Block 2),SHEUNG SHING ST|皓畋2座,常盛街",KHMT,12630660.0,21228.0,550.0,,,550.0,,,1615.0,20.0,64.0,98.0,"['A', 'B', 'C', 'CD', 'D', 'E', 'F', 'G', 'H']",19402672.763428975,24218.75,875.0,94,846,2017/03,4,MANTIN HEIGHTS,皓畋,True,9.0,2327.0,POINT Z (22.3193908 114.1812438 0),22.3193908,114.1812438
236,"MANTIN HEIGHTS(Block 6),SHEUNG SHING ST|皓畋6座,常盛街",KHMT,11108018.000000002,20274.0,454.0,13641965.0,23938.0,535.0,27044416.0,30016.0,3855.0,6.0,15.0,22.0,"['A', 'AB', 'B', 'C', 'D', 'E', 'F', 'G', 'H']",19145153.198702246,26419.30555555556,1133.7407407407406,23,207,2017/03,4,MANTIN HEIGHTS,皓畋,True,9.0,2327.0,POINT Z (22.3193908 114.1812438 0),22.3193908,114.1812438
237,"MANTIN HEIGHTS(Block 5),SHEUNG SHING ST|皓畋5座,常盛街",KHMT,11786649.0,20627.0,529.0,12639870.999999998,21533.0,529.0,27595587.999999996,29992.0,932.0,6.0,15.0,22.0,"['A', 'B', 'C', 'D', 'E', 'F', 'G', 'H']",17620276.970238093,25736.904761904763,674.75,23,184,2017/03,4,MANTIN HEIGHTS,皓畋,True,9.0,2327.0,POINT Z (22.3193908 114.1812438 0),22.3193908,114.1812438
238,"ULTIMA(Phase 2),Block 5,FAT KWONG ST|天鑄2期,5座,佛光街",KHMT,33638276.0,25561.0,1160.0,40165636.00000001,30521.0,1160.0,66023637.0,40197.0,1723.0,7.0,15.0,21.0,"['A', 'B', 'C', 'D']",46236495.97222222,33440.972222222226,1379.75,19,76,2016/04,5,ULTIMA,天鑄,True,7.0,1567.0,POINT Z (22.3131109 114.1815051 0),22.313110899999998,114.1815051
239,"ONE HOMANTIN(Block 5),SHEUNG FOO ST|ONE HOMANTIN5座,常富街",KHMT,11004345.0,22231.0,477.0,11953260.0,23983.0,477.0,40977011.156142704,28459.0,1411.0,3.0,9.0,16.0,"['A', 'AE', 'B', 'C', 'D', 'E']",19108367.43685777,24692.911111111112,757.1666666666666,17,102,2017/06,4,ONE HOMANTIN,ONE HOMANTIN,True,6.0,1823.0,POINT Z (22.3168383 114.1812535 0),22.3168383,114.1812535
240,"SEVEN VICTORY AVENUE,VICTORY AVE|加多利軒,勝利道",KHMT,4656240.0,23797.0,179.0,,,179.0,,,390.0,21.0,67.0,102.0,"['A', 'B', 'C', 'D', 'E', 'F', 'G', 'H', 'J', 'K']",6631287.0,25581.6,260.7,97,970,2018/11,3,blank,,False,,,POINT Z (22.3194898 114.1744049 0),22.319489800000003,114.17440490000001
241,"MANTIN HEIGHTS(Block 8),SHEUNG SHING ST|皓畋8座,常盛街",KHMT,10722025.0,18647.0,575.0,11620175.000000002,20209.0,575.0,30256410.00505713,23889.0,1205.0,6.0,15.0,22.0,"['A', 'B', 'C', 'CD', 'D', 'E', 'EF', 'F']",15681121.809876362,21178.152777777777,742.25,21,168,2017/03,4,MANTIN HEIGHTS,皓畋,True,9.0,2327.0,POINT Z (22.3193908 114.1812438 0),22.3193908,114.1812438
242,"ONE HOMANTIN(Block 7),SHEUNG FOO ST|ONE HOMANTIN7座,常富街",KHMT,9617940.0,23259.0,405.0,10161450.0,24018.0,405.0,29311338.0,30343.0,966.0,4.0,10.0,16.0,"['A', 'B', 'C', 'CD', 'D', 'E']",18480796.277777776,26234.0,698.8333333333334,16,96,2017/06,4,ONE HOMANTIN,ONE HOMANTIN,True,6.0,1823.0,POINT Z (22.3168383 114.1812535 0),22.3168383,114.1812535
243,"ONE HOMANTIN(Block 6),SHEUNG FOO ST|ONE HOMANTIN6座,常富街",KHMT,9924070.000000002,19453.0,485.0,10423620.0,21492.0,485.0,18984792.0,27825.0,696.0,4.0,10.0,16.0,"['A', 'B', 'C', 'D', 'E']",14010067.0,23521.399999999998,591.6,16,80,2017/06,4,ONE HOMANTIN,ONE HOMANTIN,True,6.0,1823.0,POINT Z (22.3168383 114.1812535 0),22.3168383,114.1812535
244,"MANTIN HEIGHTS(Block 9),SHEUNG SHING ST|皓畋9座,常盛街",KHMT,12774051.724573355,20918.0,581.0,13047235.793020437,21111.0,581.0,40976803.0,35036.0,1171.0,7.0,16.0,22.0,"['A', 'B', 'C', 'CD', 'D', 'E', 'EF', 'F']",25447567.82949416,28142.25,847.5833333333334,22,176,2017/03,4,MANTIN HEIGHTS,皓畋,True,9.0,2327.0,POINT Z (22.3193908 114.1812438 0),22.3193908,114.1812438
245,"MANTIN HEIGHTS(Block 10),SHEUNG SHING ST|皓畋10座,常盛街",KHMT,12818755.909865154,20671.0,539.0,14400504.0,23496.0,539.0,45695000.0,35150.0,1300.0,7.0,16.0,22.0,"['A', 'B', 'C', 'D', 'E', 'F']",22373947.325514276,27850.722222222223,754.0,22,132,2017/03,4,MANTIN HEIGHTS,皓畋,True,9.0,2327.0,POINT Z (22.3193908 114.1812438 0),22.3193908,114.1812438
246,"NAIRN COURT,PRINCESS MARGARET RD|楠苑,公主道",KHMT,,,1561.0,,,1356.0,,,1356.0,5.0,6.0,6.0,['whole floor'],,,1424.3333333333333,2,2,1960/03,61,blank,,False,,,POINT Z (22.3207879 114.1783172 0),22.3207879,114.1783172
247,"MANTIN HEIGHTS(Block 7),SHEUNG SHING ST|皓畋7座,常盛街",KHMT,10002655.004428914,20567.0,453.0,13284773.81284563,22189.0,528.0,58093363.99999999,39332.0,1477.0,7.0,16.0,22.0,"['A', 'B', 'C', 'D', 'E', 'F', 'G']",25590663.696003363,29279.85714285714,817.0952380952381,22,154,2017/03,4,MANTIN HEIGHTS,皓畋,True,9.0,2327.0,POINT Z (22.3193908 114.1812438 0),22.3193908,114.1812438
248,"KADOORIA,KADOORIE AVE|KADOORIA,嘉道理道",KHMT,52638782.0,35342.0,1267.0,55939059.0,38679.0,1267.0,100762571.0,48962.0,2219.0,1.0,3.0,6.0,"['111', '113', '115', '117', '119', '121', '123', '125', '127', '129', '131', '133', 'whole floor']",75551716.79487179,42741.53846153846,1772.3589743589744,7,91,2016/06,5,blank,,False,,,POINT Z (22.3245815 114.1749941 0),22.3245815,114.17499409999999
249,"MANTIN HEIGHTS(Block 3),SHEUNG SHING ST|皓畋3座,常盛街",KHMT,11899326.0,22494.0,529.0,13216536.0,24984.0,529.0,31241120.000000004,33665.0,928.0,6.0,15.0,22.0,"['A', 'B', 'C', 'D', 'E', 'F', 'G', 'H']",19969807.375,27320.75,720.875,23,184,2017/03,4,MANTIN HEIGHTS,皓畋,True,9.0,2327.0,POINT Z (22.3193908 114.1812438 0),22.3193908,114.1812438
250,"CRISTALLO,PRINCE EDWARD RD W|明寓,太子道西",KHMT,43048952.0,33013.0,1304.0,44369904.0,34026.0,1304.0,48331140.0,36894.0,2718.0,4.0,8.0,11.0,"['A', 'B']",46196047.666666664,35315.333333333336,1542.6666666666667,11,22,2016/10,5,blank,,False,,,POINT Z (22.3257034 114.1799919 0),22.3257034,114.1799919
251,"MOUNT TRIO COURT,HOK YU LANE|鼎峰花園,學餘里",KHMT,15163900.0,12993.0,1150.0,15510050.0,13308.0,1150.0,16208430.0,13789.0,1185.0,6.0,9.0,12.0,"['B1', 'C1', 'C2']",15707954.444444446,13388.444444444445,1173.3333333333333,9,27,1965/02,56,MOUNT TRIO COURT,鼎峰花園,True,2.0,78.0,POINT Z (22.3204044 114.1777711 0),22.3204044,114.17777109999999
252,6B DUKE ST|6B 公爵街,KHMT,,,1032.0,,,1032.0,,,1032.0,0.0,0.0,0.0,['whole floor'],,,1032.0,1,1,1958/08,63,blank,,False,,,POINT Z (38.81310080000001 -77.11115959999999 0),38.81310080000001,-77.1111596
253,17 VALLEY RD|17 山谷道,KHMT,8120660.0,12455.0,652.0,8261492.0,12671.0,652.0,8261492.0,12671.0,652.0,5.0,6.0,6.0,['whole floor'],8214548.0,12599.0,652.0,4,4,1964/01,57,blank,,False,,,POINT Z (22.3095873 114.1838606 0),22.3095873,114.18386059999999
254,21 VALLEY RD|21 山谷道,KHMT,,,712.0,,,712.0,,,712.0,3.0,3.0,3.0,['whole floor'],,,712.0,1,1,9999,-7978,blank,,False,,,POINT Z (22.3095873 114.1838606 0),22.3095873,114.18386059999999
255,"TIMBER HSE,WATERLOO RD|瑧樺,窩打老道",KHMT,4505952.0,18971.0,204.0,4672928.0,19460.0,204.0,10992348.0,23577.0,526.0,8.0,18.0,26.0,"['A1', 'A2', 'A3', 'A5', 'A6', 'B1', 'B2', 'B3', 'B5', 'B6']",6581095.100000001,21438.2,308.7,24,240,2021/02,0,blank,,False,,,POINT Z (22.3178824 114.1750356 0),22.3178824,114.17503559999999
256,1C LIBERTY AVE|1C 自由道,KHMT,,,1109.0,,,1109.0,,,1109.0,3.0,3.0,3.0,['whole floor'],,,1109.0,1,1,1955/08,66,blank,,False,,,POINT Z (22.3186438 114.1740588 0),22.3186438,114.1740588
257,"LASALLE RESIDENCE,LA SALLE RD|晟林,喇沙利道",KHMT,6597494.0,23494.0,260.0,7257491.999999999,24111.0,297.0,11523338.0,29247.0,419.0,3.0,6.0,8.0,"['A', 'B', 'C', 'D', 'E', 'F']",9550659.388888888,25410.122222222224,368.8888888888889,7,42,2018/06,3,blank,,False,,,POINT Z (22.3266361 114.1820819 0),22.3266361,114.18208190000001
258,"GRAND HOMM(Block 2),SHEUNG SHING ST|傲玟2座,常盛街",KHMT,37589176.0,26792.0,1403.0,38445006.0,27402.0,1403.0,42875400.0,30088.0,1425.0,6.0,9.0,13.0,"['A', 'B']",39915069.166666664,28223.833333333332,1414.0,11,22,2020/11,1,GRAND HOMM,傲玟,True,2.0,52.0,POINT Z (22.3170931 114.1798338 0),22.3170931,114.1798338
259,"KWUN TAK COURT(Block B),SHEUNG LOK ST|冠德苑B座,常樂街",KHMT,3505265.0,7605.0,445.0,3758025.0,8333.0,445.0,5202683.0,9241.0,563.0,5.0,14.0,22.0,"['1', '2', '3', '4', '5', '6', '7', '8', '9']",4280474.296296297,8490.074074074073,503.4444444444445,26,234,2019/09,2,KWUN TAK COURT,冠德苑,True,3.0,538.0,POINT Z (22.3143178 114.1840736 0),22.3143178,114.1840736
260,"KWUN TAK COURT(Block A),SHEUNG LOK ST|冠德苑A座,常樂街",KHMT,3781290.0,7833.0,482.0,4014578.0,8255.0,482.0,5380591.0,9593.0,568.0,5.0,13.0,21.0,"['1', '2', '3', '4', '6', '7']",4647336.5,8658.5,537.0,25,150,2019/09,2,KWUN TAK COURT,冠德苑,True,3.0,538.0,POINT Z (22.3143178 114.1840736 0),22.3143178,114.1840736
261,"KWUN TAK COURT(Block C),SHEUNG LOK ST|冠德苑C座,常樂街",KHMT,3759912.0,7859.0,468.0,3936348.0,8283.0,468.0,5112000.0,9000.0,568.0,9.0,16.0,23.0,"['1', '2', '3', '4', '5', '6', '7']",4494552.666666666,8518.809523809525,527.1428571428571,22,154,2019/09,2,KWUN TAK COURT,冠德苑,True,3.0,538.0,POINT Z (22.3143178 114.1840736 0),22.3143178,114.1840736
262,"GRAND HOMM(Block 3),SHEUNG SHING ST|傲玟3座,常盛街",KHMT,27475140.0,28638.0,934.0,28347471.0,29520.0,934.0,37054900.0,32084.0,1228.0,10.0,14.0,17.0,"['A', 'C', 'D']",31218912.88888889,30281.777777777777,1033.6666666666667,10,30,2020/11,1,GRAND HOMM,傲玟,True,2.0,52.0,POINT Z (22.3172996 114.1799387 0),22.317299600000002,114.17993870000001
263,"128 WATERLOO,WATERLOO RD|128 WATERLOO,窩打老道",KHMT,9911502.0,28981.0,331.0,10076004.0,29462.0,331.0,20030505.0,34595.0,579.0,4.0,6.0,6.0,"['A', 'B', 'C', 'E', 'G']",14553892.466666667,31388.600000000002,461.6000000000001,4,20,2022/02,-1,blank,,False,,,POINT Z (22.3266882 114.1788394 0),22.3266882,114.17883940000002
