,final_address,district,lowZone_value,lowZone_npsf_min,lowZone_nfa_min,midZone_value,midZone_npsf_min,midZone_nfa_min,highZone_value,highZone_npsf_max,highZone_nfa_max,oneSixth_floor,middle_floor,fifthSixth_floor,unit_list,value_avg,npsf_avg,unitSize_avg,noStorey,noFlat,op_date,bldgAge,est_name_en,est_name_ch,est_orNot,est_bldgNo,est_flatNo,final_coords,lat,long
0,"FAIR WAY GARDEN(Block D),PEACE AVE|富威花園D座,太平道",KHMT,3591759.9999999995,12920.0,274,3579303.0,13111.0,273,4286412.0,15285.0,284,8.0,16.0,23.0,"['1', '2', '3', '4']",3917982.5,14216.333333333334,275.5833333333333,24,96,1984/10,37,FAIR WAY GARDEN,富威花園,True,3.0,276.0,POINT Z (22.3192831 114.1738234 0),22.3192831,114.17382340000002
1,"CHAMPION HSE,PEACE AVE|正平大廈,太平道",KHMT,7622360.0,13142.0,580,8106660.000000001,13977.0,580,10916500.0,15595.0,700,6.0,13.0,20.0,"['A', 'B', 'C', 'D', 'E', 'F']",8624404.0,14163.866666666667,603.3333333333334,20,120,1971/06,50,blank,,False,,,POINT Z (22.3181782 114.1741949 0),22.318178200000002,114.1741949
2,"PEACE GARDEN,PEACE AVE|太平花園,太平道",KHMT,4212965.0,13072.0,305,3980250.0000000005,13050.0,305,5533560.0,15915.0,380,7.0,15.0,23.0,"['A', 'B', 'C', 'D']",4867544.583333333,14260.166666666666,342.5,25,100,1994/05,27,blank,,False,,,POINT Z (22.31788 114.1744272 0),22.31788,114.17442720000001
3,"YEE FU BLDG,VALLEY RD|怡富大廈,山谷道",KHMT,3131887.0,12379.0,250,3354500.0000000005,13374.0,250,3756291.0,14847.0,253,5.0,13.0,21.0,"['A', 'B', 'C', 'D']",3455123.9166666665,13738.166666666666,251.5,25,100,1985/05,36,blank,,False,,,POINT Z (22.3097793 114.1834039 0),22.3097793,114.18340390000002
4,"HARRISON COURT(Phase 4),MAN WAN RD|恒信園4期,文運道",KHMT,9102000.0,12300.0,740,9747391.52944849,13089.0,740,10470916.075573258,15818.0,850,4.0,10.0,17.0,"['A', 'B', 'C', 'D']",10075022.745119805,14219.22222222222,767.5,20,80,1971/09,50,HARRISON COURT,恒信園,True,5.0,330.0,POINT Z (22.3187474 114.1780498 0),22.3187474,114.1780498
5,"PEACE BLDG(Block A),PEACE AVE|金富大廈A座,太平道",KHMT,5306415.0,12201.0,433,5540668.0,12794.0,433,6531070.0,14499.0,455,4.0,13.0,22.0,"['1', '2', '3', '4', 'A2', 'A3', 'A4']",5883373.142857143,13163.761904761903,447.0952380952381,27,189,1980/01,41,PEACE BLDG,金富大廈,True,2.0,373.0,POINT Z (22.318375 114.174056 0),22.318375,114.17405600000001
6,"PEACE BLDG(Block B),PEACE AVE|金富大廈B座,太平道",KHMT,5259218.0,11936.0,433,5562751.0,12555.0,433,6162975.0,13794.0,455,8.0,15.0,22.0,"['1', '2', '3', '4', 'B1', 'B2', 'B3', 'B4']",5688064.708333333,12800.208333333334,444.5,23,184,1980/01,41,PEACE BLDG,金富大廈,True,2.0,373.0,POINT Z (22.3193087 114.1735982 0),22.3193087,114.1735982
7,"PEACE TOWER,PEACE AVE|太平居,太平道",KHMT,4293765.0,13545.0,317,4648171.0,14583.0,317,5266955.0,16615.0,326,9.0,17.0,25.0,"['A', 'B', 'C', 'D']",4851520.333333333,15104.0,321.25,23,92,1998/11,23,blank,,False,,,POINT Z (22.3189162 114.1738002 0),22.318916199999997,114.17380020000002
8,"TSAN YUNG MANSION,WATERLOO RD|曾榕大廈,窩打老道",KHMT,10642022.537003063,11120.0,802,10592108.807589013,11736.0,802,11251978.544018555,14149.0,1090,3.0,7.0,10.0,"['A', 'B', 'C', 'D', 'E', 'F']",11078070.372840647,13023.444444444445,970.0,11,66,1964/07,57,blank,,False,,,POINT Z (22.3172581 114.1749148 0),22.3172581,114.17491480000001
9,"PRINCE PARK,PRINCE EDWARD RD W|皇子花園,太子道西",KHMT,7789165.583308427,16332.0,482,8027151.967466578,16831.0,482,8356708.262964136,17522.0,515,4.0,8.0,12.0,"['A', 'B', 'C']",8057675.27124638,16895.0,504.0,13,39,1993/08,28,blank,,False,,,POINT Z (22.3255227 114.1754489 0),22.325522699999997,114.1754489
10,"YEE KING BLDG,WATERLOO RD|怡景大廈,窩打老道",KHMT,4350808.0,11099.0,392,4689104.0,11962.0,392,6231730.000000001,13707.0,470,5.0,13.0,21.0,"['A', 'B', 'C', 'D', 'E', 'F']",5486685.777777778,12420.11111111111,441.5555555555556,24,144,1977/03,44,blank,,False,,,POINT Z (22.3183083 114.1747523 0),22.3183083,114.17475230000001
11,"MANDARIN GARDEN,MAN FUK RD|仁華園,文福道",KHMT,8983260.0,12564.0,715,9336470.0,13058.0,715,9939796.0,13729.0,724,4.0,9.0,15.0,"['A', 'B', 'C', 'D']",9495859.833333334,13156.5,721.8333333333334,17,68,1966/05,55,blank,,False,,,POINT Z (22.3194819 114.1775389 0),22.3194819,114.1775389
12,"MAN KEE MANSION,WATERLOO RD|萬基大廈,窩打老道",KHMT,7787016.0,9882.0,772,8129322.0,10471.0,773,9549848.0,11845.0,838,9.0,16.0,22.0,"['A', 'B', 'C', 'D', 'E', 'F', 'G', 'H']",8700090.458333334,10971.291666666666,793.2083333333334,20,160,1966/05,55,blank,,False,,,POINT Z (22.3199514 114.1769119 0),22.3199514,114.1769119
13,"MENON MANSION,HO MAN TIN ST|文安大廈,何文田街",KHMT,4179870.0,15255.0,271,4316596.0,15754.0,271,4740748.0,17302.0,274,3.0,6.0,10.0,"['A', 'B', 'C', 'D']",4398358.5,16140.75,272.5,12,48,1980/10,41,blank,,False,,,POINT Z (22.3164748 114.1752516 0),22.3164748,114.17525159999998
14,"MANDARIN COURT(Block 4),ARGYLE ST|翠華大廈4座,亞皆老街",KHMT,9249955.0,9893.0,935,9465005.0,10123.0,935,20599750.0,11135.0,1850,3.0,6.0,10.0,"['A', 'A & B', 'B', 'C', 'D']",13005636.0,10399.466666666665,1242.6666666666667,12,60,1961/12,60,MANDARIN COURT,翠華大廈,True,3.0,156.0,POINT Z (22.3214855 114.1789322 0),22.3214855,114.17893219999999
15,"ORIENTAL GARDEN(Block C),PRINCE EDWARD RD W|東方花園C座,太子道西",KHMT,12584637.011827238,15349.0,905,12869602.738952564,15697.0,905,15667917.695074107,16446.0,1065,3.0,6.0,10.0,"['C1', 'C2', 'C3', 'C4', 'D1', 'D4']",14597248.086826647,15921.083333333334,985.0,12,72,1967/01,54,ORIENTAL GARDEN,東方花園,True,2.0,116.0,POINT Z (22.3257145 114.1760295 0),22.3257145,114.1760295
16,"PERTH APTS(Block B1),PERTH ST|巴富洋樓B1座,巴富街",KHMT,16313710.0,13709.0,1190,16754009.999999998,14079.0,1190,17515610.0,14719.0,1190,3.0,6.0,10.0,"['A', 'B', 'C', 'D']",16866762.5,14173.75,1190.0,12,48,1974/12,47,PERTH APTS,巴富洋樓,True,3.0,144.0,POINT Z (22.3219259 114.1811151 0),22.3219259,114.18111509999999
17,"PERTH APTS(Block B3),PERTH ST|巴富洋樓B3座,巴富街",KHMT,19100616.0,14086.0,1356,19553520.0,14420.0,1356,21045120.0,15520.0,1356,3.0,6.0,10.0,"['A', 'B', 'C', 'D']",19932748.0,14699.666666666666,1356.0,12,48,1974/02,47,PERTH APTS,巴富洋樓,True,3.0,144.0,POINT Z (22.3219259 114.1811151 0),22.3219259,114.18111509999999
18,"GREENFIELD TERR(Block B),HO MAN TIN HILL RD|嘉輝臺B座,何文田山道",KHMT,12193073.027315896,13621.0,932,12375872.959316336,14075.0,932,13837977.216016898,15547.0,1020,5.0,11.0,18.0,"['1', '2', '3']",12873776.876975177,14798.944444444443,969.5555555555557,19,57,1978/11,43,GREENFIELD TERR,嘉輝臺,True,2.0,201.0,POINT Z (22.313525 114.1766212 0),22.313525,114.1766212
19,"SPRING HEIGHTS,BOUNDARY ST|春秋閣,界限街",KHMT,10053361.134251185,14226.0,790,10463947.582936687,14807.0,790,11038485.935400218,15620.0,790,3.0,8.0,13.0,"['A', 'B']",10555463.839571407,14936.5,790.0,15,30,1973/08,48,blank,,False,,,POINT Z (22.3267123 114.177028 0),22.3267123,114.177028
20,"CLASSIC MANSION,SOARES AVE|典雅大廈,梭椏道",KHMT,4076400.0,11850.0,344,4588272.0,13338.0,344,4594120.0,13355.0,344,6.0,12.0,19.0,"['A', 'B']",4439205.333333333,12904.666666666666,344.0,20,40,1992/10,29,blank,,False,,,POINT Z (22.3192472 114.1749497 0),22.3192472,114.1749497
21,"KIN FUNG COURT,VICTORY AVE|建豐閣,勝利道",KHMT,4937220.0,13380.0,369,5188878.0,14062.0,369,5595885.0,15165.0,369,6.0,13.0,20.0,"['A', 'B']",5271657.0,14286.333333333334,369.0,23,46,1994/09,27,blank,,False,,,POINT Z (22.3198167 114.1741717 0),22.319816699999997,114.17417169999999
22,"SUNVIEW GARDEN,SHEUNG SHING ST|日麗園,常盛街",KHMT,16056600.0,11469.0,1400,16591274.278436841,13248.0,1400,17804811.77661055,14217.0,1400,5.0,11.0,18.0,"['A', 'B']",16922328.906578977,13287.0,1400.0,19,38,1974/10,47,blank,,False,,,POINT Z (22.3196636 114.1844706 0),22.319663600000002,114.1844706
23,"HANNOVER COURT,WATERLOO RD|恒懋大樓,窩打老道",KHMT,13827940.439716212,12990.0,1150,14149421.42607451,13292.0,1150,14593320.668827526,13709.0,1190,3.0,6.0,10.0,"['89', 'whole floor']",14190227.511539416,13330.333333333334,1176.6666666666667,12,24,1963/03,58,blank,,False,,,POINT Z (22.3245021 114.1780498 0),22.3245021,114.1780498
24,"TAK WAI MANSION(Block 1),MAN FUK RD|德威大廈1座,文福道",KHMT,8313024.378162842,12961.0,717,8618324.86454549,13437.0,717,9694573.217801973,15115.0,717,4.0,8.0,14.0,"['A', 'B', 'C', 'D']",8945058.385773981,13946.416666666666,717.0,16,64,1965/07,56,TAK WAI MANSION,德威大廈,True,2.0,132.0,POINT Z (22.3192642 114.1781475 0),22.3192642,114.17814750000001
25,"PRINCE'S HEIGHTS(Phase 1),PRINCE EDWARD RD W|太子閣1期,太子道西",KHMT,12598820.0,13403.0,940,12789640.0,13606.0,940,16231608.814968824,16001.0,1149,3.0,6.0,10.0,"['A', 'B', 'C', 'D']",14217351.242814166,14557.833333333334,1037.8333333333333,12,48,1972/02,49,PRINCE'S HEIGHTS,太子閣,True,2.0,96.0,POINT Z (22.32571 114.1795394 0),22.32571,114.17953940000001
26,"K.C.C. BLDG,LIBERTY AVE|九龍總商會大廈,自由道",KHMT,5703800.677368183,12301.0,515,5993574.574958408,12924.0,515,8390334.391978385,14578.0,663,9.0,16.0,22.0,"['A', 'B', 'C', 'F']",6857960.858034849,13385.416666666666,557.0,22,88,1984/08,37,blank,,False,,,POINT Z (22.318505 114.1743343 0),22.318505,114.17433429999998
27,"CHEERWORLD COURT,BELFRAN RD|昌和閣,巴芬道",KHMT,11953425.0,14489.0,825,12318900.0,14932.0,825,12075525.0,14637.0,825,3.0,7.0,11.0,['whole floor'],12115950.0,14686.0,825.0,13,13,1994/03,27,blank,,False,,,POINT Z (22.3260947 114.1770745 0),22.3260947,114.17707450000002
28,"HARRISON COURT(Phase 6),MAN WAN RD|恒信園6期,文運道",KHMT,,,1030,,,1030,,,1400,4.0,10.0,17.0,"['A', 'B', 'C', 'D']",,,1215.0,20,80,1972/01,49,HARRISON COURT,恒信園,True,5.0,330.0,POINT Z (22.3183407 114.177864 0),22.3183407,114.17786399999999
29,"DRAGON COURT,WATERLOO RD|龍騰閣,窩打老道",KHMT,7826662.702085639,10976.0,720,7923552.027361776,11122.0,720,9213854.0,12265.0,778,3.0,6.0,10.0,"['104', '106', '111', '113', '115', '121', '16', '22', '25', '34', '36', '45', '53', '55', '61', '66', '71', '72', '74', '76', '82', '83', '84', '92', '93', '94', '96']",8352858.792198956,11344.395061728394,743.7037037037038,12,324,1967/02,54,blank,,False,,,POINT Z (22.3233158 114.1785203 0),22.3233158,114.1785203
30,"VALIANT COURT,PEACE AVE|華欣閣,太平道",KHMT,3854400.0,12848.0,300,3754200.0,12514.0,300,5543985.0,15189.0,365,5.0,12.0,19.0,"['A', 'B', 'C', 'D', 'E', 'F']",4544628.888888889,14048.111111111111,323.3333333333333,23,138,1979/12,42,blank,,False,,,POINT Z (22.3183745 114.1740556 0),22.3183745,114.17405559999999
31,"MIAMI MANSION,WATERLOO RD|美佳大廈,窩打老道",KHMT,12869185.00326414,8541.0,1020,12858814.991174484,8775.0,992,13891000.496520186,9042.0,1046,3.0,7.0,10.0,"['1', '2', '3', '4']",13353273.03073647,9234.305555555555,1026.0,11,44,1975/03,46,blank,,False,,,POINT Z (22.326631 114.1780963 0),22.326631,114.17809629999999
32,"KNIGHT COURT,KNIGHT ST|勵德閣,勵德街",KHMT,,,550,,,550,,,550,3.0,8.0,11.0,"['A', 'B']",,,550.0,12,24,1980/09,41,blank,,False,,,POINT Z (22.3260427 114.1765055 0),22.3260427,114.17650549999999
33,"HARRISON COURT(Phase 5),MAN WAN RD|恒信園5期,文運道",KHMT,11310430.0,10878.0,1030,11831610.0,11404.0,1030,17883360.0,12419.0,1440,4.0,10.0,17.0,"['A', 'B', 'C', 'D']",14440323.333333334,11678.916666666666,1235.0,20,80,1972/01,49,HARRISON COURT,恒信園,True,5.0,330.0,POINT Z (22.3184718 114.1775854 0),22.3184718,114.1775854
34,"EDWARD COURT,MAN WAN RD|德星樓,文運道",KHMT,7408500.0,11225.0,660,7757640.000000001,11754.0,660,11431160.0,12844.0,890,4.0,10.0,17.0,"['A', 'B', 'C']",9772477.777777778,11994.666666666666,813.3333333333334,20,60,1965/12,56,blank,,False,,,POINT Z (22.318995 114.1775854 0),22.318995,114.1775854
35,"HOMESTEAD,PRINCE EDWARD RD W|碧廬,太子道西",KHMT,14857917.64404852,11073.0,1500,15222891.327709788,11345.0,1500,15567737.786169143,11602.0,1500,4.0,7.0,10.0,"['A', 'B']",15218194.975162676,11341.5,1500.0,11,22,1983/10,38,blank,,False,,,POINT Z (22.3260925 114.1787465 0),22.326092499999998,114.1787465
36,"YEN YEE MANSION,SOARES AVE|仁儀苑,梭椏道",KHMT,4674874.561463086,12861.0,368,4946656.0,13442.0,368,5116672.0,14769.0,385,7.0,13.0,19.0,"['A', 'B', 'C']",4982078.606904554,14289.888888888889,376.0,19,57,1978/10,43,blank,,False,,,POINT Z (22.3198851 114.1747058 0),22.319885100000004,114.1747058
37,"CARRIE COURT,MAN FUK RD|嘉景樓,文福道",KHMT,7328955.000000001,11917.0,615,7537439.999999999,12256.0,615,9736636.0,15119.0,644,4.0,9.0,14.0,"['A', 'B', 'C', 'D']",8351909.333333333,13275.583333333334,628.25,17,68,1966/01,55,blank,,False,,,POINT Z (22.3189723 114.178282 0),22.3189723,114.17828200000001
38,"KIU WANG MANSION,HOK YU LANE|僑宏大廈,學餘里",KHMT,8792412.838935204,11429.0,860,9976376.734212244,11940.0,860,12014985.549642729,13418.0,1001,4.0,9.0,14.0,"['A', 'B', 'C', 'D', 'E', 'F']",10797189.01134385,12670.933333333334,954.0,17,102,1965/10,56,blank,,False,,,POINT Z (22.3201079 114.1780614 0),22.3201079,114.1780614
39,"STAR COURT,MAN WAN RD|文星樓,文運道",KHMT,,,1303,,,1303,13513413.0,10371.0,1303,4.0,10.0,17.0,"['A', 'B', 'C', 'D']",13513413.0,10371.0,1303.0,19,76,1966/04,55,blank,,False,,,POINT Z (22.3188576 114.1770745 0),22.3188576,114.17707450000002
40,"ARRAN COURT,SHEK KU ST|毅廬,石鼓街",KHMT,9284407.204487355,14121.0,735,9733472.435042193,14804.0,735,10690119.448888883,16259.0,1470,4.0,10.0,17.0,"['A', 'A & B', 'B', 'C', 'D']",10018439.280346697,15237.416666666666,882.0,20,100,1979/08,42,blank,,False,,,POINT Z (22.3205504 114.1798442 0),22.3205504,114.1798442
41,"RICHLAND HSE,WATERLOO RD|芝齡大廈,窩打老道",KHMT,4580133.476079349,11459.0,410,4894829.3511862485,11837.0,425,7297063.7734611435,14286.0,585,7.0,12.0,18.0,"['A', 'B', 'C']",6259587.356942127,12814.0,525.3333333333334,18,54,1975/06,46,blank,,False,,,POINT Z (22.3198725 114.1760295 0),22.3198725,114.1760295
42,"KINGSLAND VILLA(Block A),MAN FUK RD|瓊林別墅A座,文福道",KHMT,8461710.0,11358.0,745,8787275.0,11795.0,745,9507690.0,12762.0,745,4.0,9.0,14.0,"['1', '2', '3', '4']",9025364.583333334,12114.583333333334,745.0,17,68,1966/05,55,KINGSLAND VILLA,瓊林別墅,True,2.0,136.0,POINT Z (22.3196152 114.1780717 0),22.3196152,114.17807169999999
43,"DOMINION COURT,WATERLOO RD|高明大廈,窩打老道",KHMT,11261327.416489007,13032.0,966,11549082.329755645,12106.0,966,12364819.98177879,14309.0,966,3.0,6.0,9.0,"['A', 'B', 'C', 'D']",11756240.530855432,13363.166666666666,966.0,11,44,1970/04,51,blank,,False,,,POINT Z (22.3251407 114.1787 0),22.325140700000002,114.1787
44,"SUNSHINE BLDG,VICTORY AVE|新勝大樓,勝利道",KHMT,5119179.0,11661.0,439,5375994.0,12246.0,439,6694580.999999999,13617.0,519,6.0,12.0,18.0,"['A', 'B', 'C', 'D']",5990401.888888889,12556.0,477.8333333333333,19,76,1975/12,46,blank,,False,,,POINT Z (22.319949 114.1744528 0),22.319948999999998,114.1744528
45,"LUCKY COURT,WATERLOO RD|幸運閣,窩打老道",KHMT,13709519.002974924,12034.0,1271,14031279.981399365,12293.0,1271,15008519.38298596,12788.0,1312,3.0,6.0,10.0,"['A', 'B', 'C', 'D']",14311431.723528065,12387.333333333334,1291.5,12,48,1974/06,47,blank,,False,,,POINT Z (22.3253378 114.1780034 0),22.3253378,114.1780034
46,"LA BELLE MANSION,ARGYLE ST|利寶大廈,亞皆老街",KHMT,7653995.0,8495.0,901,7960335.0,8835.0,901,11185548.0,10068.0,1171,2.0,7.0,12.0,"['A', 'B', 'C', 'D', 'E', 'F', 'G', 'H']",9334241.083333334,9017.833333333334,1033.3333333333333,15,120,1964/07,57,blank,,False,,,POINT Z (22.3201565 114.1756115 0),22.3201565,114.1756115
47,"FAIR WAY GARDEN(Block C),PEACE AVE|富威花園C座,太平道",KHMT,4118319.0,14547.0,279,4094603.9999999995,14676.0,279,5626580.0,16572.0,356,9.0,16.0,23.0,"['1', '2', '3', '4', '5', '6']",4937769.611111112,15348.5,322.0,23,138,1984/10,37,FAIR WAY GARDEN,富威花園,True,3.0,276.0,POINT Z (22.3191084 114.1741021 0),22.319108399999998,114.1741021
48,"IMPERIAL COURT,WATERLOO RD|帝國大廈,窩打老道",KHMT,5824368.123587666,9018.0,722,6010375.88801362,9306.0,722,6193800.211266991,9590.0,1130,3.0,7.0,11.0,"['A', 'B', 'C', 'D', 'E', 'F', 'G', 'H', 'whole floor']",6009514.740956093,9304.666666666666,926.6296296296296,13,117,1960/06,61,blank,,False,,,POINT Z (22.3200902 114.1763082 0),22.3200902,114.1763082
49,"MANNER COURT,HO MAN TIN ST|文雅閣,何文田街",KHMT,3638886.0,14614.0,249,3981723.339983011,15451.0,249,6606470.945940066,18481.0,460,3.0,6.0,10.0,"['A', 'B', 'C']",5186048.832953277,16080.222222222224,347.6666666666667,12,36,1989/05,32,blank,,False,,,POINT Z (22.3165656 114.1752283 0),22.3165656,114.1752283
50,"FORUM COURT,PEACE AVE|富臨閣,太平道",KHMT,5098940.0,11836.0,430,5386610.0,12354.0,430,5783070.0,13449.0,440,5.0,12.0,19.0,"['A', 'B', 'C', 'D']",5427325.666666667,12520.666666666666,433.5,23,92,1979/01,42,blank,,False,,,POINT Z (22.3194868 114.1736376 0),22.3194868,114.17363759999999
51,"GALLANT GARDEN MANSION,HO MAN TIN ST|嘉景花園大廈,何文田街",KHMT,8738901.0,12066.0,723,8937003.0,12339.0,723,11722920.0,14124.0,830,3.0,6.0,10.0,"['A', 'B', 'C', 'D', 'E']",9960650.866666667,12768.933333333334,778.8666666666667,12,60,1971/07,50,blank,,False,,,POINT Z (22.3156848 114.1750774 0),22.3156848,114.17507739999999
52,"HING YIP KING'S BLDG,PRINCE EDWARD RD W|皇帝大廈,太子道西",KHMT,10583002.265752364,2997.0,987,11526714.606116982,3921.0,987,11706038.653802047,3982.0,1030,3.0,6.0,8.0,"['A', 'B', 'C']",11271918.508557132,3633.3333333333335,1015.6666666666666,8,24,1965/03,56,blank,,False,,,POINT Z (22.3259583 114.1812544 0),22.3259583,114.1812544
53,"MANSION COURT,HO MAN TIN ST|文翠閣,何文田街",KHMT,8030960.0,14341.0,560,7949484.647479295,15869.0,560,9311051.17793797,18587.0,560,5.0,8.0,11.0,"['A', 'B']",8554595.567055637,16795.166666666668,560.0,9,18,1990/05,31,blank,,False,,,POINT Z (22.3160695 114.1754025 0),22.3160695,114.17540249999999
54,"SUNLIGHT GARDEN,MAN WAN RD|明德園,文運道",KHMT,13483260.0,8621.0,1260,14077979.999999998,8861.0,1205,21737731.610275824,11665.0,1610,5.0,11.0,17.0,"['A', 'B', 'C']",17595740.892209392,10026.833333333334,1375.6666666666667,19,57,1964/00,57,blank,,False,,,POINT Z (22.3189451 114.1767958 0),22.3189451,114.1767958
55,"GRANDCO MANSION,PRINCE EDWARD RD W|寶堡大廈,太子道西",KHMT,8341403.074204216,14738.0,572,8615903.0396669,15223.0,572,12040895.103009308,16974.0,829,3.0,7.0,10.0,"['A', 'B', 'C', 'D']",10037323.452695752,15853.88888888889,713.0,11,44,1995/03,26,blank,,False,,,POINT Z (22.3258503 114.1805578 0),22.3258503,114.1805578
56,"WATERLOO HEIGHTS GARDEN,MAN WAN RD|德信園,文運道",KHMT,7222431.999999999,12949.0,532,7188916.000000001,12592.0,532,8841772.0,14493.0,652,5.0,11.0,18.0,"['A', 'B', 'C', 'D']",7764327.833333333,13511.083333333334,589.0,19,76,1965/12,56,blank,,False,,,POINT Z (22.3192496 114.1773532 0),22.319249600000003,114.17735320000001
57,"TAI GARDEN,PRINCE EDWARD RD W|泰園,太子道西",KHMT,12130100.0,12010.0,550,12472490.0,12349.0,550,12959310.0,12831.0,1010,3.0,6.0,9.0,"['A', 'B', 'C']",11944018.364804557,11443.833333333334,856.6666666666666,11,33,1973/08,48,blank,,False,,,POINT Z (22.3257997 114.1803256 0),22.3257997,114.1803256
58,"HARRISON COURT(Phase 2),WATERLOO RD|恒信園2期,窩打老道",KHMT,15060802.857460251,7388.0,1380,15946043.545665197,4538.0,1380,16666391.480187315,4743.0,1380,3.0,6.0,8.0,['whole floor'],15891079.294437587,5556.333333333333,1380.0,10,10,1966/02,55,HARRISON COURT,恒信園,True,5.0,330.0,POINT Z (22.318833 114.177849 0),22.318832999999998,114.177849
59,"HUNG HING COURT,VALLEY RD|鴻興閣,山谷道",KHMT,4326730.0,10553.0,410,4592000.0,11200.0,410,4562070.0,11127.0,410,6.0,13.0,20.0,['whole floor'],4493600.0,10960.0,410.0,21,21,1992/11,29,blank,,False,,,POINT Z (22.3097572 114.183983 0),22.3097572,114.18398300000001
60,"CYPRESS GARDEN,HO MAN TIN HILL RD|龍柏花園,何文田山道",KHMT,10092572.0,16226.0,622,10622516.0,17041.0,622,52857068.81280138,18540.0,2200,5.0,11.0,19.0,"['A', 'A-C', 'B', 'B & C', 'B+C', 'B-C', 'BC', 'C']",18515414.291858852,16719.57142857143,1211.375,19,152,1996/08,25,blank,,False,,,POINT Z (22.3169114 114.1761456 0),22.3169114,114.1761456
61,"PINE MANOR,WATERLOO RD|松亭閣,窩打老道",KHMT,7050780.000000001,13057.0,540,7371000.0,13650.0,540,,,720,6.0,12.0,19.0,"['A', 'B', 'C']",7250580.0,13427.0,604.4444444444445,20,60,1979/11,42,blank,,False,,,POINT Z (22.3175312 114.1744272 0),22.3175312,114.17442720000001
62,"KAISER'S MANSION,PRINCE EDWARD RD W|國城大廈,太子道西",KHMT,9505417.55535444,9660.0,1051,9709105.07439775,9867.0,1051,10364379.54167786,11024.0,1100,2.0,5.0,8.0,"['A', 'B', 'C']",9879116.912957683,10200.333333333334,1083.6666666666667,9,27,1964/09,57,blank,,False,,,POINT Z (22.3259514 114.1810222 0),22.3259514,114.1810222
63,"GREENFIELD TERR(Block A),HO MAN TIN HILL RD|嘉輝臺A座,何文田山道",KHMT,8210790.0,13033.0,630,8614620.0,13316.0,630,11004750.0,15075.0,730,5.0,12.0,20.0,"['1', '2', '3', '4', '5', '6']",9319235.388888888,13960.27777777778,667.3333333333334,24,144,1978/11,43,GREENFIELD TERR,嘉輝臺,True,2.0,201.0,POINT Z (22.313525 114.1766212 0),22.313525,114.1766212
64,"PARC REGAL(Block 2),HO MAN TIN HILL RD|賀龍居2座,何文田山道",KHMT,10782959.650075361,14938.0,685,11365858.971155554,15842.0,685,22907943.31845163,18003.0,1603,3.0,10.0,16.0,"['A', 'A & B', 'A&B', 'A-B', 'AB', 'B', 'C', 'C & D', 'CD', 'D']",16254578.40193077,16482.033333333333,1222.3333333333333,18,180,1995/05,26,PARC REGAL,賀龍居,True,3.0,450.0,POINT Z (22.3150144 114.1765636 0),22.315014399999995,114.1765636
65,"HELENA GARDEN,PRINCE EDWARD RD W|海倫苑,太子道西",KHMT,14359873.481872346,13581.0,1151,15003799.77231195,14190.0,1151,16239842.19189142,15359.0,1182,2.0,8.0,13.0,"['A', 'B', 'C', 'D']",15223220.072388083,14590.416666666666,1166.5,15,60,1991/08,30,blank,,False,,,POINT Z (22.3255257 114.1787465 0),22.3255257,114.1787465
66,"LUNG CHEUNG BLDG,WATERLOO RD|龍翔大廈,窩打老道",KHMT,5999852.48013472,11216.0,598,6308395.686133232,11695.0,603,6432081.510443998,12024.0,899,3.0,8.0,12.0,"['A', 'B', 'C', 'D']",6246776.558903984,11645.0,753.8333333333334,14,56,1965/01,56,blank,,False,,,POINT Z (22.3170586 114.1746594 0),22.3170586,114.17465940000001
67,"PARC REGAL(Block 3),HO MAN TIN HILL RD|賀龍居3座,何文田山道",KHMT,9708505.0,8128.0,685,10228420.0,8605.0,685,33074152.843522932,16321.0,1603,3.0,10.0,16.0,"['A', 'AB', 'B', 'C', 'C & D', 'CD', 'D']",18678420.501914155,13541.47619047619,1045.142857142857,18,126,1995/05,26,PARC REGAL,賀龍居,True,3.0,450.0,POINT Z (22.3152907 114.1764707 0),22.315290700000002,114.1764707
68,"KAM BIT BLDG,VICTORY AVE|金碧大廈,勝利道",KHMT,4104966.3653393346,13234.0,312,4132751.9999999995,13246.0,312,4528368.0,15650.0,312,7.0,12.0,18.0,"['A', 'B']",4265068.432859345,14203.666666666666,312.0,18,36,1984/01,37,blank,,False,,,POINT Z (22.3193183 114.1747058 0),22.319318300000003,114.1747058
69,"LAI SZE COURT,HO MAN TIN ST|麗思閣,何文田街",KHMT,10782691.266667524,8823.0,870,11014610.573594045,14153.0,870,11928970.573801922,14548.0,870,3.0,6.0,10.0,"['A', 'B']",11233663.300897228,12469.0,870.0,12,24,1973/03,48,blank,,False,,,POINT Z (22.3167165 114.1751703 0),22.316716500000002,114.1751703
70,"WEI KING BLDG,CHATHAM RD N|蔚景樓,漆咸道北",KHMT,4280150.0,11314.0,345,4489450.0,12204.0,345,5476800.0,13823.0,420,10.0,16.0,22.0,"['A', 'B', 'C', 'D', 'E', 'F', 'G', 'H']",4839958.333333333,12646.375,383.75,19,152,1975/08,46,blank,,False,,,POINT Z (22.3095747 114.1835907 0),22.3095747,114.18359070000001
71,"DUCHY HEIGHTS,DUKE ST|公爵閣,公爵街",KHMT,,,965,,,965,,,1030,4.0,8.0,13.0,"['A', 'B', 'C', 'D']",,,990.5,16,64,1972/05,49,blank,,False,,,POINT Z (22.3263068 114.1760063 0),22.3263068,114.17600630000001
72,"SUNFIELD COURT,PEACE AVE|新雅閣,太平道",KHMT,6862431.105191087,12081.0,635,7235062.0798625015,12737.0,635,7878091.14332977,13654.0,645,5.0,12.0,19.0,"['A', 'B']",7363489.431159165,12860.833333333334,640.0,21,42,1978/07,43,blank,,False,,,POINT Z (22.3176766 114.1743343 0),22.3176766,114.17433429999998
73,"CAMBRIDGE COURT,WATERLOO RD|冠華園,窩打老道",KHMT,9758703.030011963,9455.0,1055,10114096.154477121,9940.0,1055,11884558.446704337,12593.0,1078,9.0,16.0,22.0,"['A1', 'A2', 'A3', 'B1', 'B2', 'B3']",10750918.460323377,11036.866666666667,1068.3888888888887,20,120,1965/07,56,blank,,False,,,POINT Z (22.3194868 114.1765404 0),22.3194868,114.17654040000001
74,"PRINCESS TERR,MAN FUK RD|公主台,文福道",KHMT,13121217.0,11520.0,1097,13653262.0,11972.0,1097,29366559.05100658,14636.0,2243,4.0,9.0,14.0,"['A', 'A & B', 'B', 'C', 'D', 'E', 'F']",16345956.667287394,12617.428571428572,1316.142857142857,17,119,1967/05,54,blank,,False,,,POINT Z (22.319568 114.1783749 0),22.319568,114.17837490000001
75,"MANDARIN COURT(Block 5),ARGYLE ST|翠華大廈5座,亞皆老街",KHMT,17457575.0,11155.0,1265,14035175.0,11095.0,1265,15358200.0,12620.0,1565,3.0,6.0,10.0,"['126A', '128A', 'whole floor']",15437409.713265339,11459.166666666666,1404.4444444444443,12,36,1963/00,58,MANDARIN COURT,翠華大廈,True,3.0,156.0,POINT Z (22.3213551 114.1786536 0),22.3213551,114.17865359999999
76,"BEAUTY COURT,MAN FUK RD|麗苑,文福道",KHMT,13843700.0,12038.0,1150,14423300.0,12542.0,1150,15663811.741132919,14592.0,1200,5.0,10.0,15.0,"['A', 'B']",14973969.596210124,13500.166666666666,1175.0,17,34,1965/09,56,blank,,False,,,POINT Z (22.319613 114.1772603 0),22.319613,114.17726029999999
77,"KING'S COURT,MAN FUK RD|瓊苑,文福道",KHMT,18926664.765951373,11955.0,1600,19772071.623752967,12489.0,1600,21309318.925111294,13460.0,1600,4.0,10.0,15.0,"['A', 'B']",20145433.266633507,12724.833333333334,1600.0,16,32,1964/06,57,blank,,False,,,POINT Z (22.3200486 114.1775389 0),22.3200486,114.1775389
78,"GRAND COURT(Block 3),HO MAN TIN HILL RD|加林閣3座,何文田山道",KHMT,14470865.993434506,13771.0,1062,14811332.232768813,14095.0,1062,15781892.749757009,14837.0,1075,3.0,6.0,10.0,"['A', 'B']",15192306.39631941,14368.166666666666,1068.5,12,24,1981/10,40,GRAND COURT,加林閣,True,2.0,48.0,POINT Z (22.3164594 114.1773532 0),22.3164594,114.17735320000001
79,"THE CRESCENT(Block C),HO MAN TIN HILL RD|仁禮花園C座,何文田山道",KHMT,36430027.14331772,21930.0,1840,38248812.66689636,23020.0,1840,45823955.97283375,24347.0,2104,4.0,10.0,16.0,"['A', 'B', 'C']",41450289.262568556,23166.55555555555,2000.3333333333333,19,57,1987/07,34,THE CRESCENT,仁禮花園,True,1.0,57.0,POINT Z (22.316112 114.1762385 0),22.316112,114.1762385
80,"EDWARD MANSION,PRINCE EDWARD RD W|愛華大廈,太子道西",KHMT,14136248.32802117,8476.0,1109,14495019.724919612,8848.0,1109,16795567.0223481,9184.0,1238,3.0,6.0,10.0,"['A', 'B', 'C', 'D']",15436893.553277468,8903.416666666666,1173.5,12,48,1961/10,60,blank,,False,,,POINT Z (22.325489 114.174976 0),22.325489,114.174976
81,"DELTEC COURT,WATERLOO RD|愷悌閣,窩打老道",KHMT,3789974.0,13633.0,278,3870038.0,13921.0,278,4057132.0,18332.0,278,7.0,13.0,19.0,"['A', 'B']",3758877.3636611477,14757.666666666666,262.5,19,38,1988/01,33,blank,,False,,,POINT Z (22.3193471 114.1756637 0),22.3193471,114.17566370000002
82,"LUNG MAN BLDG,HO MAN TIN ST|龍文大廈,何文田街",KHMT,7024535.776967255,11872.0,635,7173387.789127144,12167.0,635,14529329.510835592,13107.0,1247,3.0,6.0,9.0,"['A', 'B', 'C', 'D', 'E', 'F']",9709644.311467828,12644.22222222222,844.0,11,66,1963/02,58,blank,,False,,,POINT Z (22.3169055 114.1750774 0),22.3169055,114.17507739999999
83,"REGAL COURT,WATERLOO RD|麗豪閣,窩打老道",KHMT,9904182.770879388,11639.0,860,10310935.873764545,12117.0,860,13255683.172775563,15090.0,991,3.0,8.0,13.0,"['A', 'B', 'C', 'D']",11542637.88789173,12966.5,923.25,17,68,1989/03,32,blank,,False,,,POINT Z (22.322952 114.1785642 0),22.322951999999997,114.1785642
84,"BELAIRE HEIGHTS,WATERLOO RD|碧儷閣,窩打老道",KHMT,11817900.313602485,7578.0,1185,12066476.051918164,7895.0,1185,14480082.180439467,10653.0,1185,2.0,7.0,12.0,"['A', 'B', 'PORTION A', 'REMARK']",13421183.859119007,8520.666666666666,1185.0,15,60,1974/01,47,blank,,False,,,POINT Z (22.3243197 114.1786536 0),22.3243197,114.17865359999999
85,"PERTH APTS(Block B2),PERTH ST|巴富洋樓B2座,巴富街",KHMT,16885203.329852086,15862.0,1190,17287586.816088628,16240.0,1190,17809195.038987856,16730.0,1190,3.0,6.0,10.0,"['A', 'B', 'C', 'D']",17360505.516636785,16308.5,1190.0,12,48,1974/05,47,PERTH APTS,巴富洋樓,True,3.0,144.0,POINT Z (22.3219259 114.1811151 0),22.3219259,114.18111509999999
86,"PEACE GARDEN,PRINCE EDWARD RD W|太和大廈,太子道西",KHMT,11372298.870687066,8091.0,890,11653648.230031231,8286.0,890,13412665.22376352,9218.0,985,3.0,6.0,10.0,"['249', '249A', '251', 'whole floor']",12246123.557033226,8758.666666666666,947.4166666666666,12,48,1962/01,59,blank,,False,,,POINT Z (22.325317 114.177703 0),22.325317000000002,114.17770300000001
87,"STEPHEN MANSION,BELFRAN RD|鐘山閣,巴芬道",KHMT,12026525.781049099,5295.0,865,11852511.720090311,5400.0,862,10720885.60110721,5085.0,940,3.0,6.0,10.0,"['A', 'B']",11533307.700748874,5260.0,875.3333333333334,12,24,1973/11,48,blank,,False,,,POINT Z (22.3261159 114.1774925 0),22.326115899999998,114.1774925
88,"TAK WAI MANSION(Block 2),MAN FUK RD|德威大廈2座,文福道",KHMT,8726719.364962861,13606.0,717,9062165.067437915,14129.0,717,9549619.625527857,14889.0,717,4.0,9.0,14.0,"['E', 'F', 'G', 'H']",9161793.937644016,14284.333333333334,717.0,17,68,1967/07,54,TAK WAI MANSION,德威大廈,True,2.0,132.0,POINT Z (22.3192642 114.1781475 0),22.3192642,114.17814750000001
89,"SHING TAK MANSION,PEACE AVE|成德大廈,太平道",KHMT,5705184.0,10644.0,536,5836504.000000001,10889.0,536,10190400.0,12738.0,802,2.0,5.0,8.0,"['1', '10', '11', '12', '13', '14', '15', '16', '2', '3', '4', '5', '6', '7', '8', '9']",8016055.854166667,11677.4375,683.0,11,176,1962/06,59,blank,,False,,,POINT Z (22.3197449 114.1735215 0),22.3197449,114.1735215
90,"CRYSTAL COURT,MAN WAN RD|麗晶樓,文運道",KHMT,8138200.0,11626.0,660,8518300.0,12169.0,700,10343200.0,14776.0,700,4.0,10.0,17.0,"['A', 'B', 'C', 'D', 'E', 'E1', 'F']",9436399.047619047,13555.761904761906,696.1904761904761,20,140,1967/07,54,blank,,False,,,POINT Z (22.3187445 114.1774597 0),22.3187445,114.1774597
91,"SUNLAND COURT,LIBERTY AVE|新麟閣,自由道",KHMT,7424208.79687661,11527.0,720,7829973.656947076,12157.0,720,8282469.461219662,12516.0,740,5.0,12.0,20.0,"['A', 'B']",8055826.469107184,12168.5,740.0,21,42,1977/05,44,blank,,False,,,POINT Z (22.3187226 114.1746129 0),22.3187226,114.1746129
92,"KAM WAH HSE,WATERLOO RD|金華樓,窩打老道",KHMT,6444445.490326944,6620.0,659,6695603.637835154,6878.0,659,7226022.370172605,11535.0,1155,3.0,8.0,12.0,"['F.P.', 'R', 'R.P.', 'RP']",6784218.968590953,8377.555555555555,788.4166666666666,13,52,1966/07,55,blank,,False,,,POINT Z (22.3196982 114.1760295 0),22.319698199999998,114.1760295
93,"MANDARIN COURT(Block 1),ARGYLE ST|翠華大廈1座,亞皆老街",KHMT,7781365.0,9265.0,835,8064429.999999999,9577.0,835,8729600.0,9920.0,880,2.0,6.0,9.0,"['1', '2', '3', '4', '5']",8335432.333333333,9614.066666666668,867.0,12,60,1958/12,63,MANDARIN COURT,翠華大廈,True,3.0,156.0,POINT Z (22.3216086 114.1792574 0),22.3216086,114.1792574
94,"MANCHESTER COURT,HO MAN TIN ST|文采閣,何文田街",KHMT,11626693.0,15041.0,753,11915795.0,15415.0,753,12289154.0,15898.0,773,3.0,6.0,10.0,"['A', 'B', 'C', 'D']",11943880.666666666,15451.333333333334,763.0,12,48,1990/10,31,blank,,False,,,POINT Z (22.3157786 114.1755883 0),22.3157786,114.17558829999999
95,"KINGSLAND VILLA(Block B),MAN FUK RD|瓊林別墅B座,文福道",KHMT,8574205.0,11509.0,745,8396411.91944602,12599.0,745,9905886.71883845,14864.0,745,4.0,9.0,14.0,"['1', '2', '3', '4']",9282147.207581665,13815.0,745.0,17,68,1967/00,54,KINGSLAND VILLA,瓊林別墅,True,2.0,136.0,POINT Z (22.3196152 114.1780717 0),22.3196152,114.17807169999999
96,"SPRINGVALE,PRINCE EDWARD RD W|春苑,太子道西",KHMT,14804435.935330642,4388.0,1325,16255189.684690759,4818.0,1325,17301081.922601536,5128.0,1330,2.0,5.0,8.0,"['A', 'B', 'C', 'D']",16238301.216344884,4827.111111111112,1323.4166666666667,9,36,1963/03,58,blank,,False,,,POINT Z (22.3264519 114.1840479 0),22.3264519,114.18404790000001
97,"KING'S COURT,PRINCE EDWARD RD W|乾隆閣,太子道西",KHMT,12203100.0,11622.0,1050,12554289.628939472,12052.0,1050,13629000.000000002,14162.0,1050,3.0,6.0,10.0,"['A', 'B', 'C', 'D']",12803636.952654464,13149.333333333334,1050.0,12,48,1972/08,49,blank,,False,,,POINT Z (22.3255905 114.1791645 0),22.3255905,114.1791645
98,"KOWLOON TONG MANSION,BOUNDARY ST|九龍塘大廈,界限街",KHMT,15394316.883276237,5336.0,1090,15604921.293411015,5409.0,1090,17041359.443558566,6140.0,1090,4.0,6.0,9.0,"['110A', 'whole floor']",16389357.104901517,5724.333333333333,1103.3333333333333,10,20,1964/03,57,blank,,False,,,POINT Z (22.3266984 114.1765636 0),22.326698399999998,114.1765636
99,"MOUNT TRIO COURT(Block 2),HOK YU LANE|鼎峰花園2座,學餘里",KHMT,13334331.423431197,12909.0,1150,13804820.967034288,13023.0,1150,15379311.176545592,14821.0,1160,4.0,9.0,14.0,"['A', 'B', 'C']",13993154.146575421,13474.22222222222,1161.111111111111,17,51,1965/02,56,MOUNT TRIO COURT,鼎峰花園,True,2.0,78.0,POINT Z (22.3204044 114.1777711 0),22.3204044,114.17777109999999
100,"IMPERIAL GARDEN,DUKE ST|嘉爵園,公爵街",KHMT,15581240.023377927,17453.0,998,16205275.248057991,18152.0,998,17225693.362234406,19295.0,998,3.0,8.0,13.0,"['A', 'B', 'C', 'D']",16411203.896354893,18382.666666666668,998.0,14,56,1988/08,33,blank,,False,,,POINT Z (22.326311 114.1755651 0),22.326310999999997,114.17556509999999
101,"KARIN COURT,PRINCE EDWARD RD W|嘉倫閣,太子道西",KHMT,7304586.367369049,15707.0,470,7377134.624407921,15863.0,470,14434105.043550322,18945.0,770,4.0,7.0,10.0,"['A', 'B']",10858637.944208698,17209.833333333332,626.6666666666666,11,22,1975/08,46,blank,,False,,,POINT Z (22.3250641 114.1761456 0),22.3250641,114.1761456
102,"LIBERTY MANSION,WATERLOO RD|自由大廈,窩打老道",KHMT,4774969.48875053,9882.0,435,4948908.96894542,10579.0,435,11504890.994102336,16137.0,874,3.0,8.0,13.0,"['A', 'B', 'C', 'D']",7550338.204102124,12959.416666666666,635.25,15,60,1962/01,59,blank,,False,,,POINT Z (22.3176902 114.1750774 0),22.3176902,114.17507739999999
103,"YEE ON COURT(Block C),ARGYLE ST|怡安閣C座,亞皆老街",KHMT,7281240.0,10328.0,705,7719045.0,10184.0,705,14527260.0,12146.0,1210,9.0,17.0,24.0,"['1', '2', '3', '4', '5', '6']",9926841.61111111,11341.111111111111,871.0,21,126,1976/06,45,YEE ON COURT,怡安閣,True,3.0,320.0,POINT Z (22.3202757 114.1760992 0),22.3202757,114.17609920000001
104,"HEALTH MANSION,PRINCE EDWARD RD W|康寧大廈,太子道西",KHMT,,,1017,,,1017,,,780,4.0,6.0,8.0,['whole floor'],,,938.0,7,7,1959/04,62,blank,,False,,,POINT Z (22.3252443 114.1772138 0),22.3252443,114.1772138
105,"ORIENTAL GARDEN(Block B),PRINCE EDWARD RD W|東方花園B座,太子道西",KHMT,12935007.275425341,14755.0,980,13363690.335925713,15244.0,980,14372914.1347165,16312.0,985,3.0,7.0,10.0,"['1', '2', '3', '4']",13672477.752256677,15555.666666666666,982.5,11,44,1967/01,54,ORIENTAL GARDEN,東方花園,True,2.0,116.0,POINT Z (22.3255524 114.1757144 0),22.325552399999996,114.1757144
106,"WELLIVE COURT,VICTORY AVE|慧宜閣,勝利道",KHMT,6629659.999999999,12580.0,527,6999614.0,13282.0,527,7365879.0,13977.0,527,6.0,13.0,20.0,['whole floor'],6998384.333333333,13279.666666666666,527.0,20,20,1995/01,26,blank,,False,,,POINT Z (22.318953 114.17488 0),22.318953,114.17488
107,"CELEBRITY GARDEN,HO MAN TIN ST|名人花園,何文田街",KHMT,13021713.572508477,16467.0,884,13456640.545538152,17017.0,884,14158849.912902426,17905.0,884,6.0,10.0,15.0,"['A', 'B']",13570380.538788034,17160.833333333332,884.0,12,24,1996/11,25,blank,,False,,,POINT Z (22.3167789 114.1746362 0),22.3167789,114.1746362
108,"SCENERY MANSION,WATERLOO RD|匯景大廈,窩打老道",KHMT,11964202.025132166,7850.0,1010,12211871.003330437,8031.0,1010,14682651.946515627,9542.0,1150,3.0,6.0,10.0,"['A', 'B', 'C', 'D']",13388599.015744433,8400.833333333334,1080.0,12,48,1965/01,56,blank,,False,,,POINT Z (22.3240581 114.1786536 0),22.324058100000002,114.17865359999999
109,"PRINCE EDWARD TOWERS,PRINCE EDWARD RD W|愛華苑,太子道西",KHMT,10418475.0,12762.0,795,10668105.0,13064.0,795,13798550.0,14135.0,1025,3.0,6.0,10.0,"['A', 'B', 'C']",12547311.666666666,13255.0,948.3333333333334,12,36,1973/04,48,blank,,False,,,POINT Z (22.3258543 114.1774925 0),22.3258543,114.1774925
110,"FU TAO BLDG,ARGYLE ST|富都大廈,亞皆老街",KHMT,5100660.0,11594.0,430,5294160.0,12036.0,430,5970750.0,12682.0,475,9.0,14.0,18.0,"['A', 'B', 'C', 'D', 'E', 'F']",5467745.277777777,12199.222222222224,448.3333333333333,16,96,1979/06,42,blank,,False,,,POINT Z (22.3199228 114.1736376 0),22.3199228,114.17363759999999
111,"KERIN COURT,MAN WAN RD|嘉嗚閣,文運道",KHMT,12207468.0187803,11685.0,1152,12735091.151113197,12237.0,1152,14850432.000000002,13054.0,1152,4.0,10.0,17.0,"['A', 'B']",13467244.002753621,12345.166666666666,1152.0,18,36,1964/09,57,blank,,False,,,POINT Z (22.3193734 114.1771209 0),22.3193734,114.1771209
112,"CAMBRIDGE BLDG,WATERLOO RD|金碧大廈,窩打老道",KHMT,13251957.548345366,4337.0,1130,13566680.081773905,4440.0,1130,13887513.732356397,4545.0,1200,2.0,5.0,8.0,"['A', 'B']",13568717.120825224,4440.666666666667,1165.0,9,18,1962/06,59,blank,,False,,,POINT Z (22.3226496 114.178533 0),22.322649600000002,114.178533
113,"TUNG LUNG COURT,JULIA AVE|騰龍閣,棗梨雅道",KHMT,5692864.8850084795,13686.0,465,5652075.0,12155.0,465,6201587.211061773,14909.0,465,3.0,8.0,14.0,['whole floor'],5848842.365356751,13583.333333333334,465.0,14,14,1981/11,40,blank,,False,,,POINT Z (22.319946 114.175122 0),22.319945999999998,114.175122
114,"GALLANT COURT,PRINCE EDWARD RD W|麒麟閣,太子道西",KHMT,10558787.67156018,8429.0,848,10820596.50100093,8638.0,848,23343796.861046463,14080.0,1780,3.0,6.0,10.0,"['A', 'B', 'C', 'D', 'E', 'F', 'G', 'H']",16523833.74194637,11626.791666666666,1332.5,12,96,1964/12,57,blank,,False,,,POINT Z (22.3258844 114.1767494 0),22.3258844,114.17674939999999
115,"SHUNG MING MANSION,BOUNDARY ST|崇明大廈,界限街",KHMT,10786561.061166346,14493.0,832,11076822.48487813,14883.0,832,11384946.1500491,15297.0,877,3.0,6.0,10.0,"['F.P.', 'R.P.']",11082776.565364525,14891.0,854.5,12,24,1975/01,46,blank,,False,,,POINT Z (22.3267054 114.1767958 0),22.326705399999998,114.1767958
116,1 PERTH ST|1 巴富街,KHMT,13974504.117309378,5472.0,1215,14332763.083840538,5599.0,1215,17847861.398457337,12315.0,1215,3.0,6.0,10.0,"['1', 'whole floor']",15868550.140245954,8783.5,1215.0,12,24,1963/00,58,blank,,False,,,POINT Z (22.3215521 114.1807198 0),22.3215521,114.18071979999999
117,"EDWARDIAN HEIGHTS,PRINCE EDWARD RD W|愛華閣,太子道西",KHMT,8416819.817292675,11897.0,715,8612790.153460622,12174.0,715,9924566.572912505,13973.0,794,3.0,6.0,10.0,"['A', 'B', 'C']",9140805.443265632,12913.555555555555,748.4444444444445,12,36,1972/04,49,blank,,False,,,POINT Z (22.3262902 114.1830193 0),22.3262902,114.1830193
118,"EARL GARDENS,EARL ST|伯爵園,伯爵街",KHMT,20956141.092380352,6109.0,1330,21477674.01549389,6232.0,1330,27309716.819415614,15219.0,1660,3.0,6.0,10.0,"['A', 'B', 'C', 'D']",23115248.866731185,8487.083333333334,1501.6666666666667,12,48,1972/12,49,blank,,False,,,POINT Z (22.3268004 114.1801884 0),22.3268004,114.1801884
119,"PRINCE'S HEIGHTS(Phase 2),PRINCE EDWARD RD W|太子閣2期,太子道西",KHMT,13707599.999999998,11423.0,1200,14214830.435264003,11845.0,1200,15261947.090034911,13817.0,1240,3.0,6.0,10.0,"['A', 'B', 'C', 'D']",14408845.062919585,12746.0,1220.0,12,48,1973/12,48,PRINCE'S HEIGHTS,太子閣,True,2.0,96.0,POINT Z (22.32571 114.1795394 0),22.32571,114.17953940000001
120,"COIN ORGANIZE BLDG,WATERLOO RD|集貴大廈,窩打老道",KHMT,4380134.0,10762.0,407,4595030.0,11290.0,407,4841672.0,11896.0,407,3.0,9.0,16.0,['whole floor'],4605612.0,11316.0,407.0,17,17,1997/04,24,blank,,False,,,POINT Z (22.3181555 114.1748916 0),22.3181555,114.1748916
121,"HAPPY COURT,MAN FUK RD|樂園,文福道",KHMT,11314779.95936522,13961.0,906,12183589.078800756,15033.0,906,12752529.37902813,15735.0,906,4.0,8.0,14.0,"['A', 'B']",12191975.422634885,15021.5,907.3333333333334,16,32,1966/01,55,blank,,False,,,POINT Z (22.3197794 114.177864 0),22.319779399999998,114.17786399999999
122,"PARC REGAL(Block 1),HO MAN TIN HILL RD|賀龍居1座,何文田山道",KHMT,9830435.0,14351.0,685,10396930.0,15178.0,685,30515503.753749374,19239.0,1603,3.0,10.0,16.0,"['A', 'A & B', 'AB', 'B', 'C', 'C & D', 'CD', 'D']",18576264.31812619,16796.857142857145,1130.625,18,144,1995/05,26,PARC REGAL,賀龍居,True,3.0,450.0,POINT Z (22.3147895 114.1763314 0),22.3147895,114.1763314
123,"YEE ON COURT(Block B),WATERLOO RD|怡安閣B座,窩打老道",KHMT,5315436.0,9612.0,553,5848696.0,10297.0,568,8653248.0,11584.0,747,9.0,17.0,24.0,"['1', '2', '3', '4', '5', '6']",7380736.388888889,10750.722222222223,684.8333333333334,21,126,1976/06,45,YEE ON COURT,怡安閣,True,3.0,320.0,POINT Z (22.3203898 114.1764127 0),22.3203898,114.17641270000001
124,"PEACE MANSION,PEACE AVE|太平閣,太平道",KHMT,3956931.0000000005,11307.0,297,4202253.0,12068.0,297,5698500.0,15097.0,435,5.0,12.0,20.0,"['A', 'B', 'C', 'D']",4773042.0,13193.333333333334,367.3333333333333,24,96,1991/05,30,blank,,False,,,POINT Z (22.3194139 114.1738234 0),22.3194139,114.17382340000002
125,"SHARON COURT,HO MAN TIN ST|瑞麟閣,何文田街",KHMT,7848258.122863832,16010.0,540,7944779.349498759,16447.0,540,8386773.214932661,17362.0,540,3.0,6.0,10.0,"['A', 'B']",8121994.349232063,16774.333333333332,541.3333333333334,12,24,1988/08,33,blank,,False,,,POINT Z (22.3161597 114.1753584 0),22.316159699999996,114.17535840000001
126,"WING YING MANSION,EMMA AVE|榮英大廈,艷馬道",KHMT,9956430.0,10057.0,990,10336590.0,10441.0,990,10180485.0,10773.0,945,4.0,9.0,14.0,['whole floor'],10157835.0,10423.666666666666,975.0,17,17,1964/02,57,blank,,False,,,POINT Z (22.3194662 114.1753044 0),22.319466199999997,114.1753044
127,"HOMAN VILLA,HO MAN TIN ST|浩文苑,何文田街",KHMT,4303802.654015611,14845.0,293,4674315.270508164,16123.0,293,9283499.242994914,18532.0,560,3.0,6.0,10.0,"['A', 'B', 'C']",7220633.266194917,17093.777777777777,456.3333333333333,12,36,1987/04,34,blank,,False,,,POINT Z (22.315546 114.1756812 0),22.315545999999998,114.17568119999999
128,"HARRISON COURT(Phase 3),MAN WAN RD|恒信園3期,文運道",KHMT,8951739.953633508,11773.0,850,9421643.571347388,12391.0,850,10569789.951198453,13901.0,850,4.0,10.0,17.0,"['A', 'B', 'C', 'D']",9866835.429230036,12976.5,850.0,20,80,1971/09,50,HARRISON COURT,恒信園,True,5.0,330.0,POINT Z (22.318833 114.177849 0),22.318832999999998,114.177849
129,271 CHATHAM RD N|271 漆咸道北,KHMT,,,250,,,250,,,250,2.0,3.0,4.0,"['A', 'B']",,,267.5,5,10,1986/03,35,blank,,False,,,POINT Z (22.3095972 114.1842974 0),22.3095972,114.18429740000002
130,"PRINCE GARDEN,PRINCE EDWARD RD W|太子花園,太子道西",KHMT,14626591.838424105,9430.0,1050,14964725.13861249,9648.0,1050,15178772.824052842,9786.0,1050,3.0,6.0,8.0,"['A', 'B']",14923363.267029813,9621.333333333334,1050.0,10,20,1978/09,43,blank,,False,,,POINT Z (22.32652 114.180506 0),22.326520000000002,114.18050600000001
131,"WALTON MANSION,PRINCE EDWARD RD W|華苑,太子道西",KHMT,12147907.845519476,4752.0,990,11573157.27719027,4591.0,990,15118812.172120458,5101.0,1164,3.0,6.0,8.0,"['A', 'B', 'C']",13579244.085967088,4903.38888888889,1091.3333333333333,10,30,1964/02,57,blank,,False,,,POINT Z (22.326958 114.1834837 0),22.326957999999998,114.18348370000001
132,"EVERWELL GARDEN,SHEUNG HONG ST|常康園,常康街",KHMT,14896150.0,9854.0,1485,15724665.0,10589.0,1485,18748040.0,11294.0,3003,3.0,10.0,17.0,"['A', 'B', 'C', 'D', 'E', 'F', 'G', 'H']",16415774.583333334,10728.25,1627.3333333333333,21,168,1972/07,49,blank,,False,,,POINT Z (22.3204041 114.1835766 0),22.3204041,114.18357659999998
133,"DUKE GARDEN,DUKE ST|爵園,公爵街",KHMT,12558408.05151897,8819.0,1000,12911650.383254888,9032.0,1000,16791058.578345586,14050.0,1220,3.0,6.0,10.0,"['A', 'B', 'C', 'D']",14787994.253982784,11224.166666666666,1108.8333333333333,12,48,1964/01,57,blank,,False,,,POINT Z (22.325829 114.1746129 0),22.325829000000002,114.1746129
134,"MANSFIELD COURT,PRINCE EDWARD RD W|文蔚閣,太子道西",KHMT,10890020.365964206,15371.0,792,11181913.43673236,15783.0,792,11717523.052025374,16539.0,796,3.0,6.0,10.0,"['A', 'B', 'C']",11324484.164329976,15957.333333333334,793.3333333333334,12,36,1994/12,27,blank,,False,,,POINT Z (22.32637 114.1837345 0),22.32637,114.1837345
135,108A BOUNDARY ST|108A 界限街,KHMT,18796220.0,15929.0,1180,17447210.024633236,17943.0,1087,17461795.553829554,17958.0,1087,0.0,1.0,2.0,['A'],17901741.859487597,17276.666666666668,1118.0,3,3,1957/03,64,blank,,False,,,POINT Z (22.3267128 114.1749031 0),22.3267128,114.1749031
136,"PARIS GARDEN,BELFRAN RD|巴豪苑,巴芬道",KHMT,13089541.426895564,15802.0,926,13321478.62468893,16082.0,926,13748077.399201727,16597.0,926,3.0,7.0,11.0,['whole floor'],13386365.816928742,16160.333333333334,926.0,13,13,1993/01,28,blank,,False,,,POINT Z (22.3261089 114.1772603 0),22.326108899999998,114.17726029999999
137,"LATIN COURT,PRINCE EDWARD RD W|蘭亭閣,太子道西",KHMT,11526129.579941839,8354.0,934,12316705.621276129,8927.0,934,13127108.416127427,13965.0,950,3.0,6.0,10.0,"['A', 'B', 'C']",12567141.631863697,10498.0,944.6666666666666,12,36,1972/11,49,blank,,False,,,POINT Z (22.3250564 114.1764707 0),22.325056399999998,114.1764707
138,"GLEN HAVEN,ARGYLE ST|嘉麗園,亞皆老街",KHMT,8749707.339773467,13585.0,720,9187675.760166986,12604.0,720,19042560.0,15451.0,1440,4.0,10.0,16.0,"['A', 'B', 'C', 'D', 'E']",13868824.449500695,14215.666666666666,1072.4,18,90,1973/02,48,blank,,False,,,POINT Z (22.3204679 114.1734983 0),22.320467899999997,114.1734983
139,"ILFORD COURT(PERTH GARDEN),PERTH ST|巴富花園(宜富閣),巴富街",KHMT,12391119.999999998,12644.0,785,13102600.0,13370.0,785,14203630.0,14143.0,1010,8.0,14.0,20.0,"['A', 'B', 'C', 'D', 'E', 'F']",12625948.466666667,13276.766666666668,868.0,19,114,1980/07,41,PERTH GARDEN,巴富花園,True,3.0,360.0,POINT Z (22.3210928 114.1792109 0),22.321092800000002,114.17921090000002
140,"ERIN COURT,PRINCE EDWARD RD W|楓嗚閣,太子道西",KHMT,15855718.940891325,8798.0,1220,16232377.870039573,9007.0,1220,17258456.59048803,9354.0,1249,2.0,5.0,8.0,"['297A', 'A', 'B', 'whole floor']",16468804.666921511,9065.5,1229.6666666666667,9,36,1963/11,58,blank,,False,,,POINT Z (22.3260594 114.1817189 0),22.3260594,114.1817189
141,"HARITA COURT,PRINCE EDWARD RD W|恒泰大樓,太子道西",KHMT,10177811.998941714,12544.0,820,10534002.964147024,12983.0,820,11157134.311021008,13751.0,820,3.0,6.0,10.0,['whole floor'],10622983.091369914,13092.666666666666,820.0,12,12,1963/06,58,blank,,False,,,POINT Z (22.324694 114.174471 0),22.324694,114.174471
142,"TIP TOP MANSION,SHEUNG SHING ST|集德苑,常盛街",KHMT,,,1307,,,1307,,,1314,4.0,10.0,16.0,"['A', 'B']",,,1315.5,17,34,1973/01,48,blank,,False,,,POINT Z (22.3198073 114.1843197 0),22.3198073,114.18431969999999
143,"TIVOLI COURT,DUKE ST|德福閣,公爵街",KHMT,12631144.308678374,14673.0,870,12797286.941512484,14866.0,870,15266549.787778413,16241.0,950,3.0,6.0,10.0,"['A', 'B', 'C', 'D']",13837781.854214618,15353.666666666666,910.0,12,48,1976/08,45,blank,,False,,,POINT Z (22.3257989 114.1753493 0),22.3257989,114.17534930000001
144,"MING GARDEN,PRINCE EDWARD RD W|明園,太子道西",KHMT,8494762.487215964,13300.0,714,8667212.552745912,13570.0,714,12012901.263655152,14471.0,928,2.0,4.0,6.0,"['A', 'B']",10236035.830183702,13897.5,821.0,6,12,1989/04,32,blank,,False,,,POINT Z (22.3257345 114.1801862 0),22.3257345,114.1801862
145,"WING ON COURT,HO MAN TIN HILL RD|永安臺,何文田山道",KHMT,,,1590,,,1590,,,1808,6.0,10.0,16.0,"['A', 'B', 'C', 'D']",,,1692.0833333333333,16,64,1977/07,44,blank,,False,,,POINT Z (22.314244 114.1767795 0),22.314244,114.1767795
146,"MAN CHUNG HSE(Block E,CHUN MAN COURT),CHUNG HAU ST|俊民苑,E座(文宗閣),忠孝街",KHMT,5017810.0,10138.0,485,5210355.0,10526.0,485,6672816.0,11274.0,596,3.0,8.0,13.0,"['1', '10', '2', '3', '4', '5', '6', '7', '8', '9']",5746099.399999999,10723.9,535.8,15,150,1981/00,40,CHUN MAN COURT,俊民苑,True,12.0,1775.0,POINT Z (22.3141244 114.1781502 0),22.314124399999997,114.1781502
147,"MAN OI HSE(Block K,CHUN MAN COURT),CHUNG HAU ST|俊民苑,K座(文愛閣),忠孝街",KHMT,5412115.0,10641.0,485,5609025.0,10506.0,485,6818240.0,12095.0,596,3.0,8.0,13.0,"['1', '10', '2', '3', '4', '5', '6', '7', '8', '9']",5949534.619047619,11413.047619047618,535.8,15,150,1980/01,41,CHUN MAN COURT,俊民苑,True,12.0,1775.0,POINT Z (22.3140271 114.1788161 0),22.3140271,114.17881609999999
148,"NIN FUNG BLDG,WATERLOO RD|年豐樓,窩打老道",KHMT,9410417.052401435,10680.0,985,9712642.993316574,11023.0,985,10162016.841324508,11533.0,985,6.0,10.0,16.0,"['A', 'B']",9761692.295680838,11078.666666666666,985.0,16,32,1973/01,48,blank,,False,,,POINT Z (22.3177635 114.1746129 0),22.3177635,114.1746129
149,"MANTIN COURT,HO MAN TIN HILL RD|文田閣,何文田山道",KHMT,19251633.38839763,6586.0,1094,19714051.438241936,6968.0,1094,42692885.734420784,12571.0,2188,3.0,6.0,9.0,"['A', 'AB', 'B']",27413539.538405772,8316.666666666666,1488.0,10,30,1975/02,46,blank,,False,,,POINT Z (22.3166492 114.1767029 0),22.3166492,114.17670290000001
150,"CASCADES(Block 1),CHUNG HAU ST|欣圖軒1座,忠孝街",KHMT,5879063.000000001,11814.0,467,5790333.0,11830.0,467,6735420.0,13852.0,710,4.0,10.0,16.0,"['A', 'B', 'C', 'D', 'E', 'F', 'G', 'H', 'J', 'K']",6213134.777777779,12498.518518518518,519.0,19,190,1998/12,23,CASCADES,欣圖軒,True,4.0,740.0,POINT Z (22.3159115 114.1797218 0),22.3159115,114.17972179999998
151,"MAN HUNG HSE(Block G,CHUN MAN COURT),CHUNG HAU ST|俊民苑,G座(文雄閣),忠孝街",KHMT,5410175.0,10690.0,485,5632790.0,10964.0,485,7352852.0,12337.0,596,3.0,8.0,13.0,"['1', '10', '2', '3', '4', '5', '6', '7', '8', '9']",6174197.033333334,11524.699999999999,535.8,15,150,1981/03,40,CHUN MAN COURT,俊民苑,True,12.0,1775.0,POINT Z (22.3141244 114.1781502 0),22.314124399999997,114.1781502
152,"TRIUMPH TERR,VICTORY AVE|凱旋居,勝利道",KHMT,6299575.488778084,13945.0,505,6744091.96643729,13109.0,505,10529011.066209748,15717.0,777,8.0,18.0,26.0,"['A', 'B']",7841800.3657999635,14223.333333333334,641.0,24,48,1998/12,23,blank,,False,,,POINT Z (22.319578 114.174331 0),22.319578,114.17433100000001
153,"MAN LAN HSE(Block C,CHUN MAN COURT),CHUNG HAU ST|俊民苑,C座(文蘭閣),忠孝街",KHMT,4914505.0,9824.0,485,5096175.0,9707.0,485,6633480.0,11160.0,596,3.0,8.0,13.0,"['1', '10', '2', '3', '4', '5', '6', '7', '8', '9']",5653921.066666666,10548.566666666666,535.8,15,150,1980/09,41,CHUN MAN COURT,俊民苑,True,12.0,1775.0,POINT Z (22.3141244 114.1781502 0),22.314124399999997,114.1781502
154,"DRAGON VIEW(Block 1),CHUNG HAU ST|御龍居1座,忠孝街",KHMT,7337076.0,13009.0,564,9480870.0,6148.0,630,,,1602,13.0,33.0,64.0,"['A', 'B', 'C', 'D', 'E', 'F', 'G', 'H']",13886145.940728351,13540.0,990.9583333333334,57,456,1998/10,23,DRAGON VIEW,御龍居,True,2.0,648.0,POINT Z (22.3160869 114.1788858 0),22.3160869,114.1788858
155,"MAN PAN HSE(Block B,CHUN MAN COURT),CHUNG HAU ST|俊民苑,B座(文斌閣),忠孝街",KHMT,5256915.0,10445.0,485,5478075.0,10876.0,485,6904660.000000001,11812.0,596,3.0,8.0,12.0,"['1', '10', '2', '3', '4', '5', '6', '7', '8', '9']",5973728.733333333,11155.300000000001,535.8,14,140,1980/04,41,CHUN MAN COURT,俊民苑,True,12.0,1775.0,POINT Z (22.3141244 114.1781502 0),22.314124399999997,114.1781502
156,"MAN HEI HSE(Block H,CHUN MAN COURT),CHUNG HAU ST|俊民苑,H座(文禧閣),忠孝街",KHMT,5490501.0,10579.0,485,5708481.0,10999.0,485,7262260.0,12247.0,596,3.0,8.0,13.0,"['1', '10', '2', '3', '4', '5', '6', '7', '8', '9']",6223937.0,11616.433333333334,535.8,15,150,1981/03,40,CHUN MAN COURT,俊民苑,True,12.0,1775.0,POINT Z (22.3142168 114.1781659 0),22.3142168,114.1781659
157,"DRAGON VIEW(Block 2),CHUNG HAU ST|御龍居2座,忠孝街",KHMT,6696247.999999999,11872.0,532,7115752.0,12572.0,532,11927264.0,14984.0,796,5.0,12.0,21.0,"['A', 'B', 'C', 'D', 'E', 'F', 'G', 'H']",8746317.083333334,13286.666666666666,659.0,24,192,1998/06,23,DRAGON VIEW,御龍居,True,2.0,648.0,POINT Z (22.316338 114.1785375 0),22.316338000000002,114.1785375
158,"MAN FUK HSE(Block A,CHUN MAN COURT),CHUNG HAU ST|俊民苑,A座(文福閣),忠孝街",KHMT,5262446.0,9499.0,485,5193114.0,9765.0,485,6197804.0,11575.0,596,3.0,8.0,13.0,"['1', '10', '2', '3', '4', '5', '6', '7', '8', '9']",5529049.399999999,10345.766666666666,535.8,15,150,1980/04,41,CHUN MAN COURT,俊民苑,True,12.0,1775.0,POINT Z (22.3141244 114.1781502 0),22.314124399999997,114.1781502
159,"MAN HOI HSE(Block F,CHUN MAN COURT),CHUNG HAU ST|俊民苑,F座(文凱閣),忠孝街",KHMT,5187152.69730205,11266.0,485,5356355.570499423,11725.0,485,7014626.025821177,13157.0,596,3.0,8.0,13.0,"['1', '10', '2', '3', '4', '5', '6', '7', '8', '9']",5904207.249976803,12317.866666666669,535.8,15,150,1980/12,41,CHUN MAN COURT,俊民苑,True,12.0,1775.0,POINT Z (22.3141244 114.1781502 0),22.314124399999997,114.1781502
160,"MAN MING HSE(Block J,CHUN MAN COURT),CHUNG HAU ST|俊民苑,J座(文明閣),忠孝街",KHMT,5008110.0,10135.0,485,5204535.0,10534.0,485,6719899.999999999,11358.0,596,3.0,8.0,13.0,"['1', '10', '2', '3', '4', '5', '6', '7', '8', '9']",5742460.833333333,10716.066666666668,535.8,15,150,1980/00,41,CHUN MAN COURT,俊民苑,True,12.0,1775.0,POINT Z (22.3141244 114.1781502 0),22.314124399999997,114.1781502
161,"TUNG NAM MANSION,WATERLOO RD|東南大樓,窩打老道",KHMT,6160754.671435344,3423.0,680,6310139.023678737,3506.0,680,7532685.595281471,12293.0,685,5.0,8.0,10.0,"['B', 'whole floor']",6850715.700009816,7793.166666666667,682.5,8,16,1971/04,50,blank,,False,,,POINT Z (22.3179958 114.1747987 0),22.317995800000002,114.1747987
162,"MAN HOR HSE(Block D,CHUN MAN COURT),CHUNG HAU ST|俊民苑,D座(文賀閣),忠孝街",KHMT,5082315.0,10123.0,485,5289895.0,10519.0,485,6811684.0,11429.0,596,3.0,8.0,13.0,"['1', '10', '2', '3', '4', '5', '6', '7', '8', '9']",5821471.666666667,10751.444444444445,535.8,15,150,1981/04,40,CHUN MAN COURT,俊民苑,True,12.0,1775.0,POINT Z (22.3141244 114.1781502 0),22.314124399999997,114.1781502
163,"MAN YIN HSE(Block M,CHUN MAN COURT),CHUNG HAU ST|俊民苑,M座(文彥閣),忠孝街",KHMT,5481955.0,10486.0,485,5684685.0,10895.0,485,7072135.999999999,11866.0,596,3.0,8.0,13.0,"['1', '10', '2', '3', '4', '5', '6', '7', '8', '9']",6206871.600000001,11145.6,535.8,15,150,1981/05,40,CHUN MAN COURT,俊民苑,True,12.0,1775.0,POINT Z (22.3141244 114.1781502 0),22.314124399999997,114.1781502
164,"MAN SHUI HSE(Block L,CHUN MAN COURT),CHUNG HAU ST|俊民苑,L座(文瑞閣),忠孝街",KHMT,5160253.778998878,10745.0,485,5367201.908524896,10801.0,485,6806165.223503318,12856.0,596,3.0,8.0,13.0,"['1', '10', '2', '3', '4', '5', '6', '8', '9']",5903544.413273781,11997.814814814812,541.4444444444445,15,135,1980/00,41,CHUN MAN COURT,俊民苑,True,12.0,1775.0,POINT Z (22.3141244 114.1781502 0),22.314124399999997,114.1781502
165,"GRAND COURT(Block 2),HO MAN TIN HILL RD|加林閣2座,何文田山道",KHMT,14076399.853041988,14638.0,1075,14408163.615120105,14401.0,1075,15538937.068720227,15482.0,1122,3.0,6.0,10.0,"['A', 'B']",14682631.727032902,14943.666666666666,1098.5,12,24,1981/10,40,GRAND COURT,加林閣,True,2.0,48.0,POINT Z (22.3164594 114.1773532 0),22.3164594,114.17735320000001
166,"YICK FAT BLDG,WATERLOO RD|益發大廈,窩打老道",KHMT,9247889.261624355,10432.0,854,7342501.044308704,7488.0,854,10904701.435235204,11112.0,1003,2.0,6.0,10.0,"['A', 'B', 'C', 'whole floor']",9357459.135369428,9614.5,959.75,12,48,1965/04,56,blank,,False,,,POINT Z (22.3191719 114.1756347 0),22.319171899999997,114.1756347
167,"DAWN GARDEN,HO MAN TIN HILL RD|春曉園,何文田山道",KHMT,17541800.0,13900.0,1262,17982238.0,14249.0,1262,18470632.0,14636.0,1262,3.0,6.0,10.0,"['A', 'B']",18000326.666666668,14263.333333333334,1262.0,12,24,1975/09,46,blank,,False,,,POINT Z (22.3168895 114.1762849 0),22.3168895,114.17628490000001
168,"BALWIN COURT(Block 1),ARGYLE ST|寶雲閣1座,亞皆老街",KHMT,8293347.108262115,12328.0,640,8606650.0,13241.0,640,17624077.345187496,15051.0,1309,3.0,8.0,13.0,"['A', 'B', 'C', 'D']",10062339.316576535,13811.333333333334,785.75,14,56,1976/12,45,BALWIN COURT,寶雲閣,True,5.0,299.0,POINT Z (22.3223931 114.1808481 0),22.322393100000003,114.18084809999999
169,"THE ASTRID(Block 1),ARGYLE ST|雅麗居1座,亞皆老街",KHMT,8715850.0,16320.0,530,,,530,,,1483,22.0,68.0,102.0,"['A', 'B', 'C', 'D', 'E', 'F']",18345063.97826087,16897.0,1081.6666666666667,96,576,1995/03,26,THE ASTRID,雅麗居,True,2.0,666.0,POINT Z (22.3230467 114.1824387 0),22.3230467,114.1824387
170,"THE ASTRID(Block 2),ARGYLE ST|雅麗居2座,亞皆老街",KHMT,10000556.0,14348.0,530,13955925.0,14675.0,530,34669503.03408336,12783.0,1836,6.0,11.0,18.0,"['A', 'B', 'C', 'D', 'E', 'F']",19467410.360306025,13907.833333333334,892.0,15,90,1995/03,26,THE ASTRID,雅麗居,True,2.0,666.0,POINT Z (22.3229163 114.1821601 0),22.3229163,114.1821601
171,"BALWIN COURT(Block 3),ARGYLE ST|寶雲閣3座,亞皆老街",KHMT,,,638,,,638,,,815,3.0,8.0,12.0,"['A', 'B', 'C', 'D']",,,726.5,14,56,1976/12,45,BALWIN COURT,寶雲閣,True,5.0,299.0,POINT Z (22.3223931 114.1808481 0),22.322393100000003,114.18084809999999
172,"FAIR WAY GARDEN(Block A),PEACE AVE|富威花園A座,太平道",KHMT,11357511.230620181,4956.0,842,,,873,13055637.909774652,5697.0,900,7.0,15.0,22.0,"['1', '2']",12206574.570197416,5326.5,876.1666666666666,21,42,1984/10,37,FAIR WAY GARDEN,富威花園,True,3.0,276.0,POINT Z (22.3192759 114.1737752 0),22.319275899999997,114.17377520000001
173,"GLORIOUS COURT,PRINCE EDWARD RD W|堂皇閣,太子道西",KHMT,15082978.55429669,15213.0,1002,,,1002,,,2064,15.0,50.0,76.0,['whole floor'],15082978.55429669,15213.0,1356.0,71,71,1986/01,35,blank,,False,,,POINT Z (22.3268859 114.1831122 0),22.3268859,114.1831122
174,"BRIGHT VIEW COURT,ARGYLE ST|明明閣,亞皆老街",KHMT,14550070.86899264,5210.0,1093,13434045.922843816,4827.0,1093,15704035.667472247,5391.0,1153,6.0,8.0,10.0,"['A', 'B']",14908029.131902253,5211.833333333333,1123.0,7,14,1973/00,48,blank,,False,,,POINT Z (22.3254434 114.1858988 0),22.325443399999997,114.18589879999999
175,"EMMA PLACE,EMMA AVE|盛馬苑,艷馬道",KHMT,3423384.0,15849.0,216,3559248.0,16427.0,216,4847481.172077938,17260.0,315,6.0,11.0,17.0,"['A', 'B']",4111939.869466579,16522.0,265.5,17,34,2001/04,20,blank,,False,,,POINT Z (22.319376 114.1756859 0),22.319376000000002,114.17568590000002
176,"CASCADES(Block 2),CHUNG HAU ST|欣圖軒2座,忠孝街",KHMT,5544691.0,10886.0,467,5802942.0,11375.0,467,9528407.319251731,14692.0,725,4.0,10.0,16.0,"['A', 'B', 'C', 'D', 'E', 'F', 'G', 'H', 'J', 'K']",6324555.569431472,12417.0,515.6999999999999,19,190,1998/12,23,CASCADES,欣圖軒,True,4.0,740.0,POINT Z (22.3157005 114.179954 0),22.315700500000002,114.17995400000001
177,"CASCADES(Block 3),CHUNG HAU ST|欣圖軒3座,忠孝街",KHMT,5498458.0,11396.0,467,5702070.0,11806.0,467,6672780.0,12886.0,540,5.0,10.0,16.0,"['A', 'B', 'C', 'D', 'E', 'F', 'G', 'H', 'J', 'K']",5988396.033333334,12145.166666666666,493.3,18,180,1998/12,23,CASCADES,欣圖軒,True,4.0,740.0,POINT Z (22.3155404 114.1801398 0),22.3155404,114.1801398
178,"CASCADES(Block 4),CHUNG HAU ST|欣圖軒4座,忠孝街",KHMT,5527094.0,10864.0,467,5749432.0,11359.0,467,6578820.0,13088.0,725,5.0,10.0,16.0,"['A', 'B', 'C', 'D', 'E', 'F', 'G', 'H', 'J', 'K']",5895869.537037037,11927.541666666666,517.1,18,180,1998/12,23,CASCADES,欣圖軒,True,4.0,740.0,POINT Z (22.3156855 114.1803256 0),22.3156855,114.1803256
179,"ELLERY TERR,GOOD SHEPHERD ST|雅利德樺臺,牧愛街",KHMT,10558185.0,11539.0,915,11712000.000000002,12723.0,915,16554226.0,14534.0,1139,16.0,28.0,39.0,"['A', 'B', 'C', 'D', 'E', 'F']",13164905.666666666,13110.888888888889,1002.7777777777778,34,204,2000/12,21,blank,,False,,,POINT Z (22.3165194 114.1787697 0),22.316519399999997,114.17876969999999
180,"VISION COURT,PRINCE EDWARD RD W|青雲閣,太子道西",KHMT,6154467.140505751,16311.0,397,6489358.226108573,17249.0,397,21215368.33856136,19346.0,1142,9.0,16.0,21.0,"['A', 'A & B', 'AB', 'B', 'C']",13133969.70572411,18034.933333333334,764.6,17,85,2001/09,20,blank,,False,,,POINT Z (22.3264749 114.1807436 0),22.326474899999997,114.1807436
181,"BALWIN COURT(Block 4),ARGYLE ST|寶雲閣4座,亞皆老街",KHMT,7628796.22652228,8619.0,638,8192095.536433068,8953.0,638,18837788.750806976,15106.0,1309,3.0,8.0,13.0,"['A', 'B', 'C', 'CD', 'D']",11011350.064830765,13362.866666666667,842.5333333333333,15,75,1976/12,45,BALWIN COURT,寶雲閣,True,5.0,299.0,POINT Z (22.3223931 114.1808481 0),22.322393100000003,114.18084809999999
182,"GRAND EXCELSIOR,WATERLOO RD|嘉多利豪園,窩打老道",KHMT,11277070.0,16958.0,665,12839211.000000002,18909.0,667,20483795.0,21449.0,955,11.0,22.0,31.0,"['A', 'B', 'C', 'D']",15285004.5,18503.166666666668,818.0,28,112,2002/10,19,blank,,False,,,POINT Z (22.3239666 114.1780196 0),22.323966600000002,114.1780196
183,"ST. GEORGE APTS,WATERLOO RD|聖佐治大廈,窩打老道",KHMT,22156158.64367408,14777.0,1015,23928411.43631283,15959.0,1015,31533615.809800226,17483.0,1221,9.0,16.0,22.0,"['A', 'B', 'C', 'D']",25585073.062378224,16149.555555555557,1104.0,18,72,2002/04,19,blank,,False,,,POINT Z (22.3237478 114.1779588 0),22.3237478,114.1779588
184,"NO.1 HO MAN TIN HILL,HO MAN TIN HILL RD|何文田山1號,何文田山道",KHMT,18000475.241873365,19330.0,1041,17309027.230917044,18759.0,1008,35727362.45339221,26573.0,1503,8.0,18.0,27.0,"['A', 'B', 'C', 'D']",24183090.306823988,21618.416666666668,1232.75,28,112,2002/11,19,blank,,False,,,POINT Z (22.3173487 114.1758001 0),22.3173487,114.17580009999999
185,"PRINCESS COURT,KING TAK ST|嘉苑,敬德街",KHMT,9668687.809645807,4587.0,771,9942137.401560653,4735.0,771,14335911.27887339,5242.0,1109,7.0,11.0,16.0,"['A', 'B', 'C']",11978388.81357382,4899.333333333333,926.0,13,39,1972/12,49,blank,,False,,,POINT Z (22.31929 114.1798611 0),22.31929,114.1798611
186,"MING FAI HSE(Block A,KWUN FAI COURT),SHEUNG LOK ST|冠暉苑,A座(鳴暉閣),常樂街",KHMT,4093149.0,9206.0,411,4153977.0,9343.0,411,6500522.0,10451.0,622,4.0,6.0,9.0,"['1', '10', '11', '13', '3', '4', '5', '6', '7']",4934010.291666667,9854.583333333334,503.22222222222223,10,90,1999/01,22,KWUN FAI COURT,冠暉苑,True,2.0,234.0,POINT Z (22.3143165 114.1826477 0),22.3143165,114.18264769999999
187,"CARMEL ON THE HILL,CARMEL VILLAGE ST|君逸山,迦密村街",KHMT,6176192.0,12452.0,492,6632512.0,13372.0,492,7856300.0,15663.0,502,10.0,18.0,27.0,"['A', 'B', 'C', 'D', 'E', 'F', 'G', 'H']",7214301.458333333,14522.458333333334,496.75,24,192,2003/10,18,blank,,False,,,POINT Z (22.313789 114.1792695 0),22.313789,114.1792695
188,"EDWARDIAN HEIGHTS,(Phase 2),PRINCE EDWARD RD W|愛華閣,2期,太子道西",KHMT,9137739.0,11523.0,793,9200192.210612547,12666.0,793,10217271.88903547,14313.0,812,3.0,6.0,9.0,"['A', 'B', 'C']",9736078.17830029,13422.611111111111,801.1111111111112,11,33,1973/02,48,blank,,False,,,POINT Z (22.3261748 114.1823691 0),22.3261748,114.18236909999999
189,"KO FAI HSE(Block B,KWUN FAI COURT),SHEUNG LOK ST|冠暉苑,B座(高暉閣),常樂街",KHMT,3242613.0,11143.0,287,3326464.0,11392.0,287,3654712.0,12602.0,296,7.0,10.0,13.0,"['1', '10', '11', '12', '13', '14', '15', '16', '24', '3', '4', '5', '6', '7', '8', '9']",3500148.6,12101.622222222222,289.3541666666667,9,144,1999/06,22,KWUN FAI COURT,冠暉苑,True,2.0,234.0,POINT Z (22.3141285 114.1819046 0),22.3141285,114.18190459999998
190,6C DUKE ST|6C 公爵街,KHMT,,,940,,,940,,,940,1.0,2.0,2.0,['whole floor'],,,940.0,2,2,1958/08,63,blank,,False,,,POINT Z (22.3261147 114.1759857 0),22.326114699999998,114.17598570000001
191,6 DUKE ST|6 公爵街,KHMT,,,968,,,968,,,968,0.0,0.0,0.0,['whole floor'],,,968.0,1,1,1958/08,63,blank,,False,,,POINT Z (22.3261147 114.1759857 0),22.326114699999998,114.17598570000001
192,"KAI HING BLDG,ARGYLE ST|皆興大廈,亞皆老街",KHMT,4722388.283273174,8197.0,390,4754677.132882251,8128.0,390,4878691.841564711,8340.0,950,1.0,4.0,7.0,"['A', 'B', 'whole floor']",4793174.694857827,8256.333333333334,575.3333333333334,9,27,1958/07,63,blank,,False,,,POINT Z (22.3201552 114.1751354 0),22.3201552,114.1751354
193,"NG FUNG HSE,WATERLOO RD|五豐樓,窩打老道",KHMT,12029888.000000002,9893.0,1216,12377663.999999998,10179.0,1216,13576391.273686107,12481.0,1216,3.0,7.0,10.0,"['A', 'B']",12827061.98998613,11193.666666666666,1216.0,11,22,1964/01,57,blank,,False,,,POINT Z (22.3249226 114.1787 0),22.3249226,114.1787
194,"KWUN HEI COURT,SHEUNG LOK ST|冠熹苑,常樂街",KHMT,2506714.401026328,8655.0,213,2772583.4168800837,9409.0,212,6540683.0,16287.0,601,8.0,20.0,33.0,"['1', '10', '11', '12', '13', '14', '15', '16', '17', '18', '19', '2', '20', '3', '4', '5', '6', '7', '8', '9']",4602659.812594538,11102.65,439.75,40,800,2000/05,21,blank,,False,,,POINT Z (22.314472 114.1831818 0),22.314472,114.1831818
195,13 LIBERTY AVE|13 自由道,KHMT,,,788,,,788,,,788,1.0,1.0,1.0,['whole floor'],,,788.0,1,1,1964/06,57,blank,,False,,,POINT Z (22.3186438 114.1740588 0),22.3186438,114.1740588
196,268-270C PRINCE EDWARD RD W|268-270C 太子道西,KHMT,6438292.324869635,10823.0,665,6488261.515970905,10907.0,665,8165591.1117438525,11511.0,793,0.0,1.0,2.0,"['A', 'E', 'F', 'H']",7668109.468239433,11249.833333333334,761.0,3,12,1958/01,63,blank,,False,,,POINT Z (22.3256252 114.1777429 0),22.325625199999998,114.1777429
197,6A DUKE ST|6A 公爵街,KHMT,,,933,,,933,,,933,1.0,1.0,1.0,['whole floor'],,,933.0,1,1,1958/08,63,blank,,False,,,POINT Z (22.3261147 114.1759857 0),22.326114699999998,114.17598570000001
198,"HOVE COURT(PERTH GARDEN),PERTH ST|巴富花園(豪富閣),巴富街",KHMT,9448260.0,12036.0,785,9850965.0,12549.0,785,11286896.0,13648.0,980,8.0,14.0,21.0,"['A', 'B', 'C', 'D', 'E', 'F']",10242903.111111112,12763.111111111111,865.6666666666666,20,120,1980/07,41,PERTH GARDEN,巴富花園,True,3.0,360.0,POINT Z (22.3211723 114.179536 0),22.3211723,114.17953600000001
199,"GARVE COURT(PERTH GARDEN),PERTH ST|巴富花園(嘉富閣),巴富街",KHMT,9907485.0,12621.0,785,10277220.0,13092.0,785,15312500.0,15625.0,1010,8.0,15.0,22.0,"['A', 'B', 'C', 'D', 'E', 'F']",11842880.5,13696.0,862.1111111111112,21,126,1980/07,41,PERTH GARDEN,巴富花園,True,3.0,360.0,POINT Z (22.321344 114.17981 0),22.321344,114.17981
200,"PARK HORIZON,WATERLOO RD|翠林雅軒,窩打老道",KHMT,7609281.0,12963.0,587,8090034.0,13782.0,587,11024160.0,14469.0,772,12.0,20.0,27.0,"['A', 'B']",9482165.666666666,13928.666666666666,679.5,22,44,2006/10,15,blank,,False,,,POINT Z (22.3178207 114.1753561 0),22.3178207,114.1753561
201,"GAY MANSION,WATERLOO RD|寶建大廈,窩打老道",KHMT,7392105.0566740455,6140.0,815,7610015.645478281,6321.0,815,8527229.919921134,6997.0,825,3.0,7.0,10.0,"['A', 'B']",7897542.2033820255,6518.0,820.0,11,22,1966/04,55,blank,,False,,,POINT Z (22.3169498 114.1745201 0),22.316949800000003,114.1745201
202,11 LIBERTY AVE|11 自由道,KHMT,,,803,,,803,,,650,3.0,4.0,5.0,['whole floor'],,,752.0,4,4,1963/05,58,blank,,False,,,POINT Z (22.3186438 114.1740588 0),22.3186438,114.1740588
203,"BELFRAN MANSION,BELFRAN RD|福園,巴芬道",KHMT,,,1040,,,1040,,,1098,2.0,6.0,9.0,"['1', '4A', '5', '6A', '7']",,,1074.8,9,45,1966/10,55,blank,,False,,,POINT Z (22.3264068 114.1773067 0),22.3264068,114.1773067
204,"15 HOMANTIN HILL,HO MAN TIN HILL RD|灝畋峰,何文田山道",KHMT,74066975.74224944,24762.0,1620,41348888.40139505,26965.0,1620,54147936.717853166,31909.0,3498,17.0,28.0,40.0,"['A', 'AB', 'B', 'whole floor']",77674989.40989609,28842.666666666668,2512.8333333333335,34,136,2006/04,15,blank,,False,,,POINT Z (22.3159481 114.1765868 0),22.315948100000004,114.1765868
205,"GARTIN COURT,HO MAN TIN ST|嘉田大廈,何文田街",KHMT,9573701.520269554,8183.0,792,9794822.085750544,8372.0,792,11101319.523432557,8638.0,870,4.0,6.0,9.0,"['B', 'FRONT FLAT', 'REAR']",10186525.903283758,8429.0,818.0,10,30,1964/02,57,blank,,False,,,POINT Z (22.3159534 114.175263 0),22.315953399999998,114.17526299999999
206,"BALWIN COURT(Block 5),ARGYLE ST|寶雲閣5座,亞皆老街",KHMT,7560880.706887647,11980.0,638,7763184.0,12168.0,638,10641984.07163934,14597.0,815,3.0,8.0,12.0,"['A', 'B', 'C', 'D']",8756278.115402274,13264.25,726.5,14,56,1976/12,45,BALWIN COURT,寶雲閣,True,5.0,299.0,POINT Z (22.3223931 114.1808481 0),22.322393100000003,114.18084809999999
207,23 SOARES AVE|23 梭椏道,KHMT,,,473,,,473,,,473,4.0,6.0,9.0,['whole floor'],,,473.0,10,10,1973/07,48,blank,,False,,,POINT Z (22.3192803 114.1751104 0),22.319280300000003,114.17511040000001
208,"BALWIN COURT(Block 2),ARGYLE ST|寶雲閣2座,亞皆老街",KHMT,8040076.0,11973.0,638,8343126.0,12471.0,638,10902255.0,13647.0,815,3.0,8.0,12.0,"['A', 'B', 'C', 'D']",9372490.75,12917.333333333334,727.0833333333334,14,56,1976/12,45,BALWIN COURT,寶雲閣,True,5.0,299.0,POINT Z (22.3223931 114.1808481 0),22.322393100000003,114.18084809999999
209,"CHUEN FAT BLDG,VALLEY RD|全發大廈,山谷道",KHMT,3209760.0,10918.0,288,3353472.0,11644.0,288,4493181.0,12457.0,367,6.0,12.0,19.0,"['A', 'B', 'C', 'D']",3829398.6666666665,11699.333333333334,327.5,19,76,1978/12,43,blank,,False,,,POINT Z (22.3098464 114.1839017 0),22.309846399999998,114.18390169999999
210,"YEE ON COURT(Block A),WATERLOO RD|怡安閣A座,窩打老道",KHMT,10124262.639562441,11608.0,975,10598728.428322086,12152.0,975,12631779.445966817,14483.0,975,9.0,15.0,20.0,"['1', '2', '3', '4']",11344006.032173404,13006.5,975.0,17,68,1976/06,45,YEE ON COURT,怡安閣,True,3.0,320.0,POINT Z (22.3205439 114.17661 0),22.320543899999997,114.17661000000001
211,"SKY GARDEN,PRINCE EDWARD RD W|SKY GARDEN,太子道西",KHMT,9608146.912784979,17380.0,618,10255508.249659041,18551.0,618,25610418.072913185,22650.0,1264,14.0,22.0,29.0,"['A', 'AB', 'B', 'C', 'D', 'E']",16792427.473172445,20499.566666666666,882.0,22,132,2004/06,17,blank,,False,,,POINT Z (22.3249772 114.1758669 0),22.3249772,114.1758669
212,"THE HONG GARDEN,HO MAN TIN ST|康園,何文田街",KHMT,,,1141,,,1141,,,1141,1.0,2.0,2.0,['whole floor'],,,1141.0,4,4,1956/11,65,blank,,False,,,POINT Z (22.3151011 114.1753315 0),22.315101100000003,114.1753315
213,"MOUNTAIN COURT(Block B),HO MAN TIN HILL RD|文豪閣B座,何文田山道",KHMT,13491788.942544078,15094.0,985,13797539.384227907,15433.0,985,16555721.547840191,16192.0,1152,3.0,6.0,9.0,"['A', 'B', 'C', 'D']",14966833.141417503,15678.416666666666,1067.25,11,44,1985/03,36,MOUNTAIN COURT,文豪閣,True,2.0,92.0,POINT Z (22.316796 114.176508 0),22.316796,114.17650800000001
214,"ONE VICTORY,VICTORY AVE|勝利道1號,勝利道",KHMT,3488536.0000000005,15436.0,226,3649448.0,16148.0,226,15653279.387820596,21262.0,823,9.0,18.0,26.0,"['A', 'B', 'C', 'whole floor']",9229755.939930148,18767.583333333332,515.0,23,92,2011/09,10,blank,,False,,,POINT Z (22.3184736 114.1747407 0),22.3184736,114.17474070000002
215,"MOUNTAIN COURT(Block A),HO MAN TIN HILL RD|文豪閣A座,何文田山道",KHMT,14953285.000000002,15181.0,985,15318720.000000002,15552.0,985,18971136.0,16468.0,1152,3.0,6.0,10.0,"['A', 'B', 'C', 'D']",16812289.38888889,15870.694444444445,1067.25,12,48,1985/03,36,MOUNTAIN COURT,文豪閣,True,2.0,92.0,POINT Z (22.316796 114.176508 0),22.316796,114.17650800000001
216,19 VALLEY RD|19 山谷道,KHMT,,,177,,,177,,,760,1.0,2.0,3.0,"['C', 'whole floor']",,,468.5,3,6,1951/10,70,blank,,False,,,POINT Z (22.3095873 114.1838606 0),22.3095873,114.18386059999999
217,"CHEERBOND COURT,BOUNDARY ST|昌邦閣,界限街",KHMT,13261848.365490742,14870.0,902,12991544.203745829,15104.0,902,13854720.0,16348.0,902,3.0,5.0,7.0,"['A', 'B']",13389250.61039806,15703.166666666666,902.0,7,14,1991/08,30,blank,,False,,,POINT Z (22.3268522 114.1811151 0),22.3268522,114.18111509999999
218,1B LIBERTY AVE|1B 自由道,KHMT,,,988,,,988,,,988,0.0,1.0,2.0,['whole floor'],,,988.0,3,3,1955/08,66,blank,,False,,,POINT Z (22.3186438 114.1740588 0),22.3186438,114.1740588
219,"KADOORIE HILL,PRINCE EDWARD RD W|KADOORIE HILL,太子道西",KHMT,16702850.919154389,25248.0,610,27123922.790062707,27515.0,1102,41031243.21688856,31503.0,1456,9.0,16.0,20.0,"['A', 'B', 'C', 'D', 'E']",28275835.963640302,27962.25,1160.1333333333334,16,80,2013/01,8,blank,,False,,,POINT Z (22.324937 114.175459 0),22.324937,114.175459
220,"THE PENTLAND COURT,PENTLAND ST|品蘭臺,品蘭街",KHMT,,,1141,,,1141,,,1178,1.0,2.0,4.0,"['A', 'B']",,,1147.1666666666667,5,10,1961/06,60,blank,,False,,,POINT Z (22.3261485 114.1841354 0),22.3261485,114.1841354
221,"KADOORIE LOOKOUT,ARGYLE ST|加多利峰,亞皆老街",KHMT,11024852.200320119,16404.0,533,11268969.500262335,17444.0,533,19979060.0,25114.0,960,9.0,16.0,22.0,"['A', 'B', 'C']",15135763.219932089,20054.666666666668,804.0,18,54,2014/03,7,blank,,False,,,POINT Z (22.3200972 114.1749058 0),22.3200972,114.17490579999999
222,"DUNBAR PLACE,DUNBAR RD|DUNBAR PLACE,登巴道",KHMT,20268507.0,16737.0,1211,22014769.0,18179.0,1211,38629470.0,21109.0,4248,9.0,16.0,21.0,"['A', 'A-C', 'B', 'C']",27241143.222222224,19077.777777777777,2124.6666666666665,18,72,2013/08,8,blank,,False,,,POINT Z (22.3220695 114.1801687 0),22.3220695,114.1801687
223,"PAXTON,PRINCE EDWARD RD W|雋瓏,太子道西",KHMT,22693151.21584836,20843.0,935,26763064.005776055,24731.0,935,53307696.62914089,32942.0,4412,5.0,10.0,17.0,"['A', 'ABC', 'B', 'C']",38544206.29113963,28331.333333333332,2206.0,15,60,2014/03,7,blank,,False,,,POINT Z (22.326324 114.183337 0),22.326324,114.18333700000001
224,"3 JULIA AVENUE,JULIA AVE|棗梨雅道3號,棗梨雅道",KHMT,12350679.999999998,18856.0,655,,,655,,,1093,22.0,68.0,102.0,"['A', 'B', 'C']",16751555.892492408,21877.333333333332,821.0,96,288,2015/09,6,blank,,False,,,POINT Z (22.31995 114.1751238 0),22.31995,114.1751238
225,"8 LASALLE,LA SALLE RD|傲名,喇沙利道",KHMT,14278300.96903071,24224.0,599,14890756.33014461,27340.0,599,28816804.916385006,31832.0,2545,5.0,10.0,17.0,"['A', 'A-C', 'AB', 'B', 'C', 'D']",26793604.62493481,28888.2,1341.3333333333333,15,90,2014/07,7,blank,,False,,,POINT Z (22.3266361 114.1820819 0),22.3266361,114.18208190000001
226,"EUGENE TERRACE,EARL ST|耀爵臺,伯爵街",KHMT,,,982,,,1986,,,1986,15.0,30.0,57.0,['whole floor'],,,1651.3333333333333,44,44,2010/11,11,blank,,False,,,POINT Z (22.326892 114.180598 0),22.326892,114.180598
227,"ULTIMA(Phase 1),Block 7,FAT KWONG ST|天鑄1期,7座,佛光街",KHMT,28816112.0,27032.0,1066,,,1066,,,5253,23.0,68.0,102.0,"['A', 'B', 'C', 'CD', 'D']",39085577.75,29487.75,2476.0000000000005,95,475,2015/11,6,ULTIMA,天鑄,True,7.0,1567.0,POINT Z (22.3131109 114.1815051 0),22.313110899999998,114.1815051
228,"ULTIMA(Phase 1),Block 6,FAT KWONG ST|天鑄1期,6座,佛光街",KHMT,21908700.0,24343.0,900,24573600.0,27304.0,900,,,4036,14.0,31.0,58.0,"['A', 'B', 'C', 'D']",39411179.0,26944.125,1633.9166666666667,47,188,2015/11,6,ULTIMA,天鑄,True,7.0,1567.0,POINT Z (22.3131109 114.1815051 0),22.313110899999998,114.1815051
229,"ULTIMA(Phase 1),Block 8,FAT KWONG ST|天鑄1期,8座,佛光街",KHMT,21767064.0,23201.0,902,23430352.000000004,25421.0,902,48082183.99999999,30949.0,1576,8.0,17.0,24.0,"['A', 'B', 'C', 'D']",34233627.666666664,26521.416666666668,1283.75,21,84,2015/11,6,ULTIMA,天鑄,True,7.0,1567.0,POINT Z (22.3131109 114.1815051 0),22.313110899999998,114.1815051
230,"ONE HOMANTIN(Block 1),SHEUNG FOO ST|ONE HOMANTIN1座,常富街",KHMT,13181618.000000002,25847.0,503,,,503,,,1470,20.0,66.0,102.0,"['A', 'B', 'C', 'D', 'E', 'EF', 'F', 'G']",20321262.170564987,26423.875,829.0833333333334,98,784,2017/06,4,ONE HOMANTIN,ONE HOMANTIN,True,6.0,1823.0,POINT Z (22.3168383 114.1812535 0),22.3168383,114.1812535
231,"ONE HOMANTIN(Block 2),SHEUNG FOO ST|ONE HOMANTIN2座,常富街",KHMT,6834011.999999999,17129.0,372,7285992.0,18795.0,372,14552663.000000002,23478.0,697,4.0,10.0,16.0,"['A', 'B', 'C', 'D', 'E', 'F']",10023607.722222222,20205.55555555555,496.3333333333333,16,96,2017/06,4,ONE HOMANTIN,ONE HOMANTIN,True,6.0,1823.0,POINT Z (22.3168383 114.1812535 0),22.3168383,114.1812535
232,"ONE HOMANTIN(Block 3),SHEUNG FOO ST|ONE HOMANTIN3座,常富街",KHMT,9229164.0,18166.0,483,,,483,,,752,19.0,63.0,98.0,"['A', 'B', 'C', 'D', 'E', 'F', 'G']",11902683.857142856,22114.571428571428,535.5714285714286,95,665,2017/06,4,ONE HOMANTIN,ONE HOMANTIN,True,6.0,1823.0,POINT Z (22.3168383 114.1812535 0),22.3168383,114.1812535
233,"ULTIMA(Phase 2),Block 2,FAT KWONG ST|天鑄2期,2座,佛光街",KHMT,71586482.0,40768.0,1237,,,1708,,,2173,23.0,68.0,103.0,"['A', 'B', 'C', 'D']",79170393.0,40978.5,1852.4166666666667,96,384,2016/04,5,ULTIMA,天鑄,True,7.0,1567.0,POINT Z (22.3131109 114.1815051 0),22.313110899999998,114.1815051
234,"ULTIMA(Phase 2),Block 1,FAT KWONG ST|天鑄2期,1座,佛光街",KHMT,26121325.768351734,25010.0,994,29470852.07019947,31067.0,994,74832024.0,34838.0,2148,7.0,14.0,20.0,"['A', 'B', 'C', 'CD', 'D']",49204723.266921856,31265.266666666666,1627.5999999999997,18,90,2016/04,5,ULTIMA,天鑄,True,7.0,1567.0,POINT Z (22.3131109 114.1815051 0),22.313110899999998,114.1815051
235,"ULTIMA(Phase 2),Block 3,FAT KWONG ST|天鑄2期,3座,佛光街",KHMT,36054839.0,28999.0,1237,84666670.0,43656.0,1738,,,3446,16.0,36.0,65.0,"['A', 'AB', 'B', 'C', 'D']",90579622.3101704,41875.8,2211.5333333333333,54,270,2016/04,5,ULTIMA,天鑄,True,7.0,1567.0,POINT Z (22.3131109 114.1815051 0),22.313110899999998,114.1815051
236,"MANTIN HEIGHTS(Block 1),SHEUNG SHING ST|皓畋1座,常盛街",KHMT,8215809.0,16901.0,399,8878170.0,18633.0,399,30845204.0,25052.0,1339,6.0,15.0,22.0,"['A', 'AB', 'B', 'C', 'CD', 'D', 'E', 'EF', 'F', 'G', 'H', 'J']",14761010.0,20609.25,717.5,23,276,2017/03,4,MANTIN HEIGHTS,皓畋,True,9.0,2327.0,POINT Z (22.3193908 114.1812438 0),22.3193908,114.1812438
237,"MANTIN HEIGHTS(Block 2),SHEUNG SHING ST|皓畋2座,常盛街",KHMT,11695319.999999998,19656.0,550,,,550,,,1615,20.0,64.0,98.0,"['A', 'B', 'C', 'CD', 'D', 'E', 'F', 'G', 'H']",17418546.500889175,22394.875,875.0,94,846,2017/03,4,MANTIN HEIGHTS,皓畋,True,9.0,2327.0,POINT Z (22.3193908 114.1812438 0),22.3193908,114.1812438
238,"MANTIN HEIGHTS(Block 6),SHEUNG SHING ST|皓畋6座,常盛街",KHMT,9437752.0,20788.0,454,11597195.0,21345.0,535,46233054.0,32496.0,3855,6.0,15.0,22.0,"['A', 'AB', 'B', 'C', 'D', 'E', 'F', 'G', 'H']",21330510.338663124,25195.899999999998,1133.7407407407406,23,207,2017/03,4,MANTIN HEIGHTS,皓畋,True,9.0,2327.0,POINT Z (22.3193908 114.1812438 0),22.3193908,114.1812438
239,"MANTIN HEIGHTS(Block 5),SHEUNG SHING ST|皓畋5座,常盛街",KHMT,9622795.060015257,18647.0,529,11385515.079614807,19737.0,529,26890064.0,28852.0,932,6.0,15.0,22.0,"['A', 'B', 'C', 'D', 'E', 'F', 'G', 'H']",15441101.333556106,22702.79761904762,674.75,23,184,2017/03,4,MANTIN HEIGHTS,皓畋,True,9.0,2327.0,POINT Z (22.3193908 114.1812438 0),22.3193908,114.1812438
240,"ULTIMA(Phase 2),Block 5,FAT KWONG ST|天鑄2期,5座,佛光街",KHMT,27468800.000000004,21649.0,1160,33984384.0,25824.0,1160,56002669.0,32503.0,1723,7.0,15.0,21.0,"['A', 'B', 'C', 'D']",37948915.5,27456.166666666668,1379.75,19,76,2016/04,5,ULTIMA,天鑄,True,7.0,1567.0,POINT Z (22.3131109 114.1815051 0),22.313110899999998,114.1815051
241,"ONE HOMANTIN(Block 5),SHEUNG FOO ST|ONE HOMANTIN5座,常富街",KHMT,9280512.0,18865.0,477,10173735.0,20385.0,477,17028924.0,24251.0,1411,3.0,9.0,16.0,"['A', 'AE', 'B', 'C', 'D', 'E']",13215968.200000001,21114.533333333336,757.1666666666666,17,102,2017/06,4,ONE HOMANTIN,ONE HOMANTIN,True,6.0,1823.0,POINT Z (22.3168383 114.1812535 0),22.3168383,114.1812535
242,"SEVEN VICTORY AVENUE,VICTORY AVE|加多利軒,勝利道",KHMT,3948480.0,20196.0,179,,,179,,,390,21.0,67.0,102.0,"['A', 'B', 'C', 'D', 'E', 'F', 'G', 'H', 'J', 'K']",5627562.2,21706.1,260.7,97,970,2018/11,3,blank,,False,,,POINT Z (22.3194898 114.1744049 0),22.319489800000003,114.17440490000001
243,"MANTIN HEIGHTS(Block 8),SHEUNG SHING ST|皓畋8座,常盛街",KHMT,8780250.0,15270.0,575,9568575.0,16641.0,575,25647063.04093079,23793.0,1205,6.0,15.0,22.0,"['A', 'B', 'C', 'CD', 'D', 'E', 'EF', 'F']",13765653.750490164,18463.988095238095,742.25,21,168,2017/03,4,MANTIN HEIGHTS,皓畋,True,9.0,2327.0,POINT Z (22.3193908 114.1812438 0),22.3193908,114.1812438
244,"ONE HOMANTIN(Block 7),SHEUNG FOO ST|ONE HOMANTIN7座,常富街",KHMT,8172900.0,19761.0,405,8635005.0,20367.0,405,24440766.0,25693.0,966,4.0,10.0,16.0,"['A', 'B', 'C', 'CD', 'D', 'E']",15612575.166666666,22220.77777777778,698.8333333333334,16,96,2017/06,4,ONE HOMANTIN,ONE HOMANTIN,True,6.0,1823.0,POINT Z (22.3168383 114.1812535 0),22.3168383,114.1812535
245,"ONE HOMANTIN(Block 6),SHEUNG FOO ST|ONE HOMANTIN6座,常富街",KHMT,8512235.0,16659.0,485,8899265.0,18349.0,485,16140936.0,23704.0,696,4.0,10.0,16.0,"['A', 'B', 'C', 'D', 'E']",11905616.933333332,19986.466666666667,591.6,16,80,2017/06,4,ONE HOMANTIN,ONE HOMANTIN,True,6.0,1823.0,POINT Z (22.3168383 114.1812535 0),22.3168383,114.1812535
246,"MANTIN HEIGHTS(Block 9),SHEUNG SHING ST|皓畋9座,常盛街",KHMT,10860791.162254324,20897.0,581,11101576.28824645,21106.0,581,34380560.0,29825.0,1171,7.0,16.0,22.0,"['A', 'B', 'C', 'CD', 'D', 'E', 'EF', 'F']",21546986.761012185,25503.541666666668,847.5833333333334,22,176,2017/03,4,MANTIN HEIGHTS,皓畋,True,9.0,2327.0,POINT Z (22.3193908 114.1812438 0),22.3193908,114.1812438
247,"MANTIN HEIGHTS(Block 10),SHEUNG SHING ST|皓畋10座,常盛街",KHMT,11250376.0,19510.0,539,12336392.0,21719.0,539,37082500.0,29694.0,1300,7.0,16.0,22.0,"['A', 'B', 'C', 'D', 'E', 'F']",19119417.373300012,24848.61111111111,754.0,22,132,2017/03,4,MANTIN HEIGHTS,皓畋,True,9.0,2327.0,POINT Z (22.3193908 114.1812438 0),22.3193908,114.1812438
248,"NAIRN COURT,PRINCESS MARGARET RD|楠苑,公主道",KHMT,,,1561,,,1356,,,1356,5.0,6.0,6.0,['whole floor'],,,1424.3333333333333,2,2,1960/03,61,blank,,False,,,POINT Z (22.3207879 114.1783172 0),22.3207879,114.1783172
249,"MANTIN HEIGHTS(Block 7),SHEUNG SHING ST|皓畋7座,常盛街",KHMT,8676744.806601536,20359.0,453,11416892.081889568,21323.0,528,49358385.99999999,33418.0,1477,7.0,16.0,22.0,"['A', 'B', 'C', 'D', 'E', 'F', 'G']",21658281.71912904,25586.38095238095,817.0952380952381,22,154,2017/03,4,MANTIN HEIGHTS,皓畋,True,9.0,2327.0,POINT Z (22.3193908 114.1812438 0),22.3193908,114.1812438
250,"KADOORIA,KADOORIE AVE|KADOORIA,嘉道理道",KHMT,44798586.0,30240.0,1267,47547348.0,32857.0,1267,87390877.0,42797.0,2219,1.0,3.0,6.0,"['111', '113', '115', '117', '119', '121', '123', '125', '127', '129', '131', '133', 'whole floor']",64608581.15384615,36551.58974358974,1772.3589743589744,7,91,2016/06,5,blank,,False,,,POINT Z (22.3245815 114.1749941 0),22.3245815,114.17499409999999
251,"MANTIN HEIGHTS(Block 3),SHEUNG SHING ST|皓畋3座,常盛街",KHMT,10113951.0,19119.0,529,11230670.0,21230.0,529,26576992.0,28651.0,928,6.0,15.0,22.0,"['A', 'B', 'C', 'D', 'E', 'F', 'G', 'H']",16965861.041666668,23211.375,720.875,23,184,2017/03,4,MANTIN HEIGHTS,皓畋,True,9.0,2327.0,POINT Z (22.3193908 114.1812438 0),22.3193908,114.1812438
252,"CRISTALLO,PRINCE EDWARD RD W|明寓,太子道西",KHMT,36560248.0,28037.0,1304,37666040.0,28885.0,1304,41215220.0,31462.0,2718,4.0,8.0,11.0,"['A', 'B']",39340236.333333336,30074.166666666668,1542.6666666666667,11,22,2016/10,5,blank,,False,,,POINT Z (22.3257034 114.1799919 0),22.3257034,114.1799919
253,"MOUNT TRIO COURT,HOK YU LANE|鼎峰花園,學餘里",KHMT,12908750.0,11055.0,1150,13203149.999999998,11323.0,1150,13798140.000000002,11738.0,1185,6.0,9.0,12.0,"['B1', 'C1', 'C2']",13369652.777777776,11395.444444444445,1173.3333333333333,9,27,1965/02,56,MOUNT TRIO COURT,鼎峰花園,True,2.0,78.0,POINT Z (22.3204044 114.1777711 0),22.3204044,114.17777109999999
254,6B DUKE ST|6B 公爵街,KHMT,,,1032,,,1032,,,1032,0.0,0.0,0.0,['whole floor'],,,1032.0,1,1,1958/08,63,blank,,False,,,POINT Z (38.81310080000001 -77.11115959999999 0),38.81310080000001,-77.1111596
255,17 VALLEY RD|17 山谷道,KHMT,6977052.000000001,10701.0,652,7088544.0,10872.0,652,7088544.0,10872.0,652,5.0,6.0,6.0,['whole floor'],7051380.0,10815.0,652.0,4,4,1964/01,57,blank,,False,,,POINT Z (22.3095873 114.1838606 0),22.3095873,114.18386059999999
256,21 VALLEY RD|21 山谷道,KHMT,,,712,,,712,,,712,3.0,3.0,3.0,['whole floor'],,,712.0,1,1,9999,-7978,blank,,False,,,POINT Z (22.3095873 114.1838606 0),22.3095873,114.18386059999999
257,"TIMBER HSE,WATERLOO RD|瑧樺,窩打老道",KHMT,3808884.0,16035.0,204,3948464.0,16449.0,204,9289686.0,19920.0,526,8.0,18.0,26.0,"['A1', 'A2', 'A3', 'A5', 'A6', 'B1', 'B2', 'B3', 'B5', 'B6']",5561615.466666667,18117.233333333334,308.7,24,240,2021/02,0,blank,,False,,,POINT Z (22.3178824 114.1750356 0),22.3178824,114.17503559999999
258,1C LIBERTY AVE|1C 自由道,KHMT,,,1109,,,1109,,,1109,3.0,3.0,3.0,['whole floor'],,,1109.0,1,1,1955/08,66,blank,,False,,,POINT Z (22.3186438 114.1740588 0),22.3186438,114.1740588
259,"LASALLE RESIDENCE,LA SALLE RD|晟林,喇沙利道",KHMT,5622100.0,20047.0,260,6183837.0,20573.0,297,9814237.0,24605.0,419,3.0,6.0,8.0,"['A', 'B', 'C', 'D', 'E', 'F']",8131918.1555555565,21632.066666666666,368.8888888888889,7,42,2018/06,3,blank,,False,,,POINT Z (22.3266361 114.1820819 0),22.3266361,114.18208190000001
260,"GRAND HOMM(Block 2),SHEUNG SHING ST|傲玟2座,常盛街",KHMT,31839682.0,22694.0,1403,33822121.0,23868.0,1403,35271600.0,24752.0,1425,7.0,10.0,13.0,"['A', 'B']",33454247.333333332,23658.333333333332,1414.0,10,20,2020/11,1,GRAND HOMM,傲玟,True,2.0,50.0,POINT Z (22.3170931 114.1798338 0),22.3170931,114.1798338
261,"KWUN TAK COURT(Block B),SHEUNG LOK ST|冠德苑B座,常樂街",KHMT,2982835.0,6473.0,445,3198660.0,7092.0,445,4428558.0,7866.0,563,5.0,14.0,22.0,"['1', '2', '3', '4', '5', '6', '7', '8', '9']",3643271.7407407407,7226.185185185185,503.4444444444445,26,234,2019/09,2,KWUN TAK COURT,冠德苑,True,3.0,538.0,POINT Z (22.3143178 114.1840736 0),22.3143178,114.1840736
262,"KWUN TAK COURT(Block A),SHEUNG LOK ST|冠德苑A座,常樂街",KHMT,3218313.9999999995,6667.0,482,3417380.0000000005,7026.0,482,4581131.0,8166.0,568,5.0,13.0,21.0,"['1', '2', '3', '4', '6', '7']",3955690.4444444445,7369.88888888889,537.0,25,150,2019/09,2,KWUN TAK COURT,冠德苑,True,3.0,538.0,POINT Z (22.3143178 114.1840736 0),22.3143178,114.1840736
263,"KWUN TAK COURT(Block C),SHEUNG LOK ST|冠德苑C座,常樂街",KHMT,3199716.0,6688.0,468,3339648.0,7050.0,468,4351448.0,7661.0,568,9.0,16.0,23.0,"['1', '2', '3', '4', '5', '6', '7']",3824969.523809524,7249.5714285714275,527.1428571428571,22,154,2019/09,2,KWUN TAK COURT,冠德苑,True,3.0,538.0,POINT Z (22.3143178 114.1840736 0),22.3143178,114.1840736
264,"GRAND HOMM(Block 3),SHEUNG SHING ST|傲玟3座,常盛街",KHMT,23072169.0,24357.0,934,24119153.999999996,25106.0,934,31514164.0,27299.0,1228,10.0,14.0,17.0,"['A', 'C', 'D']",26524410.333333332,25725.666666666668,1033.6666666666667,10,30,2020/11,1,GRAND HOMM,傲玟,True,2.0,50.0,POINT Z (22.3172996 114.1799387 0),22.317299600000002,114.17993870000001
265,"128 WATERLOO,WATERLOO RD|128 WATERLOO,窩打老道",KHMT,8398836.0,24558.0,331,8534952.0,24956.0,331,16983228.0,29332.0,579,4.0,6.0,6.0,"['A', 'B', 'C', 'E', 'G']",12334759.466666667,26601.333333333332,461.6000000000001,4,20,2022/02,-1,blank,,False,,,POINT Z (22.3266882 114.1788394 0),22.3266882,114.17883940000002
