,final_address,district,lowZone_value,lowZone_npsf_min,lowZone_nfa_min,midZone_value,midZone_npsf_min,midZone_nfa_min,highZone_value,highZone_npsf_max,highZone_nfa_max,oneSixth_floor,middle_floor,fifthSixth_floor,unit_list,value_avg,npsf_avg,unitSize_avg,noStorey,noFlat,op_date,bldgAge,est_name_en,est_name_ch,est_orNot,est_bldgNo,est_flatNo,final_coords,lat,long
0,"KIU WANG MANSION,HOK YU LANE|僑宏大廈,學餘里",KHMT,9766103.345687168,12203.0,860.0,9215845.530465553,11841.0,860.0,12554930.897367721,13859.0,1001.0,4,9,14,"['A', 'B', 'C', 'D', 'E', 'F']",11548401.721510557,13178.67777777778,953.9444444444445,17,102,1965/10,58,blank,,False,,,POINT Z (22.3201079 114.1780614 0),22.3201079,114.1780614
1,"THE CRESCENT(Block C),HO MAN TIN HILL RD|仁禮花園C座,何文田山道",KHMT,36965020.810579345,14281.0,1840.0,38721823.0758757,14453.0,1840.0,53194488.72412445,23962.0,2104.0,4,10,16,"['A', 'B', 'C']",46015359.436870456,18064.38888888889,2000.3333333333333,19,57,1987/07,36,THE CRESCENT,仁禮花園,True,1.0,57.0,POINT Z (22.316112 114.1762385 0),22.316112,114.1762385
2,"PRINCE EDWARD TOWERS,PRINCE EDWARD RD W|愛華苑,太子道西",KHMT,11130991.964307783,14816.0,795.0,11397197.57653672,15195.0,795.0,14730677.376339972,15880.0,1025.0,3,6,10,"['A', 'B', 'C']",13604787.821528668,15446.944444444445,948.3333333333334,12,36,1973/04,50,blank,,False,,,POINT Z (22.3258543 114.1774925 0),22.3258543,114.1774925
3,"BELAIRE HEIGHTS,WATERLOO RD|碧儷閣,窩打老道",KHMT,11919878.47127752,6488.0,1185.0,12431594.149804465,6762.0,1185.0,13962322.254844045,8744.0,1185.0,2,7,12,"['A', 'B', 'PORTION A', 'REMARK']",13087510.122589199,7313.444444444445,1185.0,15,60,1974/01,49,blank,,False,,,POINT Z (22.3243197 114.1786536 0),22.3243197,114.17865359999999
4,"CAMBRIDGE COURT,WATERLOO RD|冠華園,窩打老道",KHMT,10141715.0,9613.0,1055.0,10650225.0,10095.0,1055.0,12250391.999999998,11364.0,1115.0,9,16,22,"['1', '2', '3', 'A1', 'A2', 'A3', 'B1', 'B2', 'B3']",11208489.666666666,10466.296296296296,1070.6296296296298,20,180,1965/07,58,blank,,False,,,POINT Z (22.3194868 114.1765404 0),22.3194868,114.17654040000001
5,"ARRAN COURT,SHEK KU ST|毅廬,石鼓街",KHMT,9945285.0,13531.0,735.0,10404660.0,14156.0,735.0,13063155.0,17773.0,1470.0,4,10,17,"['A', 'A & B', 'A-B', 'B', 'C', 'D']",11285128.75,15353.916666666666,980.0,20,120,1979/08,44,blank,,False,,,POINT Z (22.3205504 114.1798442 0),22.3205504,114.1798442
6,"PERTH APTS(Block B1),PERTH ST|巴富洋樓B1座,巴富街",KHMT,17240720.0,14488.0,1190.0,17721480.0,14892.0,1190.0,18349800.0,15420.0,1190.0,3,6,10,"['A', 'B', 'C', 'D']",17786335.0,14946.5,1190.0,12,48,1974/12,49,PERTH APTS,巴富洋樓,True,3.0,144.0,POINT Z (22.3219259 114.1811151 0),22.3219259,114.18111509999999
7,"YEE FU BLDG,VALLEY RD|怡富大廈,山谷道",KHMT,3388429.0,13393.0,250.0,3633333.0,14361.0,250.0,4012749.9999999995,16051.0,253.0,5,13,21,"['A', 'B', 'C', 'D']",3749882.8333333335,14910.833333333334,251.5,25,100,1985/05,38,blank,,False,,,POINT Z (22.3097793 114.1834039 0),22.3097793,114.18340390000002
8,"K.C.C. BLDG,LIBERTY AVE|九龍總商會大廈,自由道",KHMT,6932545.2871562755,14591.0,515.0,7469436.259295716,15721.0,515.0,7840508.692252269,16502.0,663.0,9,16,23,"['A', 'B', 'C', 'F']",7246204.549826226,15296.666666666666,557.0,23,92,1984/08,39,blank,,False,,,POINT Z (22.318505 114.1743343 0),22.318505,114.17433429999998
9,"FORUM COURT,PEACE AVE|富臨閣,太平道",KHMT,5640360.0,12819.0,430.0,5935160.0,13489.0,430.0,6408878.0,14767.0,870.0,5,12,19,"['A', 'B', 'C', 'CD', 'D']",6004016.666666667,13835.416666666666,521.1999999999999,23,115,1979/01,44,blank,,False,,,POINT Z (22.3194868 114.1736376 0),22.3194868,114.17363759999999
10,"PEACE BLDG(Block B),PEACE AVE|金富大廈B座,太平道",KHMT,5821252.0,13273.0,433.0,6137342.0,14003.0,433.0,6768125.0,15176.0,455.0,8,15,22,"['1', '2', '3', '4', 'B1', 'B2', 'B3', 'B4']",6317208.166666667,14214.916666666666,444.5,23,184,1980/01,43,PEACE BLDG,金富大廈,True,2.0,373.0,POINT Z (22.3193087 114.1735982 0),22.3193087,114.1735982
11,"GRAND COURT(Block 3),HO MAN TIN HILL RD|加林閣3座,何文田山道",KHMT,14007812.09465809,10599.0,1062.0,14340859.42439239,10851.0,1062.0,15398013.155153947,11510.0,1075.0,3,6,10,"['A', 'B']",14765323.946944704,11102.833333333334,1068.5,12,24,1981/10,42,GRAND COURT,加林閣,True,2.0,48.0,POINT Z (22.3164594 114.1773532 0),22.3164594,114.17735320000001
12,"MANSFIELD COURT,PRINCE EDWARD RD W|文蔚閣,太子道西",KHMT,,,792.0,11624407.663947256,16218.0,792.0,11979203.680327443,16713.0,796.0,3,6,10,"['A', 'B', 'C']",11801805.67213735,16465.5,793.3333333333334,12,36,1994/12,29,blank,,False,,,POINT Z (22.32637 114.1837345 0),22.32637,114.1837345
13,"PARC REGAL(Block 1),HO MAN TIN HILL RD|賀龍居1座,何文田山道",KHMT,11211395.0,13165.0,685.0,11834060.0,13890.0,685.0,29153018.203933477,19332.0,1603.0,3,10,16,"['A', 'A & B', 'A-B', 'AB', 'B', 'C', 'C & D', 'C-D', 'CD', 'D']",19508226.913181294,16089.285714285716,1189.2,18,180,1995/05,28,PARC REGAL,賀龍居,True,3.0,450.0,POINT Z (22.3147895 114.1763314 0),22.3147895,114.1763314
14,"SUNLIGHT GARDEN,MAN WAN RD|明德園,文運道",KHMT,13341475.945302118,11545.0,1205.0,12973969.210500188,11897.0,1205.0,19782357.611912157,13726.0,1610.0,4,10,17,"['A', 'B', 'C']",15684962.076351903,12672.888888888889,1367.0,20,60,1964/00,59,blank,,False,,,POINT Z (22.3189451 114.1767958 0),22.3189451,114.1767958
15,"PERTH APTS(Block B2),PERTH ST|巴富洋樓B2座,巴富街",KHMT,17558583.712795835,16304.0,1190.0,18018441.12480294,16731.0,1190.0,18167060.147887204,16869.0,1190.0,3,6,10,"['A', 'B', 'C', 'D']",17914694.99516199,16634.666666666668,1190.0,12,48,1974/05,49,PERTH APTS,巴富洋樓,True,3.0,144.0,POINT Z (22.3219259 114.1811151 0),22.3219259,114.18111509999999
16,"MANDARIN COURT(Block 5),ARGYLE ST|翠華大廈5座,亞皆老街",KHMT,15010937.631295122,13112.0,1265.0,15260960.000000002,12064.0,1265.0,19733646.012122177,13933.0,1565.0,3,6,10,"['126A', '128A', 'whole floor']",17197647.571604554,13382.333333333334,1404.4444444444443,12,36,1963/00,60,MANDARIN COURT,翠華大廈,True,3.0,156.0,POINT Z (22.3213551 114.1786536 0),22.3213551,114.17865359999999
17,"MANNER COURT,HO MAN TIN ST|文雅閣,何文田街",KHMT,3785794.040714221,15927.0,249.0,4229723.460964638,16276.0,249.0,7710980.0,19383.0,460.0,3,6,10,"['A', 'B', 'C']",5839699.930683655,17418.0,347.6666666666667,12,36,1989/05,34,blank,,False,,,POINT Z (22.3165656 114.1752283 0),22.3165656,114.1752283
18,"TUNG LUNG COURT,JULIA AVE|騰龍閣,棗梨雅道",KHMT,6367710.0,13694.0,465.0,6678795.0,14363.0,465.0,6889440.000000001,14816.0,465.0,4,10,14,['whole floor'],6645315.0,14291.0,465.0,16,16,1981/11,42,blank,,False,,,POINT Z (22.319946 114.175122 0),22.319945999999998,114.175122
19,"YEE KING BLDG,WATERLOO RD|怡景大廈,窩打老道",KHMT,4866288.0,11600.0,392.0,5178000.0,12564.0,392.0,6922630.000000001,14729.0,470.0,5,13,21,"['A', 'B', 'C', 'D', 'E', 'F']",5818881.666666667,13188.5,441.5555555555556,24,144,1977/03,46,blank,,False,,,POINT Z (22.3183083 114.1747523 0),22.3183083,114.17475230000001
20,"GALLANT COURT,PRINCE EDWARD RD W|麒麟閣,太子道西",KHMT,10174895.815340072,7161.0,848.0,10420707.43048514,7334.0,848.0,23642174.0481139,13216.0,1780.0,3,6,10,"['A', 'B', 'C', 'D', 'E', 'F', 'G', 'H']",16838752.583910085,10114.291666666666,1332.5,12,96,1964/12,59,blank,,False,,,POINT Z (22.3258844 114.1767494 0),22.3258844,114.17674939999999
21,"WELLIVE COURT,VICTORY AVE|慧宜閣,勝利道",KHMT,6901592.0,13096.0,527.0,7281032.0,13816.0,527.0,7659945.0,14535.0,527.0,6,13,20,['whole floor'],7280856.333333333,13815.666666666666,527.0,20,20,1995/01,28,blank,,False,,,POINT Z (22.318953 114.17488 0),22.318953,114.17488
22,"HARRISON COURT(Phase 3),MAN WAN RD|恒信園3期,文運道",KHMT,9767350.0,11491.0,850.0,10280750.0,12095.0,850.0,11205550.0,13183.0,850.0,4,10,17,"['A', 'B', 'C', 'D']",10464916.666666666,12311.666666666666,850.0,20,80,1971/09,52,HARRISON COURT,恒信園,True,5.0,330.0,POINT Z (22.318833 114.177849 0),22.318832999999998,114.177849
23,"SUNLAND COURT,LIBERTY AVE|新麟閣,自由道",KHMT,7692075.371137044,11167.0,720.0,8115700.9064866705,11782.0,720.0,9189057.801541233,12474.0,770.0,5,12,19,"['A', 'B']",8479864.519733548,11892.666666666666,745.0,22,44,1977/05,46,blank,,False,,,POINT Z (22.3187226 114.1746129 0),22.3187226,114.1746129
24,"KINGSLAND VILLA(Block A),MAN FUK RD|瓊林別墅A座,文福道",KHMT,7453725.0,10005.0,745.0,7716710.0,10358.0,745.0,9676060.0,12988.0,745.0,4,9,14,"['1', '2', '3', '4']",8525717.916666666,11443.916666666666,745.0,17,68,1966/05,57,KINGSLAND VILLA,瓊林別墅,True,2.0,136.0,POINT Z (22.3196152 114.1780717 0),22.3196152,114.17807169999999
25,"SUNSHINE BLDG,VICTORY AVE|新勝大樓,勝利道",KHMT,6341280.0,13052.0,439.0,6652320.0,13628.0,439.0,7407687.0,14942.0,519.0,6,12,18,"['A', 'B', 'C', 'D']",6727805.416666667,13837.0,477.8333333333333,19,76,1975/12,48,blank,,False,,,POINT Z (22.319949 114.1744528 0),22.319948999999998,114.1744528
26,"PARC REGAL(Block 3),HO MAN TIN HILL RD|賀龍居3座,何文田山道",KHMT,10628460.0,12699.0,685.0,11118920.0,16232.0,685.0,15059462.0,18754.0,1603.0,3,10,16,"['A', 'AB', 'B', 'C', 'C & D', 'C-D', 'CD', 'D']",14188543.030667407,16705.92857142857,1085.75,18,144,1995/05,28,PARC REGAL,賀龍居,True,3.0,450.0,POINT Z (22.3152907 114.1764707 0),22.315290700000002,114.1764707
27,"PRINCE PARK,PRINCE EDWARD RD W|皇子花園,太子道西",KHMT,,,482.0,,,482.0,,,515.0,4,8,12,"['A', 'B', 'C']",,,504.0,13,39,1993/08,30,blank,,False,,,POINT Z (22.3255227 114.1754489 0),22.325522699999997,114.1754489
28,"KINGSLAND VILLA(Block B),MAN FUK RD|瓊林別墅B座,文福道",KHMT,8792490.0,11802.0,745.0,9153070.0,12286.0,745.0,10292920.0,13816.0,745.0,4,9,14,"['1', '2', '3', '4']",9465970.0,12706.0,745.0,17,68,1967/00,56,KINGSLAND VILLA,瓊林別墅,True,2.0,136.0,POINT Z (22.3196152 114.1780717 0),22.3196152,114.17807169999999
29,"PEACE GARDEN,PEACE AVE|太平花園,太平道",KHMT,4511255.0,13300.0,305.0,4796430.0,14056.0,305.0,6150679.999999999,17149.0,380.0,7,15,23,"['A', 'B', 'C', 'D']",5235826.25,15361.5,342.5,25,100,1994/05,29,blank,,False,,,POINT Z (22.31788 114.1744272 0),22.31788,114.17442720000001
30,"PRINCE GARDEN,PRINCE EDWARD RD W|太子花園,太子道西",KHMT,14071200.259207433,7998.0,1050.0,14338231.125135228,10973.0,1050.0,14602520.8991525,8300.0,1050.0,3,6,8,"['A', 'B']",14337317.427831722,9090.333333333334,1050.0,10,20,1978/09,45,blank,,False,,,POINT Z (22.32652 114.180506 0),22.326520000000002,114.18050600000001
31,"TAK WAI MANSION(Block 2),MAN FUK RD|德威大廈2座,文福道",KHMT,8697210.0,12130.0,717.0,8278924.0,12606.0,628.0,10716999.0,14947.0,717.0,4,9,14,"['E', 'F', 'G', 'H']",9492340.083333334,13375.333333333334,709.5833333333334,17,68,1967/07,56,TAK WAI MANSION,德威大廈,True,2.0,132.0,POINT Z (22.3192642 114.1781475 0),22.3192642,114.17814750000001
32,"LA BELLE MANSION,ARGYLE ST|利寶大廈,亞皆老街",KHMT,7940409.78054983,9738.0,901.0,8260048.37512526,10130.0,901.0,12097097.06431334,11825.0,1171.0,2,7,12,"['A', 'B', 'C', 'D', 'E', 'F', 'G', 'H']",9954866.375703784,10669.5,1028.9166666666667,15,120,1964/07,59,blank,,False,,,POINT Z (22.3201565 114.1756115 0),22.3201565,114.1756115
33,"WATERLOO HEIGHTS GARDEN,MAN WAN RD|德信園,文運道",KHMT,8171334.891037706,15060.0,532.0,7752946.367568948,14879.0,532.0,9579876.162066493,18064.0,620.0,5,11,18,"['A', 'B', 'C', 'D']",8573615.026176473,16180.833333333334,586.3333333333334,19,76,1965/12,58,blank,,False,,,POINT Z (22.3192496 114.1773532 0),22.319249600000003,114.17735320000001
34,"FU TAO BLDG,ARGYLE ST|富都大廈,亞皆老街",KHMT,5776620.0,13150.0,430.0,6008390.0,13670.0,430.0,6707949.999999999,14459.0,475.0,9,14,18,"['A', 'B', 'C', 'D', 'E', 'F']",6190186.666666667,13812.444444444443,448.3333333333333,16,96,1979/06,44,blank,,False,,,POINT Z (22.3199228 114.1736376 0),22.3199228,114.17363759999999
35,"PINE MANOR,WATERLOO RD|松亭閣,窩打老道",KHMT,7275960.000000001,13474.0,540.0,7477380.0,13847.0,540.0,11586960.0,16093.0,720.0,6,12,19,"['A', 'B', 'C']",8818226.666666666,14561.333333333334,602.2222222222222,20,60,1979/11,44,blank,,False,,,POINT Z (22.3175312 114.1744272 0),22.3175312,114.17442720000001
36,"GREENFIELD TERR(Block A),HO MAN TIN HILL RD|嘉輝臺A座,何文田山道",KHMT,8716448.688921537,15288.0,630.0,9150902.764075791,16050.0,630.0,10813513.603614355,17398.0,730.0,5,12,20,"['1', '2', '3', '4', '5', '6', 'A4']",9823762.158703784,16359.761904761903,662.9047619047619,24,168,1978/11,45,GREENFIELD TERR,嘉輝臺,True,2.0,201.0,POINT Z (22.313525 114.1766212 0),22.313525,114.1766212
37,"HEALTH MANSION,PRINCE EDWARD RD W|康寧大廈,太子道西",KHMT,10108583.223441403,10983.0,1017.0,9678988.090772472,11060.0,967.0,10427036.268630398,11329.0,1017.0,4,6,8,['whole floor'],10071535.860948091,11124.0,1000.3333333333334,7,7,1959/04,64,blank,,False,,,POINT Z (22.3252443 114.1772138 0),22.3252443,114.1772138
38,"DELTEC COURT,WATERLOO RD|愷悌閣,窩打老道",KHMT,4146092.0,14914.0,278.0,4255346.0,15307.0,278.0,4330128.0,19547.0,278.0,7,13,19,"['A', 'B']",4077988.4635470677,15964.833333333334,262.5,19,38,1988/01,35,blank,,False,,,POINT Z (22.3193471 114.1756637 0),22.3193471,114.17566370000002
39,"KOWLOON TONG MANSION,BOUNDARY ST|九龍塘大廈,界限街",KHMT,15757763.564378262,6461.0,1090.0,16199205.32341749,6592.0,1090.0,17856743.164558306,6821.0,1170.0,4,6,9,"['110A', '112', 'whole floor']",16880032.66878688,6648.777777777778,1134.4444444444443,10,30,1964/03,59,blank,,False,,,POINT Z (22.3266984 114.1765636 0),22.326698399999998,114.1765636
40,"PEACE GARDEN,PRINCE EDWARD RD W|太和大廈,太子道西",KHMT,10838404.875110261,6878.0,380.0,11103847.372051597,7043.0,380.0,12785868.441153001,7747.0,985.0,3,6,10,"['249', '249A', '251', 'A', 'whole floor']",11714253.410898104,7385.333333333333,833.9333333333334,12,60,1962/01,61,blank,,False,,,POINT Z (22.325317 114.177703 0),22.325317000000002,114.17770300000001
41,"LUCKY COURT,WATERLOO RD|幸運閣,窩打老道",KHMT,13559194.322703179,11151.0,1271.0,13876560.452935942,11412.0,1271.0,14802417.595194513,11793.0,1312.0,3,6,10,"['A', 'B', 'C', 'D']",14152871.515853954,11454.25,1291.5,12,48,1974/06,49,blank,,False,,,POINT Z (22.3253378 114.1780034 0),22.3253378,114.1780034
42,"EDWARD COURT,MAN WAN RD|德星樓,文運道",KHMT,7924972.298539287,13268.0,660.0,8321579.2932807775,13932.0,660.0,12163094.15515745,15101.0,890.0,4,10,17,"['A', 'B', 'C']",10412050.783608152,14129.666666666666,813.3333333333334,20,60,1965/12,58,blank,,False,,,POINT Z (22.318995 114.1775854 0),22.318995,114.1775854
43,"WING ON COURT,HO MAN TIN HILL RD|永安臺,何文田山道",KHMT,,,1590.0,,,1590.0,29230628.74208903,19078.0,1693.0,6,10,16,"['A', 'B', 'C', 'D']",29230628.74208903,19078.0,1673.4166666666667,16,64,1977/07,46,blank,,False,,,POINT Z (22.314244 114.1767795 0),22.314244,114.1767795
44,"MANDARIN COURT(Block 1),ARGYLE ST|翠華大廈1座,亞皆老街",KHMT,8774180.0,10303.0,835.0,9053905.0,10642.0,835.0,9894720.0,11244.0,880.0,2,6,9,"['1', '2', '3', '4', '5']",9387289.0,10826.8,867.0,12,60,1958/12,65,MANDARIN COURT,翠華大廈,True,3.0,156.0,POINT Z (22.3216086 114.1792574 0),22.3216086,114.1792574
45,"LATIN COURT,PRINCE EDWARD RD W|蘭亭閣,太子道西",KHMT,11701131.047732899,9993.0,934.0,11973115.22029369,10225.0,934.0,12680672.793895876,10726.0,950.0,3,6,10,"['A', 'B', 'C']",12153009.362063752,10337.666666666666,944.6666666666666,12,36,1972/11,51,blank,,False,,,POINT Z (22.3250564 114.1764707 0),22.325056399999998,114.1764707
46,"EDWARDIAN HEIGHTS,PRINCE EDWARD RD W|愛華閣,太子道西",KHMT,,,726.0,,,660.0,,,794.0,3,6,10,"['A', 'B', 'C']",,,751.4444444444443,12,36,1972/07,51,blank,,False,,,POINT Z (22.3262902 114.1830193 0),22.3262902,114.1830193
47,"YEN YEE MANSION,SOARES AVE|仁儀苑,梭椏道",KHMT,4999280.0,13427.0,368.0,5236272.0,13692.0,368.0,5506270.0,14674.0,385.0,7,13,19,"['A', 'B', 'C']",5264843.111111111,14004.888888888889,376.0,19,57,1978/10,45,blank,,False,,,POINT Z (22.3198851 114.1747058 0),22.319885100000004,114.1747058
48,"MANDARIN COURT(Block 4),ARGYLE ST|翠華大廈4座,亞皆老街",KHMT,10158775.0,10865.0,935.0,10409355.0,11133.0,935.0,22155338.7838083,13233.0,1850.0,3,6,10,"['A', 'A & B', 'B', 'C', 'D']",14233848.18662394,11661.066666666666,1242.6666666666667,12,60,1961/12,62,MANDARIN COURT,翠華大廈,True,3.0,156.0,POINT Z (22.3214855 114.1789322 0),22.3214855,114.17893219999999
49,"PEACE BLDG(Block A),PEACE AVE|金富大廈A座,太平道",KHMT,5858057.0,13529.0,433.0,6381554.0,14242.0,433.0,7289100.0,16201.0,455.0,4,13,22,"['1', '2', '3', '4', 'A2', 'A3', 'A4']",6597363.619047619,14761.047619047618,447.0952380952381,27,189,1980/01,43,PEACE BLDG,金富大廈,True,2.0,373.0,POINT Z (22.318375 114.174056 0),22.318375,114.17405600000001
50,"MIAMI MANSION,WATERLOO RD|美佳大廈,窩打老道",KHMT,14894268.711675521,15734.0,1020.0,15474552.601357553,16347.0,992.0,16000878.608964747,16903.0,1046.0,3,6,10,"['1', '2', '3', '4']",15456566.640665941,16328.0,1028.3333333333333,12,48,1975/03,48,blank,,False,,,POINT Z (22.326631 114.1780963 0),22.326631,114.17809629999999
51,"IMPERIAL GARDEN,DUKE ST|嘉爵園,公爵街",KHMT,16166189.443410393,17899.0,998.0,16816485.906858377,18619.0,998.0,17467685.55983893,19340.0,998.0,3,8,13,"['A', 'B', 'C', 'D']",16816786.9700359,18619.333333333332,998.0,15,60,1988/08,35,blank,,False,,,POINT Z (22.326311 114.1755651 0),22.326310999999997,114.17556509999999
52,"ORIENTAL GARDEN(Block C),PRINCE EDWARD RD W|東方花園C座,太子道西",KHMT,12392660.861348351,15131.0,905.0,12660481.897741249,15458.0,905.0,13004472.219713775,15878.0,1065.0,3,6,10,"['C1', 'C2', 'C3', 'C4', 'D1', 'D4']",12685871.659601124,15489.0,985.0,12,72,1967/01,56,ORIENTAL GARDEN,東方花園,True,2.0,116.0,POINT Z (22.3257145 114.1760295 0),22.3257145,114.1760295
53,"MAN KEE MANSION,WATERLOO RD|萬基大廈,窩打老道",KHMT,7432816.000000001,9628.0,772.0,7875324.0,10188.0,773.0,9827226.0,11727.0,838.0,9,16,22,"['A', 'B', 'C', 'D', 'E', 'F', 'G', 'H']",8734539.916666666,11006.708333333334,793.2083333333334,20,160,1966/05,57,blank,,False,,,POINT Z (22.3199514 114.1769119 0),22.3199514,114.1769119
54,"HELENA GARDEN,PRINCE EDWARD RD W|海倫苑,太子道西",KHMT,14869769.000000002,12710.0,1151.0,15424551.0,13291.0,1151.0,17625263.0,15313.0,1182.0,2,8,13,"['A', 'B', 'C', 'D']",15929365.833333334,13660.75,1166.5,15,60,1991/08,32,blank,,False,,,POINT Z (22.3255257 114.1787465 0),22.3255257,114.1787465
55,"KARIN COURT,PRINCE EDWARD RD W|嘉倫閣,太子道西",KHMT,7432676.4830279695,16530.0,470.0,7941719.809404944,13578.0,470.0,,,770.0,4,7,10,"['A', 'B']",7687198.146216457,15054.0,626.6666666666666,11,22,1975/08,48,blank,,False,,,POINT Z (22.3250641 114.1761456 0),22.3250641,114.1761456
56,"TAK WAI MANSION(Block 1),MAN FUK RD|德威大廈1座,文福道",KHMT,8814798.0,12294.0,717.0,9251451.0,12903.0,717.0,9786333.0,13649.0,717.0,4,9,14,"['A', 'B', 'C', 'D']",9318630.75,12962.083333333334,718.9166666666666,17,68,1965/07,58,TAK WAI MANSION,德威大廈,True,2.0,132.0,POINT Z (22.3192642 114.1781475 0),22.3192642,114.17814750000001
57,"VALIANT COURT,PEACE AVE|華欣閣,太平道",KHMT,4311175.0,14087.0,300.0,4559140.0,14810.0,300.0,5933440.0,16994.0,365.0,5,12,19,"['A', 'B', 'C', 'D', 'E', 'F']",5008467.777777779,15516.11111111111,323.3333333333333,23,138,1979/12,44,blank,,False,,,POINT Z (22.3183745 114.1740556 0),22.3183745,114.17405559999999
58,"GLEN HAVEN,ARGYLE ST|嘉麗園,亞皆老街",KHMT,9113115.175082214,13155.0,720.0,9533296.600388348,13783.0,720.0,20172222.360143006,15479.0,1440.0,4,10,16,"['A', 'B', 'C', 'D', 'E']",14676324.790355748,13973.066666666666,1072.4,18,90,1973/02,50,blank,,False,,,POINT Z (22.3204679 114.1734983 0),22.320467899999997,114.1734983
59,"SHING TAK MANSION,PEACE AVE|成德大廈,太平道",KHMT,5992190.138824184,12353.0,536.0,6129467.707778061,12636.0,536.0,10644242.491218299,14702.0,802.0,2,5,8,"['1', '10', '11', '12', '13', '14', '15', '16', '2', '3', '4', '5', '6', '7', '8', '9']",8035447.192518368,13465.128205128205,683.0,11,176,1962/06,61,blank,,False,,,POINT Z (22.3197449 114.1735215 0),22.3197449,114.1735215
60,"PRINCE'S HEIGHTS(Phase 2),PRINCE EDWARD RD W|太子閣2期,太子道西",KHMT,13417200.000000002,11113.0,1200.0,13723200.0,11366.0,1200.0,15162720.0,12228.0,1240.0,3,6,10,"['A', 'B', 'C', 'D']",14074820.0,11536.916666666666,1220.0,12,48,1973/12,50,PRINCE'S HEIGHTS,太子閣,True,2.0,96.0,POINT Z (22.32571 114.1795394 0),22.32571,114.17953940000001
61,"CHAMPION HSE,PEACE AVE|正平大廈,太平道",KHMT,6826020.0,11769.0,580.0,7251740.000000001,12503.0,580.0,10374190.630979935,16376.0,700.0,6,13,20,"['A', 'B', 'C', 'D', 'E', 'F']",8085508.26132151,13839.666666666666,603.3333333333334,20,120,1971/06,52,blank,,False,,,POINT Z (22.3181782 114.1741949 0),22.318178200000002,114.1741949
62,"KIN FUNG COURT,VICTORY AVE|建豐閣,勝利道",KHMT,5615442.0,15218.0,369.0,5921343.000000001,16047.0,369.0,6312114.0,17106.0,369.0,6,13,20,"['A', 'B']",5977923.0,16200.333333333334,369.0,23,46,1994/09,29,blank,,False,,,POINT Z (22.3198167 114.1741717 0),22.319816699999997,114.17417169999999
63,"DOMINION COURT,WATERLOO RD|高明大廈,窩打老道",KHMT,12276894.0,12709.0,966.0,12552204.0,12994.0,966.0,13124076.0,13586.0,966.0,3,6,9,"['A', 'B', 'C', 'D']",12700646.0,13147.666666666666,966.0,11,44,1970/04,53,blank,,False,,,POINT Z (22.3251407 114.1787 0),22.325140700000002,114.1787
64,"BALWIN COURT(Block 1),ARGYLE ST|寶雲閣1座,亞皆老街",KHMT,8522674.7142066,11555.0,640.0,8848682.695485642,11997.0,640.0,9170265.229055012,12433.0,1309.0,3,8,13,"['A', 'B', 'C', 'D']",8848436.837279549,11996.666666666666,785.75,14,56,1976/12,47,BALWIN COURT,寶雲閣,True,5.0,299.0,POINT Z (22.3223931 114.1808481 0),22.322393100000003,114.18084809999999
65,"TIP TOP MANSION,SHEUNG SHING ST|集德苑,常盛街",KHMT,,,1307.0,,,1307.0,,,1314.0,5,10,16,"['A', 'B']",,,1315.5,18,36,1973/01,50,blank,,False,,,POINT Z (22.3198073 114.1843197 0),22.3198073,114.18431969999999
66,"YEE ON COURT(Block C),ARGYLE ST|怡安閣C座,亞皆老街",KHMT,8316179.999999999,11796.0,705.0,8828010.0,12522.0,705.0,17283285.0,14463.0,1210.0,9,17,24,"['1', '2', '3', '4', '5', '6']",11396406.0,12962.38888888889,871.0,21,126,1976/06,47,YEE ON COURT,怡安閣,True,3.0,320.0,POINT Z (22.3202757 114.1760992 0),22.3202757,114.17609920000001
67,"LUNG CHEUNG BLDG,WATERLOO RD|龍翔大廈,窩打老道",KHMT,6369425.180859357,8898.0,603.0,6623256.091064784,9254.0,603.0,10939327.468155468,11789.0,899.0,3,8,12,"['A', 'B', 'C', 'D']",8569276.928870467,9942.5,740.0833333333334,14,56,1965/01,58,blank,,False,,,POINT Z (22.3170586 114.1746594 0),22.3170586,114.17465940000001
68,"GRANDCO MANSION,PRINCE EDWARD RD W|寶堡大廈,太子道西",KHMT,8776922.56762411,14739.0,572.0,9044297.439247914,15188.0,572.0,13256072.044501735,17669.0,829.0,3,7,10,"['A', 'B', 'C', 'D']",11184369.842238352,16186.11111111111,713.0,11,44,1995/03,28,blank,,False,,,POINT Z (22.3258503 114.1805578 0),22.3258503,114.1805578
69,"HARRISON COURT(Phase 5),MAN WAN RD|恒信園5期,文運道",KHMT,12221412.324975684,12550.0,1030.0,12791887.829733908,13113.0,1030.0,21768641.53393816,16704.0,1440.0,4,10,17,"['A', 'B', 'C', 'D']",15730347.400641128,14049.333333333334,1235.0,20,80,1972/01,51,HARRISON COURT,恒信園,True,5.0,330.0,POINT Z (22.3184718 114.1775854 0),22.3184718,114.1775854
70,"CRYSTAL COURT,MAN WAN RD|麗晶樓,文運道",KHMT,7627200.0,10896.0,660.0,8117900.0,11597.0,700.0,10266200.0,14666.0,700.0,4,10,17,"['A', 'B', 'C', 'D', 'E', 'E1', 'F']",8858325.714285715,12721.52380952381,696.1904761904761,20,140,1967/07,56,blank,,False,,,POINT Z (22.3187445 114.1774597 0),22.3187445,114.1774597
71,"DAWN GARDEN,HO MAN TIN HILL RD|春曉園,何文田山道",KHMT,18225781.94749654,15958.0,1262.0,19114343.067633923,16736.0,1262.0,19741361.13312932,17285.0,1262.0,3,6,10,"['A', 'B']",19060473.57384667,16688.833333333332,1262.0,12,24,1975/09,48,blank,,False,,,POINT Z (22.3168895 114.1762849 0),22.3168895,114.17628490000001
72,"LUNG MAN BLDG,HO MAN TIN ST|龍文大廈,何文田街",KHMT,7548352.218453844,11776.0,635.0,7749488.364358591,12044.0,635.0,14995965.319043837,13782.0,2494.0,3,6,9,"['A', 'A-B', 'B', 'C', 'D', 'E', 'F']",10436256.353580894,12816.638888888889,1079.7142857142858,11,77,1963/02,60,blank,,False,,,POINT Z (22.3169055 114.1750774 0),22.3169055,114.17507739999999
73,"REGAL COURT,WATERLOO RD|麗豪閣,窩打老道",KHMT,10984780.0,12470.0,860.0,11396720.0,12943.0,860.0,13270481.0,14238.0,991.0,3,8,13,"['A', 'B', 'C', 'D']",12203688.5,13235.666666666666,923.25,17,68,1989/03,34,blank,,False,,,POINT Z (22.322952 114.1785642 0),22.322951999999997,114.1785642
74,"MANDARIN GARDEN,MAN FUK RD|仁華園,文福道",KHMT,8803116.0,12159.0,715.0,9214725.0,12675.0,715.0,10148418.0,14154.0,724.0,4,9,15,"['A', 'B', 'C', 'D']",9553826.166666666,13237.083333333334,721.8333333333334,17,68,1966/05,57,blank,,False,,,POINT Z (22.3194819 114.1775389 0),22.3194819,114.1775389
75,"CARRIE COURT,MAN FUK RD|嘉景樓,文福道",KHMT,8180115.0,12870.0,615.0,8557725.0,13644.0,615.0,10403340.0,16916.0,644.0,4,9,14,"['A', 'B', 'C', 'D']",9063942.111111112,14563.666666666666,628.25,17,68,1966/01,57,blank,,False,,,POINT Z (22.3189723 114.178282 0),22.3189723,114.17828200000001
76,"TAI GARDEN,PRINCE EDWARD RD W|泰園,太子道西",KHMT,7004022.759386691,3336.0,550.0,6206202.421087248,2956.0,550.0,13919146.196336804,15228.0,1010.0,3,6,9,"['A', 'B', 'C']",10833795.892116344,10492.88888888889,856.6666666666666,11,33,1973/08,50,blank,,False,,,POINT Z (22.3257997 114.1803256 0),22.3257997,114.1803256
77,"WEI KING BLDG,CHATHAM RD N|蔚景樓,漆咸道北",KHMT,4537750.0,12578.0,345.0,4799550.0,13309.0,345.0,6021959.999999999,15115.0,420.0,9,16,22,"['A', 'B', 'C', 'D', 'E', 'F', 'G', 'H']",5266524.375,13751.458333333334,383.75,20,160,1975/08,48,blank,,False,,,POINT Z (22.3095747 114.1835907 0),22.3095747,114.18359070000001
78,"KERIN COURT,MAN WAN RD|嘉嗚閣,文運道",KHMT,13980671.999999998,12136.0,1152.0,14379264.0,12482.0,1152.0,15538176.0,13488.0,1152.0,4,10,18,"['A', 'B']",14676672.0,12740.166666666666,1152.0,20,40,1964/09,59,blank,,False,,,POINT Z (22.3193734 114.1771209 0),22.3193734,114.1771209
79,"SUNVIEW GARDEN,SHEUNG SHING ST|日麗園,常盛街",KHMT,16916975.2448515,13352.0,1400.0,17751927.81273325,14011.0,1400.0,21061330.09999749,16623.0,1400.0,4,10,18,"['A', 'B']",19197574.06455886,15152.0,1400.0,20,40,1974/10,49,blank,,False,,,POINT Z (22.3196636 114.1844706 0),22.319663600000002,114.1844706
80,"WING YING MANSION,EMMA AVE|榮英大廈,艷馬道",KHMT,10796354.812494652,12624.0,945.0,11192323.782566343,12781.0,945.0,11858874.037602402,13579.0,965.0,4,9,14,"['5', '8A', 'whole floor']",11361003.628601735,13055.88888888889,961.6666666666666,17,51,1964/02,59,blank,,False,,,POINT Z (22.3194662 114.1753044 0),22.319466199999997,114.1753044
81,"HARRISON COURT(Phase 4),MAN WAN RD|恒信園4期,文運道",KHMT,9967800.0,13470.0,740.0,10476920.0,14158.0,740.0,12819700.0,15082.0,850.0,4,10,17,"['A', 'B', 'C', 'D']",10983285.0,14298.916666666666,767.5,20,80,1971/09,52,HARRISON COURT,恒信園,True,5.0,330.0,POINT Z (22.3187474 114.1780498 0),22.3187474,114.1780498
82,"SPRINGVALE,PRINCE EDWARD RD W|春苑,太子道西",KHMT,15897318.14145402,5342.0,1325.0,15920566.049996866,5370.0,1325.0,17745414.01602718,7993.0,1330.0,2,5,8,"['A', 'B', 'C', 'D']",16447503.731597863,6302.63888888889,1323.4166666666667,9,36,1963/03,60,blank,,False,,,POINT Z (22.3264519 114.1840479 0),22.3264519,114.18404790000001
83,"CLASSIC MANSION,SOARES AVE|典雅大廈,梭椏道",KHMT,4360345.663362909,14006.0,344.0,4596637.421073351,14765.0,344.0,4917608.17495934,15796.0,344.0,6,12,19,"['A', 'B']",4636642.0203695195,14893.5,344.0,20,40,1992/10,31,blank,,False,,,POINT Z (22.3192472 114.1749497 0),22.3192472,114.1749497
84,"DUCHY HEIGHTS,DUKE ST|公爵閣,公爵街",KHMT,12211374.0,12152.0,965.0,12557064.0,12532.0,965.0,14001820.0,13753.0,1030.0,4,8,13,"['A', 'B', 'C', 'D']",12864073.166666666,12991.416666666666,990.5,16,64,1972/05,51,blank,,False,,,POINT Z (22.3263068 114.1760063 0),22.3263068,114.17600630000001
85,"DUKE GARDEN,DUKE ST|爵園,公爵街",KHMT,12335000.0,12335.0,1000.0,12437595.0,12627.0,985.0,16301640.0,13460.0,1220.0,3,6,10,"['A', 'B', 'C', 'D']",14224159.916666666,12849.666666666666,1105.5,12,48,1964/01,59,blank,,False,,,POINT Z (22.325829 114.1746129 0),22.325829000000002,114.1746129
86,"MANCHESTER COURT,HO MAN TIN ST|文采閣,何文田街",KHMT,11673489.408545673,17130.0,753.0,11789762.843369951,16853.0,753.0,13025893.558627455,18620.0,773.0,3,6,10,"['A', 'B', 'C', 'D']",12968050.714674333,17836.55555555555,790.5,12,48,1990/10,33,blank,,False,,,POINT Z (22.3157786 114.1755883 0),22.3157786,114.17558829999999
87,"HING YIP KING'S BLDG,PRINCE EDWARD RD W|皇帝大廈,太子道西",KHMT,9721100.901439333,3167.0,987.0,10738883.933240546,3638.0,987.0,13147182.135080762,13342.0,1030.0,2,5,8,"['A', 'B', 'C']",11519762.85925219,7133.666666666667,1015.6666666666666,9,27,1965/03,58,blank,,False,,,POINT Z (22.3259583 114.1812544 0),22.3259583,114.1812544
88,"NIN FUNG BLDG,WATERLOO RD|年豐樓,窩打老道",KHMT,9835273.298910104,10437.0,985.0,9943643.178125842,10552.0,985.0,10420470.646675091,11058.0,985.0,6,10,16,"['A', 'B']",10066462.374570346,10682.333333333334,985.0,16,32,1973/01,50,blank,,False,,,POINT Z (22.3177635 114.1746129 0),22.3177635,114.1746129
89,"BRIGHT VIEW COURT,ARGYLE ST|明明閣,亞皆老街",KHMT,15094350.148064319,6066.0,1093.0,15456301.512599885,6320.0,1093.0,15559189.729974821,8466.0,1153.0,3,6,9,"['A', 'B']",15525655.078165427,6880.0,1123.0,10,20,1973/00,50,blank,,False,,,POINT Z (22.3254434 114.1858988 0),22.325443399999997,114.18589879999999
90,"STAR COURT,MAN WAN RD|文星樓,文運道",KHMT,13980765.80444642,11856.0,1303.0,14727208.513135236,12489.0,1303.0,15610440.091030847,13238.0,1303.0,3,10,17,"['A', 'B', 'C', 'D']",15041960.487323001,12755.916666666666,1303.0,20,80,1966/04,57,blank,,False,,,POINT Z (22.3188576 114.1770745 0),22.3188576,114.17707450000002
91,"ORIENTAL GARDEN(Block B),PRINCE EDWARD RD W|東方花園B座,太子道西",KHMT,13808207.305636652,14653.0,980.0,14125778.169077555,14990.0,980.0,14881942.096098766,16516.0,985.0,3,6,10,"['1', '2', '3', '4']",14296110.096180981,15426.25,982.5,12,48,1967/01,56,ORIENTAL GARDEN,東方花園,True,2.0,116.0,POINT Z (22.3255524 114.1757144 0),22.325552399999996,114.1757144
92,"WALTON MANSION,PRINCE EDWARD RD W|華苑,太子道西",KHMT,11694583.432660341,6951.0,990.0,11984874.510776024,7124.0,990.0,13592425.236634417,7343.0,1120.0,3,6,8,"['A', 'B', 'C']",12644342.115536602,7156.0,1076.6666666666667,10,30,1964/02,59,blank,,False,,,POINT Z (22.326958 114.1834837 0),22.326957999999998,114.18348370000001
93,"TSAN YUNG MANSION,WATERLOO RD|曾榕大廈,窩打老道",KHMT,,,802.0,,,802.0,,,1090.0,3,7,10,"['A', 'B', 'C', 'D', 'E', 'F']",,,970.0,11,66,1964/07,59,blank,,False,,,POINT Z (22.3172581 114.1749148 0),22.3172581,114.17491480000001
94,"STEPHEN MANSION,BELFRAN RD|鐘山閣,巴芬道",KHMT,,,865.0,,,862.0,,,940.0,3,6,10,"['A', 'B']",,,875.3333333333334,12,24,1973/11,50,blank,,False,,,POINT Z (22.3261159 114.1774925 0),22.326115899999998,114.1774925
95,"GALLANT GARDEN MANSION,HO MAN TIN ST|嘉景花園大廈,何文田街",KHMT,9338268.0,12838.0,723.0,9566013.0,13146.0,723.0,11804260.0,14222.0,830.0,3,6,10,"['A', 'B', 'C', 'D', 'E']",10532495.266666666,13472.333333333334,781.0666666666666,12,60,1971/07,52,blank,,False,,,POINT Z (22.3156848 114.1750774 0),22.3156848,114.17507739999999
96,"PARC REGAL(Block 2),HO MAN TIN HILL RD|賀龍居2座,何文田山道",KHMT,10128018.03026877,11513.0,685.0,10682966.244872335,12199.0,685.0,22090519.25228389,13644.0,1603.0,3,10,16,"['A', 'A & B', 'A&B', 'A-B', 'AB', 'B', 'C', 'C & D', 'C-D', 'CD', 'D']",15705577.146676652,12533.238095238094,1226.8181818181818,18,198,1995/05,28,PARC REGAL,賀龍居,True,3.0,450.0,POINT Z (22.3150144 114.1765636 0),22.315014399999995,114.1765636
97,"BEAUTY COURT,MAN FUK RD|麗苑,文福道",KHMT,14581940.703316597,13085.0,1150.0,15098152.436158296,13978.0,1150.0,17444001.722096175,16761.0,1200.0,4,10,15,"['A', 'B']",15672910.966778172,14357.166666666666,1175.0,18,36,1965/09,58,blank,,False,,,POINT Z (22.319613 114.1772603 0),22.319613,114.17726029999999
98,"PARIS GARDEN,BELFRAN RD|巴豪苑,巴芬道",KHMT,,,926.0,,,926.0,,,926.0,3,7,11,['whole floor'],,,926.0,13,13,1993/01,30,blank,,False,,,POINT Z (22.3261089 114.1772603 0),22.326108899999998,114.17726029999999
99,"TUNG NAM MANSION,WATERLOO RD|東南大樓,窩打老道",KHMT,7384796.178100029,12000.0,680.0,7554646.49019633,12276.0,680.0,7793693.066481054,12572.0,685.0,4,7,10,"['A', 'B', 'whole floor']",7576126.654079567,12280.77777777778,681.6666666666666,9,27,1971/04,52,blank,,False,,,POINT Z (22.3179958 114.1747987 0),22.317995800000002,114.1747987
100,"MENON MANSION,HO MAN TIN ST|文安大廈,何文田街",KHMT,4506730.0,16559.0,271.0,4649547.0,17157.0,271.0,4867062.0,17903.0,274.0,3,6,10,"['A', 'B', 'C', 'D']",4690620.666666667,17213.416666666668,272.5,12,48,1980/10,43,blank,,False,,,POINT Z (22.3164748 114.1752516 0),22.3164748,114.17525159999998
101,"KING'S COURT,PRINCE EDWARD RD W|乾隆閣,太子道西",KHMT,12085525.647201734,12031.0,1050.0,12669158.794988636,12612.0,1050.0,13592368.965455879,14304.0,1050.0,3,6,10,"['A', 'B', 'C', 'D']",12953027.160880597,13146.75,1050.0,12,48,1972/08,51,blank,,False,,,POINT Z (22.3255905 114.1791645 0),22.3255905,114.1791645
102,"HOMAN VILLA,HO MAN TIN ST|浩文苑,何文田街",KHMT,4572419.363944778,12540.0,293.0,4747075.57409865,13019.0,293.0,8538254.940933878,16922.0,560.0,3,6,10,"['A', 'B', 'C']",7028474.322867055,15205.77777777778,456.3333333333333,12,36,1987/04,36,blank,,False,,,POINT Z (22.315546 114.1756812 0),22.315545999999998,114.17568119999999
103,"EARL GARDENS,EARL ST|伯爵園,伯爵街",KHMT,17657047.66183717,14346.0,1330.0,18050903.458002508,14666.0,1330.0,23145924.121144444,15546.0,1660.0,3,6,10,"['A', 'B', 'C', 'D']",20328121.350292955,14957.333333333334,1501.6666666666667,12,48,1972/12,51,blank,,False,,,POINT Z (22.3268004 114.1801884 0),22.3268004,114.1801884
104,"HAPPY COURT,MAN FUK RD|樂園,文福道",KHMT,9970870.0,10957.0,906.0,10319340.0,11390.0,906.0,10805862.0,11927.0,906.0,4,8,14,"['A', 'B']",10679925.0,11442.0,933.5,16,32,1966/01,57,blank,,False,,,POINT Z (22.3197794 114.177864 0),22.319779399999998,114.17786399999999
105,"PERTH APTS(Block B3),PERTH ST|巴富洋樓B3座,巴富街",KHMT,20389585.147649873,16615.0,1356.0,20874320.996781483,17010.0,1356.0,22348163.41401456,18211.0,1356.0,3,6,10,"['A', 'B', 'C', 'D']",21325616.208219837,17377.75,1356.0,12,48,1974/02,49,PERTH APTS,巴富洋樓,True,3.0,144.0,POINT Z (22.3219259 114.1811151 0),22.3219259,114.18111509999999
106,"KAM WAH HSE,WATERLOO RD|金華樓,窩打老道",KHMT,6860364.852128551,6213.0,659.0,7130892.679067469,6458.0,659.0,7545171.977664561,11518.0,1350.0,3,8,12,"['F. P.', 'F.P.', 'R', 'R. P.', 'R.P.', 'RP']",7514069.798869799,7892.816666666667,862.2777777777778,13,78,1966/07,57,blank,,False,,,POINT Z (22.3196982 114.1760295 0),22.319698199999998,114.1760295
107,"GLORIOUS COURT,PRINCE EDWARD RD W|堂皇閣,太子道西",KHMT,,,1032.0,,,1010.0,,,1010.0,3,6,9,['whole floor'],,,1017.3333333333334,11,11,1986/01,37,blank,,False,,,POINT Z (22.3268859 114.1831122 0),22.3268859,114.1831122
108,"KAM BIT BLDG,VICTORY AVE|金碧大廈,勝利道",KHMT,4235712.0,13576.0,312.0,4417920.0,14160.0,312.0,4691544.0,15037.0,312.0,7,12,18,"['A', 'B']",4448808.0,14259.0,312.0,18,36,1984/01,39,blank,,False,,,POINT Z (22.3193183 114.1747058 0),22.319318300000003,114.1747058
109,"TIVOLI COURT,DUKE ST|德福閣,公爵街",KHMT,12263517.399012629,11327.0,870.0,12250525.237911882,11315.0,870.0,14679835.360973813,12417.0,950.0,3,6,10,"['A', 'B', 'C', 'D']",13339564.51960479,11770.666666666666,910.0,12,48,1976/08,47,blank,,False,,,POINT Z (22.3257989 114.1753493 0),22.3257989,114.17534930000001
110,"MANSION COURT,HO MAN TIN ST|文翠閣,何文田街",KHMT,8432640.835802399,16639.0,560.0,8621677.137969254,17012.0,560.0,9181184.048404127,18116.0,560.0,5,8,11,"['A', 'B']",8860126.414563103,17482.5,560.0,9,18,1990/05,33,blank,,False,,,POINT Z (22.3160695 114.1754025 0),22.3160695,114.17540249999999
111,"HARRISON COURT(Phase 6),MAN WAN RD|恒信園6期,文運道",KHMT,12311590.0,11953.0,1030.0,12425920.0,12064.0,1030.0,20560400.0,14686.0,1400.0,4,10,17,"['A', 'B', 'C', 'D']",16223237.5,13286.833333333334,1215.0,20,80,1972/01,51,HARRISON COURT,恒信園,True,5.0,330.0,POINT Z (22.3183407 114.177864 0),22.3183407,114.17786399999999
112,"GAY MANSION,WATERLOO RD|寶建大廈,窩打老道",KHMT,7935401.938055625,5811.0,815.0,8167551.022459248,5981.0,815.0,7740639.982713511,7632.0,825.0,3,7,10,"['A', 'B']",7947864.314409462,6474.666666666667,820.0,11,22,1966/04,57,blank,,False,,,POINT Z (22.3169498 114.1745201 0),22.316949800000003,114.1745201
113,"CYPRESS GARDEN,HO MAN TIN HILL RD|龍柏花園,何文田山道",KHMT,11140046.48462174,15384.0,622.0,12200737.610675598,16088.0,622.0,22484633.244634826,19522.0,2200.0,5,11,19,"['A', 'A-C', 'B', 'B & C', 'B+C', 'B-C', 'BC', 'C']",18077196.01688625,16985.166666666668,1211.375,19,152,1996/08,27,blank,,False,,,POINT Z (22.3169114 114.1761456 0),22.3169114,114.1761456
114,"SPRING HEIGHTS,BOUNDARY ST|春秋閣,界限街",KHMT,10771431.125393566,15066.0,790.0,11203975.65153608,15671.0,790.0,11758776.564406473,16447.0,790.0,3,8,13,"['A', 'B']",11270585.125396589,15764.166666666666,790.0,15,30,1973/08,50,blank,,False,,,POINT Z (22.3267123 114.177028 0),22.3267123,114.177028
115,"RICHLAND HSE,WATERLOO RD|芝齡大廈,窩打老道",KHMT,5006920.0,12151.0,410.0,5355000.0,12600.0,425.0,7941375.0,13575.0,585.0,7,12,18,"['A', 'B', 'C']",6685953.333333333,12696.444444444445,525.3333333333334,18,54,1975/06,48,blank,,False,,,POINT Z (22.3198725 114.1760295 0),22.3198725,114.1760295
116,"SUNFIELD COURT,PEACE AVE|新雅閣,太平道",KHMT,7262695.30192308,11955.0,635.0,7652104.560687841,12596.0,635.0,8300821.821324415,13452.0,645.0,5,12,19,"['A', 'B']",7775504.153454487,12698.333333333334,640.0,21,42,1978/07,45,blank,,False,,,POINT Z (22.3176766 114.1743343 0),22.3176766,114.17433429999998
117,"HANNOVER COURT,WATERLOO RD|恒懋大樓,窩打老道",KHMT,12762700.0,11098.0,1150.0,13075500.0,11370.0,1150.0,15623075.000000002,11893.0,1325.0,3,6,10,"['89', '91', 'whole floor']",13978706.666666666,11442.111111111111,1221.6666666666667,12,36,1963/03,60,blank,,False,,,POINT Z (22.3245021 114.1780498 0),22.3245021,114.1780498
118,"IMPERIAL COURT,WATERLOO RD|帝國大廈,窩打老道",KHMT,6177334.94300503,8405.0,722.0,6380545.347836272,8691.0,722.0,9389168.325764716,10064.0,1071.0,3,7,11,"['A', 'B', 'C', 'D', 'E', 'F', 'G', 'H', 'whole floor']",7657798.403848509,9370.481481481482,904.074074074074,13,117,1960/06,63,blank,,False,,,POINT Z (22.3200902 114.1763082 0),22.3200902,114.1763082
119,"PRINCESS TERR,MAN FUK RD|公主台,文福道",KHMT,12466308.0,10953.0,1097.0,13035750.0,11375.0,1097.0,17820216.0,14348.0,2243.0,4,9,14,"['A', 'A & B', 'B', 'C', 'D', 'E', 'F']",15220538.0,11957.277777777776,1317.6190476190477,17,119,1967/05,56,blank,,False,,,POINT Z (22.319568 114.1783749 0),22.319568,114.17837490000001
120,"HARITA COURT,PRINCE EDWARD RD W|恒泰大樓,太子道西",KHMT,10060686.528702116,9554.0,820.0,9777120.45752296,9781.0,820.0,12299370.288027234,10495.0,980.0,3,6,10,"['197', '199', 'whole floor']",11367449.213895762,10184.11111111111,926.6666666666666,12,36,1963/06,60,blank,,False,,,POINT Z (22.324694 114.174471 0),22.324694,114.174471
121,"GREENFIELD TERR(Block B),HO MAN TIN HILL RD|嘉輝臺B座,何文田山道",KHMT,12278240.865564851,14557.0,932.0,12837454.556151476,15220.0,932.0,13071581.554982258,15172.0,1020.0,5,11,18,"['1', '2', '3']",12729092.325566195,14983.0,969.5555555555557,19,57,1978/11,45,GREENFIELD TERR,嘉輝臺,True,2.0,201.0,POINT Z (22.313525 114.1766212 0),22.313525,114.1766212
122,"HARRISON COURT(Phase 2),WATERLOO RD|恒信園2期,窩打老道",KHMT,14969669.996045478,6474.0,1380.0,16146041.675007677,5229.0,1380.0,15658728.021813404,6772.0,1380.0,3,6,8,['whole floor'],15591479.897622189,6158.333333333333,1380.0,10,10,1966/02,57,HARRISON COURT,恒信園,True,5.0,330.0,POINT Z (22.318833 114.177849 0),22.318832999999998,114.177849
123,"LIBERTY MANSION,WATERLOO RD|自由大廈,窩打老道",KHMT,4915720.863243358,8280.0,435.0,5097168.060701377,8810.0,435.0,11770522.559137702,15437.0,874.0,3,8,13,"['A', 'B', 'C', 'D']",7506273.177647333,12023.166666666666,617.9166666666666,15,60,1962/01,61,blank,,False,,,POINT Z (22.3176902 114.1750774 0),22.3176902,114.17507739999999
124,"KNIGHT COURT,KNIGHT ST|勵德閣,勵德街",KHMT,,,550.0,,,550.0,,,550.0,3,8,12,"['A', 'B']",,,550.0,13,26,1980/09,43,blank,,False,,,POINT Z (22.3260427 114.1765055 0),22.3260427,114.17650549999999
125,"KAISER'S MANSION,PRINCE EDWARD RD W|國城大廈,太子道西",KHMT,9414474.803887844,8946.0,1051.0,9635471.865011971,9156.0,1051.0,10703428.20417889,10645.0,1100.0,2,5,8,"['A', 'B', 'C']",9998375.082802499,9655.333333333334,1083.6666666666667,9,27,1964/09,59,blank,,False,,,POINT Z (22.3259514 114.1810222 0),22.3259514,114.1810222
126,"HUNG HING COURT,VALLEY RD|鴻興閣,山谷道",KHMT,,,410.0,,,410.0,,,410.0,6,13,20,['whole floor'],,,410.0,21,21,1992/11,31,blank,,False,,,POINT Z (22.3097572 114.183983 0),22.3097572,114.18398300000001
127,"DRAGON COURT,WATERLOO RD|龍騰閣,窩打老道",KHMT,9127113.946387367,12963.0,720.0,9341861.285247827,13268.0,720.0,9617160.33277058,13659.0,778.0,3,6,10,"['104', '106', '111', '113', '115', '121', '16', '22', '25', '34', '36', '4', '45', '53', '55', '61', '66', '71', '72', '74', '76', '82', '83', '84', '92', '93', '94', '96']",9362045.188135259,13296.666666666666,742.6071428571428,12,336,1967/02,56,blank,,False,,,POINT Z (22.3233158 114.1785203 0),22.3233158,114.1785203
128,"MANTIN COURT,HO MAN TIN HILL RD|文田閣,何文田山道",KHMT,19518471.707675084,10279.0,1094.0,20004233.82286422,10913.0,1094.0,21084733.240189023,10848.0,2188.0,3,6,9,"['A', 'AB', 'B']",20240651.121638134,10721.666666666666,1488.0,10,30,1975/02,48,blank,,False,,,POINT Z (22.3166492 114.1767029 0),22.3166492,114.17670290000001
129,"FAIR WAY GARDEN(Block D),PEACE AVE|富威花園D座,太平道",KHMT,3683222.0,13249.0,274.0,3803163.0,13931.0,273.0,4678550.0,17075.0,284.0,8,16,23,"['1', '2', '3', '4']",4180551.4166666665,15171.083333333334,275.5833333333333,24,96,1984/10,39,FAIR WAY GARDEN,富威花園,True,3.0,276.0,POINT Z (22.3192831 114.1738234 0),22.3192831,114.17382340000002
130,"SHARON COURT,HO MAN TIN ST|瑞麟閣,何文田街",KHMT,8317009.13852883,16099.0,540.0,8606830.99868876,16660.0,540.0,8864622.635444202,17159.0,540.0,3,6,10,"['A', 'B']",8596154.25755393,16639.333333333332,541.3333333333334,12,24,1988/08,35,blank,,False,,,POINT Z (22.3161597 114.1753584 0),22.316159699999996,114.17535840000001
131,"PRINCE'S HEIGHTS(Phase 1),PRINCE EDWARD RD W|太子閣1期,太子道西",KHMT,13271374.681582067,14271.0,940.0,13579255.52224256,14909.0,940.0,14183713.75941349,16673.0,1149.0,3,6,10,"['A', 'B', 'C', 'D']",14135908.893737577,15729.944444444445,1042.0,12,48,1972/02,51,PRINCE'S HEIGHTS,太子閣,True,2.0,96.0,POINT Z (22.32571 114.1795394 0),22.32571,114.17953940000001
132,23 SOARES AVE|23 梭椏道,KHMT,,,473.0,,,473.0,,,473.0,4,6,9,['whole floor'],,,473.0,10,10,1973/07,50,blank,,False,,,POINT Z (22.3192803 114.1751104 0),22.319280300000003,114.17511040000001
133,"MOUNT TRIO COURT,HOK YU LANE|鼎峰花園,學餘里",KHMT,13177082.780381547,12552.0,1150.0,13686235.516876532,12110.0,1150.0,15708873.270088105,14648.0,1185.0,3,8,14,"['A1', 'B', 'B1', 'C1', 'C2']",14161073.297919204,13332.933333333334,1166.0,14,70,1965/02,58,MOUNT TRIO COURT,鼎峰花園,True,2.0,78.0,POINT Z (22.3204044 114.1777711 0),22.3204044,114.17777109999999
134,"FAIR WAY GARDEN(Block C),PEACE AVE|富威花園C座,太平道",KHMT,4050522.0,14518.0,279.0,4292415.0,15385.0,279.0,6303692.0,19368.0,356.0,9,16,23,"['1', '2', '3', '4', '5', '6']",5516064.611111112,17116.888888888887,322.0,23,138,1984/10,39,FAIR WAY GARDEN,富威花園,True,3.0,276.0,POINT Z (22.3191084 114.1741021 0),22.319108399999998,114.1741021
135,"CHEERWORLD COURT,BELFRAN RD|昌和閣,巴芬道",KHMT,12791172.880103922,17132.0,825.0,13180910.928400341,17654.0,825.0,13572142.22592395,18178.0,825.0,3,7,11,['whole floor'],13181408.678142736,17654.666666666668,825.0,13,13,1994/03,29,blank,,False,,,POINT Z (22.3260947 114.1770745 0),22.3260947,114.17707450000002
136,"PEACE TOWER,PEACE AVE|太平居,太平道",KHMT,5337963.0,16415.0,317.0,5493293.0,17329.0,317.0,5831814.0,18208.0,326.0,9,17,25,"['A', 'B', 'C', 'D']",5556728.083333333,17298.75,321.25,23,92,1998/11,25,blank,,False,,,POINT Z (22.3189162 114.1738002 0),22.318916199999997,114.17380020000002
137,"LAI SZE COURT,HO MAN TIN ST|麗思閣,何文田街",KHMT,10314191.150916306,7421.0,870.0,10542248.637629595,9955.0,870.0,11382024.138509119,13035.0,870.0,3,6,10,"['A', 'B']",10780633.439049674,10546.166666666666,870.0,12,24,1973/03,50,blank,,False,,,POINT Z (22.3167165 114.1751703 0),22.316716500000002,114.1751703
138,"CAMBRIDGE BLDG,WATERLOO RD|金碧大廈,窩打老道",KHMT,,,1130.0,,,1140.0,,,1200.0,3,6,9,"['A', 'B']",,,1166.6666666666667,11,22,1962/06,61,blank,,False,,,POINT Z (22.3226496 114.178533 0),22.322649600000002,114.178533
139,"SHUNG MING MANSION,BOUNDARY ST|崇明大廈,界限街",KHMT,9704491.83028357,12192.0,832.0,9995817.618495822,12558.0,832.0,11790388.0,13815.0,877.0,3,6,10,"['F.P.', 'R.P.']",10849790.49927392,12965.333333333334,854.5,12,24,1975/01,48,blank,,False,,,POINT Z (22.3267054 114.1767958 0),22.326705399999998,114.1767958
140,"COIN ORGANIZE BLDG,WATERLOO RD|集貴大廈,窩打老道",KHMT,4618181.839923332,12538.0,407.0,4845812.752116077,13156.0,407.0,5106962.131961796,13865.0,407.0,3,9,16,['whole floor'],4856985.574667069,13186.333333333334,407.0,17,17,1997/04,26,blank,,False,,,POINT Z (22.3181555 114.1748916 0),22.3181555,114.1748916
141,"YEE ON COURT(Block B),WATERLOO RD|怡安閣B座,窩打老道",KHMT,6448532.999999999,11256.0,553.0,7080687.999999999,11979.0,568.0,9950787.0,13321.0,747.0,9,17,24,"['1', '2', '3', '4', '5', '6']",8491537.25,12579.916666666666,684.8333333333334,21,126,1976/06,47,YEE ON COURT,怡安閣,True,3.0,320.0,POINT Z (22.3203898 114.1764127 0),22.3203898,114.17641270000001
142,"PEACE MANSION,PEACE AVE|太平閣,太平道",KHMT,4347486.0,13307.0,297.0,4636467.0,14196.0,297.0,6733365.000000001,16654.0,435.0,5,12,20,"['A', 'B', 'C', 'D']",5483757.166666667,15050.0,367.3333333333333,24,96,1991/05,32,blank,,False,,,POINT Z (22.3194139 114.1738234 0),22.3194139,114.17382340000002
143,271 CHATHAM RD N|271 漆咸道北,KHMT,2020504.6615969504,2712.0,250.0,2244756.8382712435,2592.0,250.0,2261892.386654993,3036.0,250.0,2,3,4,"['A', 'B']",2275707.612112791,2872.0,267.5,5,10,1986/03,37,blank,,False,,,POINT Z (22.3095972 114.1842974 0),22.3095972,114.18429740000002
144,"EVERWELL GARDEN,SHEUNG HONG ST|常康園,常康街",KHMT,19542600.0,13160.0,1485.0,20292525.0,13665.0,1485.0,52026975.00000001,17325.0,3003.0,3,10,17,"['A', 'B', 'C', 'D', 'E', 'F', 'G', 'H']",24243832.083333332,14808.166666666666,1625.9166666666667,21,168,1972/07,51,blank,,False,,,POINT Z (22.3204041 114.1835766 0),22.3204041,114.18357659999998
145,108A BOUNDARY ST|108A 界限街,KHMT,,,1180.0,,,1087.0,,,1087.0,0,1,2,['A'],,,1118.0,3,3,1957/03,66,blank,,False,,,POINT Z (22.3267128 114.1749031 0),22.3267128,114.1749031
146,"ILFORD COURT(PERTH GARDEN),PERTH ST|巴富花園(宜富閣),巴富街",KHMT,9636990.0,12122.0,785.0,10005527.0,12187.0,785.0,15156680.0,15525.0,1010.0,8,14,20,"['A', 'B', 'C', 'D', 'E', 'F']",11942554.944444442,13716.611111111111,868.0,19,114,1980/07,43,PERTH GARDEN,巴富花園,True,3.0,360.0,POINT Z (22.3210928 114.1792109 0),22.321092800000002,114.17921090000002
147,"ERIN COURT,PRINCE EDWARD RD W|楓嗚閣,太子道西",KHMT,15429511.17052206,7548.0,1220.0,15793376.166329283,7726.0,1220.0,16765233.833501462,8011.0,1249.0,2,5,8,"['297A', 'A', 'B', 'whole floor']",16009546.674723206,7769.5,1229.6666666666667,9,36,1963/11,60,blank,,False,,,POINT Z (22.3260594 114.1817189 0),22.3260594,114.1817189
148,"MING GARDEN,PRINCE EDWARD RD W|明園,太子道西",KHMT,8720222.581687355,12654.0,714.0,9510548.253551079,13223.0,714.0,11132913.278313436,13256.0,1365.0,3,6,9,"['A', 'B']",10371520.970748885,13179.666666666666,929.5,11,22,1989/04,34,blank,,False,,,POINT Z (22.3257345 114.1801862 0),22.3257345,114.1801862
149,"MAN CHUNG HSE(Block E,CHUN MAN COURT),CHUNG HAU ST|俊民苑,E座(文宗閣),忠孝街",KHMT,5661889.999999999,11124.0,485.0,5882565.0,11333.0,485.0,7554896.000000001,12784.0,596.0,3,8,13,"['1', '10', '2', '3', '4', '5', '6', '7', '8', '9']",6417516.133333333,11981.566666666666,535.8,15,150,1981/01,42,CHUN MAN COURT,俊民苑,True,12.0,1775.0,POINT Z (22.3141244 114.1781502 0),22.314124399999997,114.1781502
150,"MAN OI HSE(Block K,CHUN MAN COURT),CHUNG HAU ST|俊民苑,K座(文愛閣),忠孝街",KHMT,5870925.0,11499.0,485.0,6076913.479976781,11783.0,485.0,7399936.000000001,14623.0,596.0,3,8,13,"['1', '10', '2', '3', '4', '5', '6', '7', '8', '9']",6595372.917139304,13446.066666666666,535.8,15,150,1980/01,43,CHUN MAN COURT,俊民苑,True,12.0,1775.0,POINT Z (22.3140271 114.1788161 0),22.3140271,114.17881609999999
151,"CASCADES(Block 1),CHUNG HAU ST|欣圖軒1座,忠孝街",KHMT,6001008.0,11946.0,467.0,6375093.0,12354.0,467.0,10155130.0,15152.0,710.0,4,10,16,"['A', 'B', 'C', 'D', 'E', 'F', 'G', 'H', 'J', 'K']",6999846.8,13505.966666666665,519.0,19,190,1998/12,25,CASCADES,欣圖軒,True,4.0,740.0,POINT Z (22.3159115 114.1797218 0),22.3159115,114.17972179999998
152,"MAN HUNG HSE(Block G,CHUN MAN COURT),CHUNG HAU ST|俊民苑,G座(文雄閣),忠孝街",KHMT,5612420.000000001,11286.0,485.0,5828245.0,11720.0,485.0,7649660.0,12835.0,596.0,3,8,13,"['1', '10', '2', '3', '4', '5', '6', '7', '8', '9']",6454437.899999999,12041.733333333332,535.8,15,150,1981/03,42,CHUN MAN COURT,俊民苑,True,12.0,1775.0,POINT Z (22.3141244 114.1781502 0),22.314124399999997,114.1781502
153,"TRIUMPH TERR,VICTORY AVE|凱旋居,勝利道",KHMT,6545956.867927522,13549.0,505.0,7162470.146832175,11397.0,505.0,7552110.533867003,12017.0,777.0,8,18,26,"['A', 'B']",7086845.849542233,12321.0,641.0,24,48,1998/12,25,blank,,False,,,POINT Z (22.319578 114.174331 0),22.319578,114.17433100000001
154,"MAN LAN HSE(Block C,CHUN MAN COURT),CHUNG HAU ST|俊民苑,C座(文蘭閣),忠孝街",KHMT,5305900.0,10940.0,485.0,5435395.0,11207.0,485.0,7877332.0,13217.0,596.0,3,8,13,"['1', '10', '2', '3', '4', '5', '6', '7', '8', '9']",6450571.5,12021.966666666667,535.8,15,150,1980/09,43,CHUN MAN COURT,俊民苑,True,12.0,1775.0,POINT Z (22.3141244 114.1781502 0),22.314124399999997,114.1781502
155,"DRAGON VIEW(Block 1),CHUNG HAU ST|御龍居1座,忠孝街",KHMT,8142468.0,13548.0,564.0,8575620.0,14213.0,564.0,12648020.0,16649.0,764.0,7,14,21,"['A', 'B', 'C', 'D', 'E', 'F', 'G', 'H']",10181376.958333334,15212.541666666666,667.375,22,176,1998/06,25,DRAGON VIEW,御龍居,True,2.0,648.0,POINT Z (22.3160869 114.1788858 0),22.3160869,114.1788858
156,"MAN PAN HSE(Block B,CHUN MAN COURT),CHUNG HAU ST|俊民苑,B座(文斌閣),忠孝街",KHMT,5470315.0,11279.0,485.0,5788960.0,11838.0,485.0,7789720.0,13070.0,596.0,3,8,12,"['1', '10', '2', '3', '4', '5', '6', '7', '8', '9']",6493931.933333334,12109.5,535.8,14,140,1980/04,43,CHUN MAN COURT,俊民苑,True,12.0,1775.0,POINT Z (22.3141244 114.1781502 0),22.314124399999997,114.1781502
157,"MAN HEI HSE(Block H,CHUN MAN COURT),CHUNG HAU ST|俊民苑,H座(文禧閣),忠孝街",KHMT,6279036.0,11334.0,485.0,6530552.0,11788.0,485.0,6781514.0,12241.0,596.0,3,8,13,"['1', '10', '2', '3', '4', '5', '6', '7', '8', '9']",6952712.666666667,12329.333333333334,535.8,15,150,1981/03,42,CHUN MAN COURT,俊民苑,True,12.0,1775.0,POINT Z (22.3142168 114.1781659 0),22.3142168,114.1781659
158,"DRAGON VIEW(Block 2),CHUNG HAU ST|御龍居2座,忠孝街",KHMT,7474520.0,13606.0,532.0,7869552.0,14066.0,532.0,12578392.0,16518.0,796.0,5,12,21,"['A', 'B', 'C', 'D', 'E', 'F', 'G', 'H']",9711808.5,14770.708333333334,659.0,24,192,1998/06,25,DRAGON VIEW,御龍居,True,2.0,648.0,POINT Z (22.316338 114.1785375 0),22.316338000000002,114.1785375
159,"MAN FUK HSE(Block A,CHUN MAN COURT),CHUNG HAU ST|俊民苑,A座(文福閣),忠孝街",KHMT,5631820.0,11124.0,485.0,5775865.0,11394.0,485.0,7521520.000000001,12620.0,596.0,3,8,13,"['1', '10', '2', '3', '4', '5', '6', '7', '8', '9']",6332091.62962963,11858.666666666666,535.8,15,150,1980/04,43,CHUN MAN COURT,俊民苑,True,12.0,1775.0,POINT Z (22.3141244 114.1781502 0),22.314124399999997,114.1781502
160,"MAN HOI HSE(Block F,CHUN MAN COURT),CHUNG HAU ST|俊民苑,F座(文凱閣),忠孝街",KHMT,6013030.0,10991.0,485.0,5781685.0,11435.0,485.0,7743231.999999999,13353.0,596.0,3,8,13,"['1', '10', '2', '3', '4', '5', '6', '7', '8', '9']",6689228.833333333,12503.299999999997,535.8,15,150,1980/12,43,CHUN MAN COURT,俊民苑,True,12.0,1775.0,POINT Z (22.3141244 114.1781502 0),22.314124399999997,114.1781502
161,"MAN MING HSE(Block J,CHUN MAN COURT),CHUNG HAU ST|俊民苑,J座(文明閣),忠孝街",KHMT,5790415.0,11023.0,485.0,5909725.0,11455.0,485.0,7825480.0,13130.0,596.0,3,8,13,"['1', '10', '2', '3', '4', '5', '6', '7', '8', '9']",6563254.466666668,12244.199999999999,535.8,15,150,1980/00,43,CHUN MAN COURT,俊民苑,True,12.0,1775.0,POINT Z (22.3141244 114.1781502 0),22.314124399999997,114.1781502
162,"MAN HOR HSE(Block D,CHUN MAN COURT),CHUNG HAU ST|俊民苑,D座(文賀閣),忠孝街",KHMT,5521240.0,10768.0,485.0,5736580.0,11317.0,485.0,6717250.0,12546.0,596.0,3,8,13,"['1', '10', '2', '3', '4', '5', '6', '7', '8', '9']",6034255.761904762,11700.047619047618,535.8,15,150,1981/04,42,CHUN MAN COURT,俊民苑,True,12.0,1775.0,POINT Z (22.3141244 114.1781502 0),22.314124399999997,114.1781502
163,"MAN YIN HSE(Block M,CHUN MAN COURT),CHUNG HAU ST|俊民苑,M座(文彥閣),忠孝街",KHMT,5534335.0,11411.0,485.0,5813695.0,11987.0,485.0,7806408.000000001,13098.0,596.0,3,8,13,"['1', '10', '2', '3', '4', '5', '6', '7', '8', '9']",6624302.033333334,12354.300000000001,535.8,15,150,1981/05,42,CHUN MAN COURT,俊民苑,True,12.0,1775.0,POINT Z (22.3141244 114.1781502 0),22.314124399999997,114.1781502
164,"MAN SHUI HSE(Block L,CHUN MAN COURT),CHUNG HAU ST|俊民苑,L座(文瑞閣),忠孝街",KHMT,5572650.0,10974.0,485.0,5667710.0,11414.0,485.0,7270604.0,12199.0,596.0,3,8,13,"['1', '10', '2', '3', '4', '5', '6', '8', '9']",6288895.0,11619.22222222222,541.4444444444445,15,135,1980/00,43,CHUN MAN COURT,俊民苑,True,12.0,1775.0,POINT Z (22.3141244 114.1781502 0),22.314124399999997,114.1781502
165,"GRAND COURT(Block 2),HO MAN TIN HILL RD|加林閣2座,何文田山道",KHMT,14149941.857044702,10134.0,1075.0,14222548.624023814,10186.0,1075.0,14729399.708897233,14233.0,1122.0,3,6,10,"['A', 'B']",14451358.354920514,12211.5,1098.5,12,24,1981/10,42,GRAND COURT,加林閣,True,2.0,48.0,POINT Z (22.3164594 114.1773532 0),22.3164594,114.17735320000001
166,"YICK FAT BLDG,WATERLOO RD|益發大廈,窩打老道",KHMT,6847418.951358209,6261.0,854.0,7065286.541770818,6396.0,854.0,10790177.682596603,11381.0,1003.0,2,6,10,"['A', 'B', 'C', 'whole floor']",8483454.139857776,8035.333333333333,959.75,12,48,1965/04,58,blank,,False,,,POINT Z (22.3191719 114.1756347 0),22.319171899999997,114.1756347
167,"THE ASTRID(Block 1),ARGYLE ST|雅麗居1座,亞皆老街",KHMT,8058595.479384443,15233.0,530.0,8380920.11256975,16208.0,530.0,33251521.751131,20538.0,1836.0,7,12,18,"['A', 'B', 'C', 'D', 'E', 'F']",15221190.355788196,17718.088888888888,849.5555555555555,16,96,1995/03,28,THE ASTRID,雅麗居,True,2.0,666.0,POINT Z (22.3230467 114.1824387 0),22.3230467,114.1824387
168,"THE ASTRID(Block 2),ARGYLE ST|雅麗居2座,亞皆老街",KHMT,7209615.418762428,13357.0,530.0,7481576.828012532,13669.0,530.0,35129235.59697437,15375.0,1836.0,6,11,18,"['A', 'B', 'C', 'D', 'E', 'F']",15434855.262048999,14320.044444444444,892.0,15,90,1995/03,28,THE ASTRID,雅麗居,True,2.0,666.0,POINT Z (22.3229163 114.1821601 0),22.3229163,114.1821601
169,"BALWIN COURT(Block 3),ARGYLE ST|寶雲閣3座,亞皆老街",KHMT,8777875.532130918,11901.0,638.0,9126010.75195831,12373.0,638.0,9511340.547536159,16473.0,815.0,3,8,12,"['A', 'B', 'C', 'D']",9121146.228642544,12962.666666666666,726.5,14,56,1976/12,47,BALWIN COURT,寶雲閣,True,5.0,299.0,POINT Z (22.3223931 114.1808481 0),22.322393100000003,114.18084809999999
170,"FAIR WAY GARDEN(Block A),PEACE AVE|富威花園A座,太平道",KHMT,9999900.0,11111.0,842.0,10644300.0,11827.0,873.0,11151000.0,12390.0,900.0,7,15,22,"['1', '2']",10417725.333333334,11703.666666666666,876.1666666666666,21,42,1984/10,39,FAIR WAY GARDEN,富威花園,True,3.0,276.0,POINT Z (22.3192759 114.1737752 0),22.319275899999997,114.17377520000001
171,"EMMA PLACE,EMMA AVE|盛馬苑,艷馬道",KHMT,3660947.545326812,14214.0,216.0,3809316.7885403456,14876.0,216.0,4915260.0,20407.0,315.0,6,11,17,"['A', 'B']",4256338.771555499,17219.333333333332,265.5,17,34,2001/04,22,blank,,False,,,POINT Z (22.319376 114.1756859 0),22.319376000000002,114.17568590000002
172,"CASCADES(Block 2),CHUNG HAU ST|欣圖軒2座,忠孝街",KHMT,6057924.000000001,12185.0,467.0,6294693.0,12771.0,467.0,11033775.0,15299.0,725.0,4,10,16,"['A', 'B', 'C', 'D', 'E', 'F', 'G', 'H', 'J', 'K']",7074622.100000001,13700.066666666666,515.6999999999999,19,190,1998/12,25,CASCADES,欣圖軒,True,4.0,740.0,POINT Z (22.3157005 114.179954 0),22.315700500000002,114.17995400000001
173,"CASCADES(Block 3),CHUNG HAU ST|欣圖軒3座,忠孝街",KHMT,6208833.000000001,12133.0,467.0,6399942.0,12493.0,467.0,7247880.0,14409.0,540.0,5,10,16,"['A', 'B', 'C', 'D', 'E', 'F', 'G', 'H', 'J', 'K']",6609192.433333334,13415.866666666667,493.3,18,180,1998/12,25,CASCADES,欣圖軒,True,4.0,740.0,POINT Z (22.3155404 114.1801398 0),22.3155404,114.1801398
174,"CASCADES(Block 4),CHUNG HAU ST|欣圖軒4座,忠孝街",KHMT,5969661.0,11510.0,467.0,6176830.0,12270.0,467.0,11122224.999999998,15341.0,725.0,5,10,16,"['A', 'B', 'C', 'D', 'E', 'F', 'G', 'H', 'J', 'K']",6854959.266666667,13212.466666666667,517.1,18,180,1998/12,25,CASCADES,欣圖軒,True,4.0,740.0,POINT Z (22.3156855 114.1803256 0),22.3156855,114.1803256
175,"ELLERY TERR,GOOD SHEPHERD ST|雅利德樺臺,牧愛街",KHMT,12069765.0,13138.0,915.0,13298610.0,14232.0,915.0,17949501.0,16152.0,1139.0,16,28,39,"['A', 'B', 'C', 'D', 'E', 'F']",14657590.944444446,14602.5,1002.7777777777778,34,204,2000/04,23,blank,,False,,,POINT Z (22.3165194 114.1787697 0),22.316519399999997,114.17876969999999
176,"VISION COURT,PRINCE EDWARD RD W|青雲閣,太子道西",KHMT,6721856.178123814,13139.0,397.0,7012409.911667983,13854.0,397.0,20368253.985355422,19105.0,1142.0,9,16,21,"['A', 'A & B', 'AB', 'B', 'C']",12920819.743864572,15948.466666666665,764.6,17,85,2001/09,22,blank,,False,,,POINT Z (22.3264749 114.1807436 0),22.326474899999997,114.1807436
177,"BALWIN COURT(Block 4),ARGYLE ST|寶雲閣4座,亞皆老街",KHMT,7986484.0,9006.0,638.0,9014940.0,9366.0,638.0,15814312.361642815,14817.0,1309.0,3,8,13,"['A', 'B', 'C', 'CD', 'D']",11216171.013122717,13114.6,842.5333333333333,15,75,1976/12,47,BALWIN COURT,寶雲閣,True,5.0,299.0,POINT Z (22.3223931 114.1808481 0),22.322393100000003,114.18084809999999
178,"GRAND EXCELSIOR,WATERLOO RD|嘉多利豪園,窩打老道",KHMT,11213298.956710929,18248.0,665.0,20080310.60771067,22938.0,667.0,21357952.746484507,24712.0,955.0,11,22,31,"['A', 'B', 'C', 'D']",17352120.636272676,21410.25,818.0,28,112,2002/10,21,blank,,False,,,POINT Z (22.3239666 114.1780196 0),22.323966600000002,114.1780196
179,"ST. GEORGE APTS,WATERLOO RD|聖佐治大廈,窩打老道",KHMT,,,1015.0,,,1015.0,,,1221.0,9,16,22,"['A', 'B', 'C', 'D']",,,1104.0,18,72,2002/04,21,blank,,False,,,POINT Z (22.3237478 114.1779588 0),22.3237478,114.1779588
180,"NO.1 HO MAN TIN HILL,HO MAN TIN HILL RD|何文田山1號,何文田山道",KHMT,18364443.260734282,19493.0,1041.0,25932965.20374956,21305.0,1008.0,34043443.40128282,25028.0,1503.0,8,18,27,"['A', 'B', 'C', 'D']",26551293.11179799,21811.666666666668,1232.75,28,112,2002/11,21,blank,,False,,,POINT Z (22.3173487 114.1758001 0),22.3173487,114.17580009999999
181,"PRINCESS COURT,KING TAK ST|嘉苑,敬德街",KHMT,8771486.798784647,3881.0,771.0,9200244.836286342,4077.0,771.0,14215566.122928735,17492.0,1109.0,5,10,16,"['A', 'B', 'C']",12011811.880378788,8306.22222222222,926.0,15,45,1972/12,51,blank,,False,,,POINT Z (22.31929 114.1798611 0),22.31929,114.1798611
182,"MING FAI HSE(Block A,KWUN FAI COURT),SHEUNG LOK ST|冠暉苑,A座(鳴暉閣),常樂街",KHMT,4168773.0,9348.0,411.0,4209051.0,9612.0,411.0,6105881.609984722,11959.0,622.0,3,6,9,"['1', '10', '11', '13', '2', '3', '4', '5', '6', '7']",5056076.4664983945,10878.633333333333,504.4666666666667,11,110,1999/01,24,KWUN FAI COURT,冠暉苑,True,2.0,234.0,POINT Z (22.3143165 114.1826477 0),22.3143165,114.18264769999999
183,"CARMEL ON THE HILL,CARMEL VILLAGE ST|君逸山,迦密村街",KHMT,6843312.0,13797.0,492.0,7178112.0,14472.0,491.0,8873854.0,17677.0,502.0,10,18,27,"['A', 'B', 'C', 'D', 'E', 'F', 'G', 'H']",8008953.875,16123.583333333334,496.7083333333333,24,192,2003/10,20,blank,,False,,,POINT Z (22.313789 114.1792695 0),22.313789,114.1792695
184,"EDWARDIAN HEIGHTS,(Phase 2),PRINCE EDWARD RD W|愛華閣,2期,太子道西",KHMT,8467007.288016513,11798.0,793.0,9614168.404319013,13083.0,793.0,10461638.925722267,14486.0,812.0,3,6,9,"['A', 'B', 'C']",9816546.008470148,13542.444444444443,801.1111111111112,11,33,1973/02,50,blank,,False,,,POINT Z (22.3261748 114.1823691 0),22.3261748,114.18236909999999
185,"KO FAI HSE(Block B,KWUN FAI COURT),SHEUNG LOK ST|冠暉苑,B座(高暉閣),常樂街",KHMT,3505122.0109721804,12343.0,287.0,3620888.6460587457,13586.0,287.0,4473082.360017578,16985.0,296.0,7,10,13,"['1', '10', '11', '12', '13', '14', '15', '16', '17', '21', '24', '3', '4', '5', '6', '7', '8', '9']",3902037.9442746867,14839.259259259261,289.09259259259255,9,162,1999/06,24,KWUN FAI COURT,冠暉苑,True,2.0,234.0,POINT Z (22.3141285 114.1819046 0),22.3141285,114.18190459999998
186,6C DUKE ST|6C 公爵街,KHMT,,,940.0,,,940.0,,,940.0,1,2,2,['whole floor'],,,940.0,2,2,1958/08,65,blank,,False,,,POINT Z (22.3261147 114.1759857 0),22.326114699999998,114.17598570000001
187,"KAI HING BLDG,ARGYLE ST|皆興大廈,亞皆老街",KHMT,4838833.334102607,7656.0,390.0,4943830.902722545,7838.0,390.0,5176802.266190978,10133.0,950.0,1,4,7,"['A', 'B', 'whole floor']",5012986.826510442,8905.166666666666,575.3333333333334,9,27,1958/07,65,blank,,False,,,POINT Z (22.3201552 114.1751354 0),22.3201552,114.1751354
188,"NG FUNG HSE,WATERLOO RD|五豐樓,窩打老道",KHMT,13059389.401292142,11867.0,1216.0,13436853.845940594,12210.0,1216.0,14255610.542204296,12954.0,1216.0,3,7,10,"['A', 'B']",13673273.510251507,12424.833333333334,1216.0,11,22,1964/01,59,blank,,False,,,POINT Z (22.3249226 114.1787 0),22.3249226,114.1787
189,"KWUN HEI COURT,SHEUNG LOK ST|冠熹苑,常樂街",KHMT,2729358.222458089,8946.0,213.0,2940061.118411695,9831.0,212.0,7089420.0,17358.0,596.0,8,20,33,"['1', '10', '11', '12', '13', '14', '15', '16', '17', '18', '19', '2', '20', '3', '4', '5', '6', '7', '8', '9']",5023877.32115939,11564.980701754386,439.6499999999999,40,800,2000/05,23,blank,,False,,,POINT Z (22.314472 114.1831818 0),22.314472,114.1831818
190,"HOVE COURT(PERTH GARDEN),PERTH ST|巴富花園(豪富閣),巴富街",KHMT,11570115.0,14739.0,785.0,12140025.0,15465.0,785.0,16299359.999999998,16632.0,980.0,8,14,21,"['A', 'B', 'C', 'D', 'E', 'F']",13822102.266666666,15694.733333333332,865.6666666666666,20,120,1980/07,43,PERTH GARDEN,巴富花園,True,3.0,360.0,POINT Z (22.3211723 114.179536 0),22.3211723,114.17953600000001
191,"GARVE COURT(PERTH GARDEN),PERTH ST|巴富花園(嘉富閣),巴富街",KHMT,10512720.0,13029.0,785.0,10759995.0,13707.0,785.0,16559060.0,16897.0,1010.0,8,15,22,"['A', 'B', 'C', 'D', 'E', 'F']",12332725.555555554,14238.61111111111,863.6666666666666,21,126,1980/07,43,PERTH GARDEN,巴富花園,True,3.0,360.0,POINT Z (22.321344 114.17981 0),22.321344,114.17981
192,"PARK HORIZON,WATERLOO RD|翠林雅軒,窩打老道",KHMT,8461605.0,14113.0,587.0,8909486.0,15044.0,587.0,12297188.0,16116.0,772.0,12,20,27,"['A', 'B']",10272929.166666666,15132.5,679.5,22,44,2006/10,17,blank,,False,,,POINT Z (22.3178207 114.1753561 0),22.3178207,114.1753561
193,11 LIBERTY AVE|11 自由道,KHMT,,,803.0,,,803.0,,,650.0,3,4,5,['whole floor'],,,752.0,4,4,1963/05,60,blank,,False,,,POINT Z (22.3186438 114.1740588 0),22.3186438,114.1740588
194,"BELFRAN MANSION,BELFRAN RD|福園,巴芬道",KHMT,15105560.507644884,15182.0,1040.0,15586128.662380261,15665.0,1040.0,15860739.036514763,15941.0,1098.0,2,6,9,"['1', '4A', '5', '5A', '6A', '7']",15517476.068846637,15596.0,1078.6666666666667,9,54,1966/10,57,blank,,False,,,POINT Z (22.3264068 114.1773067 0),22.3264068,114.1773067
195,"15 HOMANTIN HILL,HO MAN TIN HILL RD|灝畋峰,何文田山道",KHMT,75421172.89127788,22584.0,1620.0,48276721.89981463,24771.0,1620.0,159234775.06403175,29460.0,3498.0,17,28,40,"['A', 'AB', 'B', 'whole floor']",102325232.25907189,26118.166666666668,2512.8333333333335,34,136,2006/04,17,blank,,False,,,POINT Z (22.3159481 114.1765868 0),22.315948100000004,114.1765868
196,"GARTIN COURT,HO MAN TIN ST|嘉田大廈,何文田街",KHMT,10340334.083096666,7792.0,792.0,10546026.047018636,7947.0,792.0,10877787.279150845,8197.0,870.0,4,6,9,"['A', 'B', 'FRONT FLAT', 'REAR']",10814338.260928722,8626.166666666666,831.0,10,40,1964/02,59,blank,,False,,,POINT Z (22.3159534 114.175263 0),22.315953399999998,114.17526299999999
197,"BALWIN COURT(Block 5),ARGYLE ST|寶雲閣5座,亞皆老街",KHMT,8777604.0,13301.0,638.0,9109364.0,13958.0,638.0,12521660.0,15364.0,815.0,3,8,13,"['A', 'B', 'C', 'D']",10421094.0,14345.25,726.5,15,60,1976/12,47,BALWIN COURT,寶雲閣,True,5.0,299.0,POINT Z (22.3223931 114.1808481 0),22.322393100000003,114.18084809999999
198,"BALWIN COURT(Block 2),ARGYLE ST|寶雲閣2座,亞皆老街",KHMT,7354864.0,11528.0,638.0,7634308.000000001,11966.0,638.0,11222549.999999998,13770.0,815.0,3,8,13,"['A', 'B', 'C', 'D']",9535370.222222224,12555.11111111111,727.0833333333334,15,60,1976/12,47,BALWIN COURT,寶雲閣,True,5.0,299.0,POINT Z (22.3223931 114.1808481 0),22.322393100000003,114.18084809999999
199,"CHUEN FAT BLDG,VALLEY RD|全發大廈,山谷道",KHMT,3467031.485685409,12391.0,288.0,3650521.9507224355,12291.0,288.0,4784212.0,14485.0,367.0,4,11,19,"['A', 'B', 'C', 'D']",4175176.149823924,13169.666666666666,327.5,21,84,1978/12,45,blank,,False,,,POINT Z (22.3098464 114.1839017 0),22.309846399999998,114.18390169999999
200,"YEE ON COURT(Block A),WATERLOO RD|怡安閣A座,窩打老道",KHMT,,,975.0,,,975.0,,,975.0,9,15,20,"['1', '2', '3', '4']",,,975.0,17,68,1976/06,47,YEE ON COURT,怡安閣,True,3.0,320.0,POINT Z (22.3205439 114.17661 0),22.320543899999997,114.17661000000001
201,"THE HONG GARDEN,HO MAN TIN ST|康園,何文田街",KHMT,,,1141.0,10361386.93887897,9492.0,1141.0,10361386.93887897,9492.0,1141.0,1,2,2,['whole floor'],10361386.93887897,9492.0,1141.0,4,4,1956/11,67,blank,,False,,,POINT Z (22.3151011 114.1753315 0),22.315101100000003,114.1753315
202,"MOUNTAIN COURT(Block B),HO MAN TIN HILL RD|文豪閣B座,何文田山道",KHMT,14768230.331904955,15016.0,985.0,15090926.014898231,15336.0,985.0,17914239.0,17302.0,1152.0,3,6,9,"['A', 'B', 'C', 'D']",16420872.254344538,16418.722222222223,1067.25,11,44,1985/03,38,MOUNTAIN COURT,文豪閣,True,2.0,92.0,POINT Z (22.316796 114.176508 0),22.316796,114.17650800000001
203,"ONE VICTORY,VICTORY AVE|勝利道1號,勝利道",KHMT,3738040.0,15557.0,226.0,4078396.0,16770.0,226.0,15399976.000000002,18712.0,823.0,9,18,26,"['A', 'B', 'C', 'whole floor']",8834553.333333334,17115.416666666668,515.0,23,92,2011/09,12,blank,,False,,,POINT Z (22.3184736 114.1747407 0),22.3184736,114.17474070000002
204,"MOUNTAIN COURT(Block A),HO MAN TIN HILL RD|文豪閣A座,何文田山道",KHMT,15991264.798940241,17939.0,985.0,16372794.50148478,18367.0,985.0,20442505.90026146,20027.0,1152.0,3,6,10,"['A', 'B', 'C', 'D']",18333969.13608908,18972.333333333332,1067.25,12,48,1985/03,38,MOUNTAIN COURT,文豪閣,True,2.0,92.0,POINT Z (22.316796 114.176508 0),22.316796,114.17650800000001
205,19 VALLEY RD|19 山谷道,KHMT,,,177.0,,,177.0,,,760.0,1,2,3,"['C', 'whole floor']",,,468.5,3,6,1951/10,72,blank,,False,,,POINT Z (22.3095873 114.1838606 0),22.3095873,114.18386059999999
206,"CHEERBOND COURT,BOUNDARY ST|昌邦閣,界限街",KHMT,13705021.497154104,16789.0,902.0,13814406.980543148,16923.0,902.0,14349906.063402943,17579.0,902.0,3,5,7,"['A', 'B']",14002022.13177883,17152.833333333332,902.0,7,14,1991/08,32,blank,,False,,,POINT Z (22.3268522 114.1811151 0),22.3268522,114.18111509999999
207,1B LIBERTY AVE|1B 自由道,KHMT,,,988.0,,,988.0,,,988.0,0,1,2,['whole floor'],,,988.0,3,3,1955/08,68,blank,,False,,,POINT Z (22.3186438 114.1740588 0),22.3186438,114.1740588
208,"KADOORIE HILL,PRINCE EDWARD RD W|KADOORIE HILL,太子道西",KHMT,23194260.1461288,23930.0,610.0,34938267.118179075,26515.0,1102.0,36258581.79486832,27517.0,1456.0,9,16,20,"['A', 'B', 'C', 'D', 'E']",31463703.019725397,25987.333333333332,1160.1333333333334,16,80,2013/01,10,blank,,False,,,POINT Z (22.324937 114.175459 0),22.324937,114.175459
209,"KADOORIE LOOKOUT,ARGYLE ST|加多利峰,亞皆老街",KHMT,8651656.0,16232.0,533.0,9179326.0,17222.0,533.0,19365168.0,21072.0,960.0,9,16,22,"['A', 'B', 'C']",14825576.666666666,18263.88888888889,804.0,18,54,2014/03,9,blank,,False,,,POINT Z (22.3200972 114.1749058 0),22.3200972,114.17490579999999
210,"DUNBAR PLACE,DUNBAR RD|DUNBAR PLACE,登巴道",KHMT,24046827.0,19857.0,1211.0,25625971.0,21161.0,1211.0,44935650.0,24555.0,4248.0,9,16,21,"['A', 'A-C', 'B', 'C']",31563099.77777778,22089.0,2124.6666666666665,18,72,2013/08,10,blank,,False,,,POINT Z (22.3220695 114.1801687 0),22.3220695,114.1801687
211,"PAXTON,PRINCE EDWARD RD W|雋瓏,太子道西",KHMT,21160287.27378356,24539.0,935.0,22121541.57629958,26143.0,935.0,48577341.29946331,29672.0,4412.0,5,10,17,"['A', 'ABC', 'B', 'C']",36296437.02027687,27110.55555555556,2206.0,15,60,2014/03,9,blank,,False,,,POINT Z (22.326324 114.183337 0),22.326324,114.18333700000001
212,"3 JULIA AVENUE,JULIA AVE|棗梨雅道3號,棗梨雅道",KHMT,13099727.94541548,22099.0,655.0,,,655.0,,,1887.0,22,68,102,"['A', 'B', 'C']",18637261.87953837,24143.666666666668,1137.4444444444446,96,288,2015/09,8,blank,,False,,,POINT Z (22.31995 114.1751238 0),22.31995,114.1751238
213,"8 LASALLE,LA SALLE RD|傲名,喇沙利道",KHMT,15853177.301574826,20184.0,599.0,16873227.026733994,21077.0,599.0,23479380.0,30575.0,2545.0,5,10,17,"['A', 'A-C', 'AB', 'B', 'C', 'D']",23222433.600667287,23345.916666666668,1341.3333333333333,15,90,2014/07,9,blank,,False,,,POINT Z (22.3266361 114.1820819 0),22.3266361,114.18208190000001
214,"EUGENE TERRACE,EARL ST|耀爵臺,伯爵街",KHMT,16789500.630824238,18892.0,982.0,17607113.40767996,19812.0,982.0,18254093.952844054,20540.0,982.0,8,14,19,['whole floor'],17550235.997116085,19748.0,982.0,14,14,2010/11,13,blank,,False,,,POINT Z (22.326892 114.180598 0),22.326892,114.180598
215,"ULTIMA(Phase 1),Block 7,FAT KWONG ST|天鑄1期,7座,佛光街",KHMT,27201122.0,25517.0,1066.0,29555916.0,27726.0,1066.0,34332662.0,32207.0,5253.0,9,18,26,"['A', 'B', 'C', 'CD', 'D']",49717142.38571215,31680.166666666668,1828.9333333333334,23,115,2015/11,8,ULTIMA,天鑄,True,7.0,1567.0,POINT Z (22.3131109 114.1815051 0),22.313110899999998,114.1815051
216,"ULTIMA(Phase 1),Block 6,FAT KWONG ST|天鑄1期,6座,佛光街",KHMT,22663450.770841908,26724.0,900.0,22989250.602228675,28225.0,900.0,64279895.86282157,35197.0,2018.0,8,17,24,"['A', 'B', 'C', 'D']",37508576.42420074,30573.0,1331.75,21,84,2015/11,8,ULTIMA,天鑄,True,7.0,1567.0,POINT Z (22.3131109 114.1815051 0),22.313110899999998,114.1815051
217,"ULTIMA(Phase 1),Block 8,FAT KWONG ST|天鑄1期,8座,佛光街",KHMT,23148906.999600697,24565.0,902.0,25206007.134976737,27762.0,902.0,26334146.97112344,32260.0,1576.0,8,17,24,"['A', 'B', 'C', 'D']",31821349.449771974,29159.77777777778,1283.75,21,84,2015/11,8,ULTIMA,天鑄,True,7.0,1567.0,POINT Z (22.3131109 114.1815051 0),22.313110899999998,114.1815051
218,"ONE HOMANTIN(Block 1),SHEUNG FOO ST|ONE HOMANTIN1座,常富街",KHMT,9832141.0,19321.0,503.0,11421202.0,21229.0,503.0,42697200.0,29892.0,1564.0,7,18,29,"['A', 'B', 'C', 'D', 'E', 'EF', 'F', 'G']",21087462.768412437,23823.85555555556,781.625,30,240,2017/06,6,ONE HOMANTIN,ONE HOMANTIN,True,6.0,1823.0,POINT Z (22.3168383 114.1812535 0),22.3168383,114.1812535
219,"ONE HOMANTIN(Block 2),SHEUNG FOO ST|ONE HOMANTIN2座,常富街",KHMT,7324308.000000001,17707.0,372.0,7704864.0,18675.0,372.0,15319362.999999998,21979.0,697.0,4,10,16,"['A', 'B', 'C', 'D', 'E', 'F']",9976991.944444446,20076.88888888889,496.3333333333333,16,96,2017/06,6,ONE HOMANTIN,ONE HOMANTIN,True,6.0,1823.0,POINT Z (22.3168383 114.1812535 0),22.3168383,114.1812535
220,"ONE HOMANTIN(Block 3),SHEUNG FOO ST|ONE HOMANTIN3座,常富街",KHMT,9775345.0,19205.0,483.0,,,483.0,,,752.0,16,52,80,"['A', 'B', 'C', 'D', 'E', 'F', 'G']",11318332.285714285,20979.428571428572,535.5714285714286,76,532,2017/06,6,ONE HOMANTIN,ONE HOMANTIN,True,6.0,1823.0,POINT Z (22.3168383 114.1812535 0),22.3168383,114.1812535
221,"ULTIMA(Phase 2),Block 2,FAT KWONG ST|天鑄2期,2座,佛光街",KHMT,75042543.06276114,43972.0,1237.0,,,1708.0,,,2173.0,23,68,102,"['A', 'B', 'C', 'D']",79862767.8581199,45841.0,1852.4166666666667,95,380,2016/04,7,ULTIMA,天鑄,True,7.0,1567.0,POINT Z (22.3131109 114.1815051 0),22.313110899999998,114.1815051
222,"ULTIMA(Phase 2),Block 1,FAT KWONG ST|天鑄2期,1座,佛光街",KHMT,27083256.809568264,24774.0,994.0,30533328.99022534,31502.0,994.0,83301673.76836132,42852.0,2148.0,7,14,20,"['A', 'B', 'C', 'CD', 'D']",53506996.206528045,34157.86666666667,1627.5999999999997,18,90,2016/04,7,ULTIMA,天鑄,True,7.0,1567.0,POINT Z (22.3131109 114.1815051 0),22.313110899999998,114.1815051
223,"ULTIMA(Phase 2),Block 3,FAT KWONG ST|天鑄2期,3座,佛光街",KHMT,26735281.0,21613.0,1237.0,31471753.999999996,25442.0,1237.0,69040397.92908902,43894.0,3446.0,8,16,21,"['A', 'AB', 'B', 'C', 'D']",49466131.094595365,33445.22222222222,1911.4000000000003,18,90,2016/04,7,ULTIMA,天鑄,True,7.0,1567.0,POINT Z (22.3131109 114.1815051 0),22.313110899999998,114.1815051
224,"MANTIN HEIGHTS(Block 1),SHEUNG SHING ST|皓畋1座,常盛街",KHMT,7008066.0,16229.0,399.0,7750158.0,17904.0,399.0,33067444.846397478,27288.0,1339.0,6,15,22,"['A', 'AB', 'B', 'C', 'CD', 'D', 'E', 'EF', 'F', 'G', 'H', 'J']",12934429.217545623,19636.41818181818,717.5,23,276,2017/03,6,MANTIN HEIGHTS,皓畋,True,9.0,2327.0,POINT Z (22.3193908 114.1812438 0),22.3193908,114.1812438
225,"MANTIN HEIGHTS(Block 2),SHEUNG SHING ST|皓畋2座,常盛街",KHMT,9686600.0,17290.0,550.0,10409850.0,18754.0,550.0,22775665.0,24359.0,1615.0,6,15,22,"['A', 'B', 'C', 'CD', 'D', 'E', 'F', 'G', 'H']",13903002.333333334,19788.25,795.7777777777778,23,207,2017/03,6,MANTIN HEIGHTS,皓畋,True,9.0,2327.0,POINT Z (22.3193908 114.1812438 0),22.3193908,114.1812438
226,"MANTIN HEIGHTS(Block 6),SHEUNG SHING ST|皓畋6座,常盛街",KHMT,12182700.065010682,25079.0,454.0,13196401.805383248,24841.0,535.0,48061580.0,33455.0,3855.0,6,15,22,"['A', 'AB', 'B', 'C', 'D', 'E', 'F', 'G', 'H']",21119674.56415089,28500.05357142857,1133.7407407407406,23,207,2017/03,6,MANTIN HEIGHTS,皓畋,True,9.0,2327.0,POINT Z (22.3193908 114.1812438 0),22.3193908,114.1812438
227,"MANTIN HEIGHTS(Block 5),SHEUNG SHING ST|皓畋5座,常盛街",KHMT,9961070.0,17688.0,529.0,10593184.0,19283.0,529.0,22236588.0,23859.0,932.0,6,15,22,"['A', 'B', 'C', 'D', 'E', 'F', 'G', 'H']",13823828.5,20329.875,674.75,23,184,2017/03,6,MANTIN HEIGHTS,皓畋,True,9.0,2327.0,POINT Z (22.3193908 114.1812438 0),22.3193908,114.1812438
228,"ULTIMA(Phase 2),Block 5,FAT KWONG ST|天鑄2期,5座,佛光街",KHMT,27488998.77344573,24757.0,1160.0,35575745.16826105,29871.0,1160.0,59721733.59183594,38300.0,1723.0,7,15,21,"['A', 'B', 'C', 'D']",40075140.69132728,31943.333333333332,1379.75,19,76,2016/04,7,ULTIMA,天鑄,True,7.0,1567.0,POINT Z (22.3131109 114.1815051 0),22.313110899999998,114.1815051
229,"ONE HOMANTIN(Block 5),SHEUNG FOO ST|ONE HOMANTIN5座,常富街",KHMT,8827830.0,17834.0,477.0,9422820.0,19036.0,477.0,35755998.44997344,28001.0,1411.0,3,9,16,"['A', 'AE', 'B', 'C', 'D', 'E']",16642577.264208281,21812.222222222223,757.1666666666666,17,102,2017/06,6,ONE HOMANTIN,ONE HOMANTIN,True,6.0,1823.0,POINT Z (22.3168383 114.1812535 0),22.3168383,114.1812535
230,"SEVEN VICTORY AVENUE,VICTORY AVE|加多利軒,勝利道",KHMT,3429226.0,15909.0,179.0,3692581.0000000005,17064.0,179.0,7073820.0,23549.0,390.0,7,17,26,"['A', 'B', 'C', 'D', 'E', 'F', 'G', 'H', 'J', 'K']",5126679.966666666,20104.566666666666,260.7,25,250,2018/11,5,blank,,False,,,POINT Z (22.3194898 114.1744049 0),22.319489800000003,114.17440490000001
231,"MANTIN HEIGHTS(Block 8),SHEUNG SHING ST|皓畋8座,常盛街",KHMT,9577775.0,16496.0,575.0,10400025.0,18087.0,575.0,27034785.74419227,23451.0,1205.0,6,15,22,"['A', 'B', 'C', 'CD', 'D', 'E', 'EF', 'F']",12716553.010552732,18596.57142857143,742.25,21,168,2017/03,6,MANTIN HEIGHTS,皓畋,True,9.0,2327.0,POINT Z (22.3193908 114.1812438 0),22.3193908,114.1812438
232,"ONE HOMANTIN(Block 7),SHEUNG FOO ST|ONE HOMANTIN7座,常富街",KHMT,8654383.821042359,23433.0,405.0,9552736.131112443,23303.0,405.0,25987347.530604735,29871.0,966.0,4,10,16,"['A', 'B', 'C', 'CD', 'D', 'E']",16366955.657190263,25620.55555555556,698.8333333333334,16,96,2017/06,6,ONE HOMANTIN,ONE HOMANTIN,True,6.0,1823.0,POINT Z (22.3168383 114.1812535 0),22.3168383,114.1812535
233,"ONE HOMANTIN(Block 6),SHEUNG FOO ST|ONE HOMANTIN6座,常富街",KHMT,8988505.0,18533.0,485.0,9362440.0,19304.0,485.0,16083168.0,23108.0,696.0,4,10,16,"['A', 'B', 'C', 'D', 'E']",11847577.399999999,19970.2,591.6,16,80,2017/06,6,ONE HOMANTIN,ONE HOMANTIN,True,6.0,1823.0,POINT Z (22.3168383 114.1812535 0),22.3168383,114.1812535
234,"MANTIN HEIGHTS(Block 9),SHEUNG SHING ST|皓畋9座,常盛街",KHMT,12364298.176027069,21398.0,581.0,13285508.05926753,22731.0,581.0,36343219.161065415,34294.0,1171.0,7,16,22,"['A', 'B', 'C', 'CD', 'D', 'E', 'EF', 'F']",21811343.327419985,26750.291666666668,847.5833333333334,22,176,2017/03,6,MANTIN HEIGHTS,皓畋,True,9.0,2327.0,POINT Z (22.3193908 114.1812438 0),22.3193908,114.1812438
235,"MANTIN HEIGHTS(Block 10),SHEUNG SHING ST|皓畋10座,常盛街",KHMT,11725552.0,19946.0,539.0,13387192.0,22898.0,539.0,40388400.0,33217.0,1300.0,7,16,22,"['A', 'B', 'C', 'D', 'E', 'F']",20642981.38632966,26842.111111111113,754.0,22,132,2017/03,6,MANTIN HEIGHTS,皓畋,True,9.0,2327.0,POINT Z (22.3193908 114.1812438 0),22.3193908,114.1812438
236,"NAIRN COURT,PRINCESS MARGARET RD|楠苑,公主道",KHMT,12054582.901315963,9823.0,1356.0,12193254.169548549,9936.0,1356.0,14401107.316904437,10194.0,1561.0,1,2,5,['whole floor'],12882981.462589651,9984.333333333334,1424.3333333333333,6,6,1960/03,63,blank,,False,,,POINT Z (22.3207879 114.1783172 0),22.3207879,114.1783172
237,"MANTIN HEIGHTS(Block 7),SHEUNG SHING ST|皓畋7座,常盛街",KHMT,9203339.377854917,19810.0,453.0,11815158.000000002,21263.0,528.0,49482453.99999999,33502.0,1477.0,7,16,22,"['A', 'B', 'C', 'D', 'E', 'F', 'G']",19407573.14859352,24037.733333333334,817.0952380952381,22,154,2017/03,6,MANTIN HEIGHTS,皓畋,True,9.0,2327.0,POINT Z (22.3193908 114.1812438 0),22.3193908,114.1812438
238,"KADOORIA,KADOORIE AVE|KADOORIA,嘉道理道",KHMT,44930869.221644916,32648.0,1267.0,50024476.27551845,34922.0,1267.0,93461346.93036184,49017.0,2219.0,1,3,6,"['111', '113', '115', '117', '119', '121', '123', '125', '127', '129', '131', '133', 'whole floor']",66504598.159468554,40308.205128205125,1772.3589743589744,7,91,2016/06,7,blank,,False,,,POINT Z (22.3245815 114.1749941 0),22.3245815,114.17499409999999
239,"MANTIN HEIGHTS(Block 3),SHEUNG SHING ST|皓畋3座,常盛街",KHMT,11410140.0,19405.0,529.0,11766125.0,20825.0,529.0,21726278.0,30721.0,928.0,6,15,22,"['A', 'B', 'C', 'D', 'E', 'F', 'G', 'H']",16262697.22745969,22909.363095238095,720.875,23,184,2017/03,6,MANTIN HEIGHTS,皓畋,True,9.0,2327.0,POINT Z (22.3193908 114.1812438 0),22.3193908,114.1812438
240,"CRISTALLO,PRINCE EDWARD RD W|明寓,太子道西",KHMT,39269652.79652982,33276.0,1304.0,40504057.677680515,34322.0,1304.0,43402963.037391804,36610.0,2718.0,4,8,11,"['A', 'B']",41696441.92224506,35222.166666666664,1542.6666666666667,11,22,2016/10,7,blank,,False,,,POINT Z (22.3257034 114.1799919 0),22.3257034,114.1799919
241,17 VALLEY RD|17 山谷道,KHMT,7326771.228130046,12417.0,652.0,,,652.0,,,652.0,5,6,6,['whole floor'],7326771.228130046,12417.0,652.0,4,4,1964/01,59,blank,,False,,,POINT Z (22.3095873 114.1838606 0),22.3095873,114.18386059999999
242,"TIMBER HSE,WATERLOO RD|瑧樺,窩打老道",KHMT,4204236.0,18203.0,204.0,4431492.0,20138.0,204.0,10303350.0,23050.0,526.0,8,18,26,"['A1', 'A2', 'A3', 'A5', 'A6', 'B1', 'B2', 'B3', 'B5', 'B6']",5819557.759259258,21065.52314814815,308.7,24,240,2021/02,2,blank,,False,,,POINT Z (22.3178824 114.1750356 0),22.3178824,114.17503559999999
243,"LASALLE RESIDENCE,LA SALLE RD|晟林,喇沙利道",KHMT,5884461.000000001,19813.0,297.0,6396012.0,20569.0,297.0,8877353.0,21805.0,419.0,5,9,15,"['A', 'B', 'C', 'D', 'E', 'F']",7795464.611111112,20923.333333333332,373.0,13,78,2018/06,5,blank,,False,,,POINT Z (22.3266361 114.1820819 0),22.3266361,114.18208190000001
244,"GRAND HOMM(Block 2),SHEUNG SHING ST|傲玟2座,常盛街",KHMT,35108672.0,25024.0,1403.0,36548150.0,25807.0,1403.0,38445075.0,27037.0,1425.0,6,9,13,"['A', 'B']",36789718.0,26018.333333333332,1414.0,11,22,2020/11,3,GRAND HOMM,傲玟,True,2.0,52.0,POINT Z (22.3170931 114.1798338 0),22.3170931,114.1798338
245,"KWUN TAK COURT(Block B),SHEUNG LOK ST|冠德苑B座,常樂街",KHMT,3196426.6707332195,7704.0,445.0,3444505.1423436087,8439.0,445.0,4769567.446575789,9361.0,563.0,5,14,22,"['1', '2', '3', '4', '5', '6', '7', '8', '9']",3923148.8698132983,8598.074074074075,503.4444444444445,26,234,2019/09,4,KWUN TAK COURT,冠德苑,True,3.0,538.0,POINT Z (22.3143178 114.1840736 0),22.3143178,114.1840736
246,"KWUN TAK COURT(Block A),SHEUNG LOK ST|冠德苑A座,常樂街",KHMT,3466122.866155653,7934.0,482.0,3682046.7044072314,8361.0,482.0,4940764.397975155,9720.0,568.0,5,13,21,"['1', '2', '3', '4', '6', '7']",4260611.798867692,8771.277777777777,537.0,25,150,2019/09,4,KWUN TAK COURT,冠德苑,True,3.0,538.0,POINT Z (22.3143178 114.1840736 0),22.3143178,114.1840736
247,"KWUN TAK COURT(Block C),SHEUNG LOK ST|冠德苑C座,常樂街",KHMT,3415848.332174548,7956.0,468.0,3596699.8185773417,8390.0,468.0,4687528.334034006,9119.0,568.0,9,16,23,"['1', '2', '3', '4', '5', '6', '7']",4117985.108079005,8623.857142857143,527.1428571428571,22,154,2019/09,4,KWUN TAK COURT,冠德苑,True,3.0,538.0,POINT Z (22.3143178 114.1840736 0),22.3143178,114.1840736
248,"GRAND HOMM(Block 3),SHEUNG SHING ST|傲玟3座,常盛街",KHMT,24549715.049631707,25889.0,934.0,25170065.078578055,26713.0,934.0,33531768.0,32122.0,1228.0,10,14,17,"['A', 'C', 'D']",28174003.27051942,29258.0,1033.6666666666667,10,30,2020/11,3,GRAND HOMM,傲玟,True,2.0,52.0,POINT Z (22.3172996 114.1799387 0),22.317299600000002,114.17993870000001
249,"128 WATERLOO,WATERLOO RD|128 WATERLOO,窩打老道",KHMT,9965880.0,25162.0,331.0,9493411.0,28329.0,331.0,,,3445.0,7,12,18,"['A', 'B', 'C', 'D', 'E', 'F', 'G', 'H']",18761722.56547619,30426.01785714286,726.2916666666666,16,128,2022/02,1,blank,,False,,,POINT Z (22.3266882 114.1788394 0),22.3266882,114.17883940000002
