,final_address,district,lowZone_value,lowZone_npsf_min,lowZone_nfa_min,midZone_value,midZone_npsf_min,midZone_nfa_min,highZone_value,highZone_npsf_max,highZone_nfa_max,oneSixth_floor,middle_floor,fifthSixth_floor,unit_list,value_avg,npsf_avg,unitSize_avg,noStorey,noFlat,op_date,bldgAge,est_name_en,est_name_ch,est_orNot,est_bldgNo,est_flatNo,final_coords,lat,long
0,"FAIR WAY GARDEN(Block D),PEACE AVE|富威花園D座,太平道",KHMT,4374425.0,15907.0,274.0,4165707.0,15259.0,273.0,5031060.0,17988.0,284.0,8.0,16.0,23.0,"['1', '2', '3', '4']",4628783.333333333,16794.583333333332,275.5833333333333,24,96,1984/10,37,FAIR WAY GARDEN,富威花園,True,3.0,276.0,POINT Z (22.3192831 114.1738234 0),22.3192831,114.17382340000002
1,"CHAMPION HSE,PEACE AVE|正平大廈,太平道",KHMT,8951140.0,15433.0,580.0,9521280.0,16416.0,580.0,12824700.0,18321.0,700.0,6.0,13.0,20.0,"['A', 'B', 'C', 'D', 'E', 'F']",10129529.333333334,16635.733333333334,603.3333333333334,20,120,1971/06,50,blank,,False,,,POINT Z (22.3181782 114.1741949 0),22.318178200000002,114.1741949
2,"PEACE GARDEN,PEACE AVE|太平花園,太平道",KHMT,4955640.0,15556.0,305.0,4670160.0,15312.0,305.0,6513960.0,19212.0,380.0,7.0,15.0,23.0,"['A', 'B', 'C', 'D']",5797328.75,16977.0,342.5,25,100,1994/05,27,blank,,False,,,POINT Z (22.31788 114.1744272 0),22.31788,114.17442720000001
3,"YEE FU BLDG,VALLEY RD|怡富大廈,山谷道",KHMT,3950500.0,15802.0,250.0,3946250.0,15785.0,250.0,4596251.0,18167.0,253.0,5.0,13.0,21.0,"['A', 'B', 'C', 'D']",4206996.416666667,16726.666666666668,251.5,25,100,1985/05,36,blank,,False,,,POINT Z (22.3097793 114.1834039 0),22.3097793,114.18340390000002
4,"HARRISON COURT(Phase 4),MAN WAN RD|恒信園4期,文運道",KHMT,9125488.09104693,11909.0,740.0,10927750.916652976,14261.0,740.0,11928060.0,16119.0,850.0,4.0,10.0,17.0,"['A', 'B', 'C', 'D']",11286892.581359943,14417.444444444445,767.5,20,80,1971/09,50,HARRISON COURT,恒信園,True,5.0,330.0,POINT Z (22.3187474 114.1780498 0),22.3187474,114.1780498
5,"PEACE BLDG(Block A),PEACE AVE|金富大廈A座,太平道",KHMT,6227406.0,14318.0,433.0,6410998.0,14806.0,433.0,7690865.0,17010.0,455.0,4.0,13.0,22.0,"['1', '2', '3', '4', 'A2', 'A3', 'A4']",6904724.571428572,15448.285714285716,447.0952380952381,27,189,1980/01,41,PEACE BLDG,金富大廈,True,2.0,373.0,POINT Z (22.318375 114.174056 0),22.318375,114.17405600000001
6,"PEACE BLDG(Block B),PEACE AVE|金富大廈B座,太平道",KHMT,6166786.0,14003.0,433.0,6522279.0,14730.0,433.0,7231315.0,16178.0,455.0,8.0,15.0,22.0,"['1', '2', '3', '4', 'B1', 'B2', 'B3', 'B4']",6670217.75,15010.416666666666,444.5,23,184,1980/01,41,PEACE BLDG,金富大廈,True,2.0,373.0,POINT Z (22.3193087 114.1735982 0),22.3193087,114.1735982
7,"PEACE TOWER,PEACE AVE|太平居,太平道",KHMT,5441150.0,16742.0,317.0,5725850.0,17618.0,317.0,6664417.999999999,20443.0,326.0,9.0,17.0,25.0,"['A', 'B', 'C', 'D']",5952694.333333333,18531.916666666668,321.25,23,92,1998/11,23,blank,,False,,,POINT Z (22.3189162 114.1738002 0),22.318916199999997,114.17380020000002
8,"TSAN YUNG MANSION,WATERLOO RD|曾榕大廈,窩打老道",KHMT,13304176.43964252,11300.0,802.0,12504099.235535316,11968.0,802.0,,,1090.0,3.0,7.0,10.0,"['A', 'B', 'C', 'D', 'E', 'F']",13155160.571849786,11819.75,970.0,11,66,1964/07,57,blank,,False,,,POINT Z (22.3172581 114.1749148 0),22.3172581,114.17491480000001
9,"PRINCE PARK,PRINCE EDWARD RD W|皇子花園,太子道西",KHMT,8359453.1875901185,8695.0,482.0,9192994.983293468,9562.0,482.0,9784240.006119257,16277.0,515.0,4.0,8.0,12.0,"['A', 'B', 'C']",9057432.674809687,10437.666666666666,504.0,13,39,1993/08,28,blank,,False,,,POINT Z (22.3255227 114.1754489 0),22.325522699999997,114.1754489
10,"YEE KING BLDG,WATERLOO RD|怡景大廈,窩打老道",KHMT,5111288.0,13039.0,392.0,5508776.0,14053.0,392.0,7320900.0,16558.0,470.0,5.0,13.0,21.0,"['A', 'B', 'C', 'D', 'E', 'F']",6427697.666666667,14556.333333333334,441.5555555555556,24,144,1977/03,44,blank,,False,,,POINT Z (22.3183083 114.1747523 0),22.3183083,114.17475230000001
11,"MANDARIN GARDEN,MAN FUK RD|仁華園,文福道",KHMT,10331035.0,14394.0,715.0,10737155.0,14974.0,715.0,11330034.0,15802.0,724.0,4.0,9.0,15.0,"['A', 'B', 'C', 'D']",10890772.5,15089.5,721.8333333333334,17,68,1966/05,55,blank,,False,,,POINT Z (22.3194819 114.1775389 0),22.3194819,114.1775389
12,"MAN KEE MANSION,WATERLOO RD|萬基大廈,窩打老道",KHMT,9152620.0,11615.0,772.0,9559674.0,12306.0,773.0,11265234.0,13599.0,838.0,9.0,16.0,22.0,"['A', 'B', 'C', 'D', 'E', 'F', 'G', 'H']",10057761.333333334,12676.416666666666,793.2083333333334,20,160,1966/05,55,blank,,False,,,POINT Z (22.3199514 114.1769119 0),22.3199514,114.1769119
13,"MENON MANSION,HO MAN TIN ST|文安大廈,何文田街",KHMT,4906792.0,17908.0,271.0,5067081.999999999,18493.0,271.0,5453148.0,19902.0,274.0,3.0,6.0,10.0,"['A', 'B', 'C', 'D']",5147699.583333333,18890.833333333332,272.5,12,48,1980/10,41,blank,,False,,,POINT Z (22.3164748 114.1752516 0),22.3164748,114.17525159999998
14,"MANDARIN COURT(Block 4),ARGYLE ST|翠華大廈4座,亞皆老街",KHMT,10841325.0,11595.0,935.0,11093775.0,11865.0,935.0,24159150.0,13059.0,1850.0,3.0,6.0,10.0,"['A', 'A & B', 'B', 'C', 'D']",15250385.333333334,12193.866666666669,1242.6666666666667,12,60,1961/12,60,MANDARIN COURT,翠華大廈,True,3.0,156.0,POINT Z (22.3214855 114.1789322 0),22.3214855,114.17893219999999
15,"ORIENTAL GARDEN(Block C),PRINCE EDWARD RD W|東方花園C座,太子道西",KHMT,11768365.69326983,4541.0,905.0,12351471.238521032,4766.0,905.0,16005141.142170178,11177.0,1065.0,3.0,6.0,10.0,"['C1', 'C2', 'C3', 'C4', 'D1', 'D4']",14353642.274667315,7628.083333333333,985.0,12,72,1967/01,54,ORIENTAL GARDEN,東方花園,True,2.0,116.0,POINT Z (22.3257145 114.1760295 0),22.3257145,114.1760295
16,"PERTH APTS(Block B1),PERTH ST|巴富洋樓B1座,巴富街",KHMT,19110210.0,16059.0,1190.0,19637380.0,16502.0,1190.0,20517980.0,17242.0,1190.0,3.0,6.0,10.0,"['A', 'B', 'C', 'D']",19764313.333333332,16608.666666666668,1190.0,12,48,1974/12,47,PERTH APTS,巴富洋樓,True,3.0,144.0,POINT Z (22.3219259 114.1811151 0),22.3219259,114.18111509999999
17,"PERTH APTS(Block B3),PERTH ST|巴富洋樓B3座,巴富街",KHMT,22440444.0,16549.0,1356.0,22973351.999999996,16942.0,1356.0,24619536.0,18156.0,1356.0,3.0,6.0,10.0,"['A', 'B', 'C', 'D']",23391113.0,17250.083333333332,1356.0,12,48,1974/02,47,PERTH APTS,巴富洋樓,True,3.0,144.0,POINT Z (22.3219259 114.1811151 0),22.3219259,114.18111509999999
18,"GREENFIELD TERR(Block B),HO MAN TIN HILL RD|嘉輝臺B座,何文田山道",KHMT,12819190.793728266,12137.0,932.0,12993009.417272476,12374.0,932.0,14935861.74912538,15183.0,1020.0,5.0,11.0,18.0,"['1', '2', '3']",13743944.5525708,13663.88888888889,969.5555555555557,19,57,1978/11,43,GREENFIELD TERR,嘉輝臺,True,2.0,201.0,POINT Z (22.313525 114.1766212 0),22.313525,114.1766212
19,"SPRING HEIGHTS,BOUNDARY ST|春秋閣,界限街",KHMT,11813360.220752746,14441.0,790.0,12295187.599052265,15030.0,790.0,12974163.361341912,15860.0,790.0,3.0,8.0,13.0,"['A', 'B']",12403441.967577964,15162.333333333334,790.0,15,30,1973/08,48,blank,,False,,,POINT Z (22.3267123 114.177028 0),22.3267123,114.177028
20,"CLASSIC MANSION,SOARES AVE|典雅大廈,梭椏道",KHMT,4789168.0,13922.0,344.0,5385320.0,15655.0,344.0,5393232.0,15678.0,344.0,6.0,12.0,19.0,"['A', 'B']",5211886.666666667,15150.833333333334,344.0,20,40,1992/10,29,blank,,False,,,POINT Z (22.3192472 114.1749497 0),22.3192472,114.1749497
21,"KIN FUNG COURT,VICTORY AVE|建豐閣,勝利道",KHMT,5796252.0,15708.0,369.0,6091452.0,16508.0,369.0,6572628.0,17812.0,369.0,6.0,13.0,20.0,"['A', 'B']",6189606.0,16774.0,369.0,23,46,1994/09,27,blank,,False,,,POINT Z (22.3198167 114.1741717 0),22.319816699999997,114.17417169999999
22,"SUNVIEW GARDEN,SHEUNG SHING ST|日麗園,常盛街",KHMT,18232834.264516745,12577.0,1400.0,19059161.332241524,13147.0,1400.0,20050753.81351126,13831.0,1400.0,5.0,11.0,18.0,"['A', 'B']",19192533.420365527,13239.0,1400.0,19,38,1974/10,47,blank,,False,,,POINT Z (22.3196636 114.1844706 0),22.319663600000002,114.1844706
23,"HANNOVER COURT,WATERLOO RD|恒懋大樓,窩打老道",KHMT,15028424.877676656,12196.0,1150.0,15342646.617903579,12451.0,1150.0,17225250.0,14475.0,1190.0,3.0,6.0,10.0,"['89', 'whole floor']",15896695.87935952,13292.833333333334,1176.6666666666667,12,24,1963/03,58,blank,,False,,,POINT Z (22.3245021 114.1780498 0),22.3245021,114.1780498
24,"TAK WAI MANSION(Block 1),MAN FUK RD|德威大廈1座,文福道",KHMT,8832206.182854507,11896.0,717.0,8915360.780406602,12008.0,717.0,10134466.576661402,13650.0,717.0,4.0,8.0,14.0,"['A', 'B', 'C', 'D']",9387621.973200597,12644.083333333334,717.0,16,64,1965/07,56,TAK WAI MANSION,德威大廈,True,2.0,132.0,POINT Z (22.3192642 114.1781475 0),22.3192642,114.17814750000001
25,"PRINCE'S HEIGHTS(Phase 1),PRINCE EDWARD RD W|太子閣1期,太子道西",KHMT,14807820.0,14027.0,940.0,15025900.0,14141.0,940.0,19068714.832901713,16497.0,1149.0,3.0,6.0,10.0,"['A', 'B', 'C', 'D']",16785109.21701862,15378.666666666666,1037.8333333333333,12,48,1972/02,49,PRINCE'S HEIGHTS,太子閣,True,2.0,96.0,POINT Z (22.32571 114.1795394 0),22.32571,114.17953940000001
26,"K.C.C. BLDG,LIBERTY AVE|九龍總商會大廈,自由道",KHMT,6709744.724997847,12582.0,515.0,7048378.320640323,13217.0,515.0,9851775.737702925,15062.0,663.0,9.0,16.0,22.0,"['A', 'B', 'C', 'F']",8103560.190463248,14039.833333333334,557.0,22,88,1984/08,37,blank,,False,,,POINT Z (22.318505 114.1743343 0),22.318505,114.17433429999998
27,"CHEERWORLD COURT,BELFRAN RD|昌和閣,巴芬道",KHMT,14048925.0,17029.0,825.0,14479575.000000002,17551.0,825.0,14911050.0,18074.0,825.0,3.0,7.0,11.0,['whole floor'],14479850.0,17551.333333333332,825.0,13,13,1994/03,27,blank,,False,,,POINT Z (22.3260947 114.1770745 0),22.3260947,114.17707450000002
28,"HARRISON COURT(Phase 6),MAN WAN RD|恒信園6期,文運道",KHMT,14870110.0,14437.0,1030.0,14075980.0,13666.0,1030.0,21688800.0,15492.0,1400.0,4.0,10.0,17.0,"['A', 'B', 'C', 'D']",17781683.333333332,14589.083333333334,1215.0,20,80,1972/01,49,HARRISON COURT,恒信園,True,5.0,330.0,POINT Z (22.3183407 114.177864 0),22.3183407,114.17786399999999
29,"DRAGON COURT,WATERLOO RD|龍騰閣,窩打老道",KHMT,7934929.034928067,8837.0,720.0,8061535.91440355,8978.0,720.0,9284357.335572395,9884.0,778.0,3.0,6.0,10.0,"['104', '106', '111', '113', '115', '121', '16', '22', '25', '34', '36', '45', '53', '55', '61', '66', '71', '72', '74', '76', '82', '83', '84', '92', '93', '94', '96']",8480350.533140687,9141.666666666666,743.7037037037038,12,324,1967/02,54,blank,,False,,,POINT Z (22.3233158 114.1785203 0),22.3233158,114.1785203
30,"VALIANT COURT,PEACE AVE|華欣閣,太平道",KHMT,4674300.0,15581.0,300.0,4589700.0,15299.0,300.0,6363775.0,18095.0,365.0,5.0,12.0,19.0,"['A', 'B', 'C', 'D', 'E', 'F']",5370697.777777779,16614.44444444444,323.3333333333333,23,138,1979/12,42,blank,,False,,,POINT Z (22.3183745 114.1740556 0),22.3183745,114.17405559999999
31,"MIAMI MANSION,WATERLOO RD|美佳大廈,窩打老道",KHMT,,,1020.0,,,992.0,,,1046.0,3.0,7.0,10.0,"['1', '2', '3', '4']",,,1026.0,11,44,1975/03,46,blank,,False,,,POINT Z (22.326631 114.1780963 0),22.326631,114.17809629999999
32,"KNIGHT COURT,KNIGHT ST|勵德閣,勵德街",KHMT,,,550.0,,,550.0,,,550.0,3.0,8.0,11.0,"['A', 'B']",,,550.0,12,24,1980/09,41,blank,,False,,,POINT Z (22.3260427 114.1765055 0),22.3260427,114.17650549999999
33,"HARRISON COURT(Phase 5),MAN WAN RD|恒信園5期,文運道",KHMT,13285970.0,12711.0,1030.0,13897790.0,13322.0,1030.0,21312000.0,14800.0,1440.0,4.0,10.0,17.0,"['A', 'B', 'C', 'D']",16921187.5,13706.083333333334,1235.0,20,80,1972/01,49,HARRISON COURT,恒信園,True,5.0,330.0,POINT Z (22.3184718 114.1775854 0),22.3184718,114.1775854
34,"EDWARD COURT,MAN WAN RD|德星樓,文運道",KHMT,9056520.0,13409.0,660.0,9496080.0,14024.0,660.0,13288590.0,15120.0,890.0,4.0,10.0,17.0,"['A', 'B', 'C']",11566361.111111112,14237.22222222222,813.3333333333334,20,60,1965/12,56,blank,,False,,,POINT Z (22.318995 114.1775854 0),22.318995,114.1775854
35,"HOMESTEAD,PRINCE EDWARD RD W|碧廬,太子道西",KHMT,16678759.498550143,10738.0,1500.0,17115221.72793109,11019.0,1500.0,17522172.276321866,11281.0,1500.0,4.0,7.0,10.0,"['A', 'B']",17110044.24003808,11015.666666666666,1500.0,11,22,1983/10,38,blank,,False,,,POINT Z (22.3260925 114.1787465 0),22.326092499999998,114.1787465
36,"YEN YEE MANSION,SOARES AVE|仁儀苑,梭椏道",KHMT,5529505.294858313,13870.0,368.0,5787205.435254797,15187.0,368.0,6109203.762297025,16032.0,385.0,7.0,13.0,19.0,"['A', 'B', 'C']",5855482.34876339,15043.666666666666,376.0,19,57,1978/10,43,blank,,False,,,POINT Z (22.3198851 114.1747058 0),22.319885100000004,114.1747058
37,"CARRIE COURT,MAN FUK RD|嘉景樓,文福道",KHMT,8864610.0,14414.0,615.0,9041730.0,14702.0,615.0,11340196.0,17609.0,644.0,4.0,9.0,14.0,"['A', 'B', 'C', 'D']",9937669.916666666,15803.0,628.25,17,68,1966/01,55,blank,,False,,,POINT Z (22.3189723 114.178282 0),22.3189723,114.17828200000001
38,"KIU WANG MANSION,HOK YU LANE|僑宏大廈,學餘里",KHMT,9824303.9869426,11032.0,860.0,11185921.172950145,11706.0,860.0,14105142.100672169,13608.0,1001.0,4.0,9.0,14.0,"['A', 'B', 'C', 'D', 'E', 'F']",11981224.698703408,12146.983333333332,954.0,17,102,1965/10,56,blank,,False,,,POINT Z (22.3201079 114.1780614 0),22.3201079,114.1780614
39,"STAR COURT,MAN WAN RD|文星樓,文運道",KHMT,16452795.287942668,12194.0,1303.0,,,1303.0,15843176.999999998,12159.0,1303.0,3.0,10.0,17.0,"['A', 'B', 'C', 'D']",16253565.218211249,12254.75,1303.0,20,80,1966/04,55,blank,,False,,,POINT Z (22.3188576 114.1770745 0),22.3188576,114.17707450000002
40,"ARRAN COURT,SHEK KU ST|毅廬,石鼓街",KHMT,9705428.864919035,12752.0,735.0,10385843.968842939,13646.0,735.0,11232176.849786319,14758.0,1470.0,4.0,10.0,17.0,"['A', 'A & B', 'B', 'C', 'D']",10591275.039089913,13915.916666666666,882.0,20,100,1979/08,42,blank,,False,,,POINT Z (22.3205504 114.1798442 0),22.3205504,114.1798442
41,"RICHLAND HSE,WATERLOO RD|芝齡大廈,窩打老道",KHMT,5280178.187882408,12437.0,410.0,5552130.916950776,12616.0,425.0,8673326.682876794,14669.0,585.0,7.0,12.0,18.0,"['A', 'B', 'C']",7295562.674510054,13507.88888888889,525.3333333333334,18,54,1975/06,46,blank,,False,,,POINT Z (22.3198725 114.1760295 0),22.3198725,114.1760295
42,"KINGSLAND VILLA(Block A),MAN FUK RD|瓊林別墅A座,文福道",KHMT,9863800.0,13240.0,745.0,10243750.000000002,13750.0,745.0,11351565.0,15237.0,745.0,4.0,9.0,14.0,"['1', '2', '3', '4']",10546716.666666666,14156.666666666666,745.0,17,68,1966/05,55,KINGSLAND VILLA,瓊林別墅,True,2.0,136.0,POINT Z (22.3196152 114.1780717 0),22.3196152,114.17807169999999
43,"DOMINION COURT,WATERLOO RD|高明大廈,窩打老道",KHMT,12240556.817800356,12237.0,966.0,13044864.0,13292.0,966.0,14010070.996985517,14006.0,966.0,3.0,6.0,9.0,"['A', 'B', 'C', 'D']",13215219.548822043,13289.416666666666,966.0,11,44,1970/04,51,blank,,False,,,POINT Z (22.3251407 114.1787 0),22.325140700000002,114.1787
44,"SUNSHINE BLDG,VICTORY AVE|新勝大樓,勝利道",KHMT,6005959.0,13681.0,439.0,6308430.0,14370.0,439.0,7975992.0,15955.0,519.0,6.0,12.0,18.0,"['A', 'B', 'C', 'D']",7063608.222222221,14799.11111111111,477.8333333333333,19,76,1975/12,46,blank,,False,,,POINT Z (22.319949 114.1744528 0),22.319948999999998,114.1744528
45,"LUCKY COURT,WATERLOO RD|幸運閣,窩打老道",KHMT,15272226.569573138,11594.0,1271.0,15630210.508466959,11876.0,1271.0,16710445.72445538,12300.0,1312.0,3.0,6.0,10.0,"['A', 'B', 'C', 'D']",15947621.236070117,11924.5,1291.5,12,48,1974/06,47,blank,,False,,,POINT Z (22.3253378 114.1780034 0),22.3253378,114.1780034
46,"LA BELLE MANSION,ARGYLE ST|利寶大廈,亞皆老街",KHMT,8984772.0,9972.0,901.0,9343370.0,10370.0,901.0,13048695.0,11745.0,1171.0,2.0,7.0,12.0,"['A', 'B', 'C', 'D', 'E', 'F', 'G', 'H']",10943099.75,10573.125,1033.3333333333333,15,120,1964/07,57,blank,,False,,,POINT Z (22.3201565 114.1756115 0),22.3201565,114.1756115
47,"FAIR WAY GARDEN(Block C),PEACE AVE|富威花園C座,太平道",KHMT,4767273.0,17087.0,279.0,4808565.0,17235.0,279.0,6605580.0,19443.0,356.0,9.0,16.0,23.0,"['1', '2', '3', '4', '5', '6']",5782515.555555556,17974.88888888889,322.0,23,138,1984/10,37,FAIR WAY GARDEN,富威花園,True,3.0,276.0,POINT Z (22.3191084 114.1741021 0),22.319108399999998,114.1741021
48,"IMPERIAL COURT,WATERLOO RD|帝國大廈,窩打老道",KHMT,,,722.0,,,722.0,,,1130.0,3.0,7.0,11.0,"['A', 'B', 'C', 'D', 'E', 'F', 'G', 'H', 'whole floor']",,,932.5555555555555,13,117,1960/06,61,blank,,False,,,POINT Z (22.3200902 114.1763082 0),22.3200902,114.1763082
49,"MANNER COURT,HO MAN TIN ST|文雅閣,何文田街",KHMT,4266117.0,15520.0,249.0,4708396.099432112,15898.0,249.0,7825130.941789508,18957.0,460.0,3.0,6.0,10.0,"['A', 'B', 'C']",6118914.409492469,17480.111111111113,347.6666666666667,12,36,1989/05,32,blank,,False,,,POINT Z (22.3165656 114.1752283 0),22.3165656,114.1752283
50,"FORUM COURT,PEACE AVE|富臨閣,太平道",KHMT,5983879.999999999,13871.0,430.0,6321430.0,14463.0,430.0,6791420.0,15794.0,440.0,5.0,12.0,19.0,"['A', 'B', 'C', 'D']",6359539.666666667,14671.333333333334,433.5,23,92,1979/01,42,blank,,False,,,POINT Z (22.3194868 114.1736376 0),22.3194868,114.17363759999999
51,"GALLANT GARDEN MANSION,HO MAN TIN ST|嘉景花園大廈,何文田街",KHMT,10260816.0,14168.0,723.0,10492176.0,14488.0,723.0,13769700.0,16590.0,830.0,3.0,6.0,10.0,"['A', 'B', 'C', 'D', 'E']",11696846.133333333,14994.6,778.8666666666667,12,60,1971/07,50,blank,,False,,,POINT Z (22.3156848 114.1750774 0),22.3156848,114.17507739999999
52,"HING YIP KING'S BLDG,PRINCE EDWARD RD W|皇帝大廈,太子道西",KHMT,11656527.951405238,2690.0,987.0,12200061.90737209,3561.0,987.0,14094899.99412221,13791.0,1030.0,3.0,6.0,8.0,"['A', 'B', 'C']",12917497.152106673,8373.666666666666,1015.6666666666666,8,24,1965/03,56,blank,,False,,,POINT Z (22.3259583 114.1812544 0),22.3259583,114.1812544
53,"MANSION COURT,HO MAN TIN ST|文翠閣,何文田街",KHMT,9430400.0,16733.0,560.0,9297774.17817481,16034.0,560.0,9513489.03374928,16406.0,560.0,5.0,8.0,11.0,"['A', 'B']",9554825.979080055,16573.5,560.0,9,18,1990/05,31,blank,,False,,,POINT Z (22.3160695 114.1754025 0),22.3160695,114.17540249999999
54,"SUNLIGHT GARDEN,MAN WAN RD|明德園,文運道",KHMT,15824340.0,7412.0,1260.0,16522380.0,7646.0,1205.0,23689907.298488107,13691.0,1610.0,5.0,11.0,17.0,"['A', 'B', 'C']",19757528.1778592,10383.833333333334,1375.6666666666667,19,57,1964/00,57,blank,,False,,,POINT Z (22.3189451 114.1767958 0),22.3189451,114.1767958
55,"GRANDCO MANSION,PRINCE EDWARD RD W|寶堡大廈,太子道西",KHMT,8178540.026227723,11465.0,572.0,8445332.348060185,11839.0,572.0,14459418.0,17442.0,829.0,3.0,7.0,10.0,"['A', 'B', 'C', 'D']",11291890.597494325,14941.916666666666,713.0,11,44,1995/03,26,blank,,False,,,POINT Z (22.3258503 114.1805578 0),22.3258503,114.1805578
56,"WATERLOO HEIGHTS GARDEN,MAN WAN RD|德信園,文運道",KHMT,8465184.0,14914.0,532.0,8539664.0,14809.0,532.0,10391576.0,16888.0,652.0,5.0,11.0,18.0,"['A', 'B', 'C', 'D']",9065000.777777778,15776.527777777776,589.0,19,76,1965/12,56,blank,,False,,,POINT Z (22.3192496 114.1773532 0),22.319249600000003,114.17735320000001
57,"TAI GARDEN,PRINCE EDWARD RD W|泰園,太子道西",KHMT,6828284.43769743,2951.0,550.0,6779692.782939163,2930.0,550.0,15318670.0,15167.0,1010.0,3.0,6.0,9.0,"['A', 'B', 'C']",12127086.964805668,10718.333333333334,856.6666666666666,11,33,1973/08,48,blank,,False,,,POINT Z (22.3257997 114.1803256 0),22.3257997,114.1803256
58,"HARRISON COURT(Phase 2),WATERLOO RD|恒信園2期,窩打老道",KHMT,16397534.340980548,6365.0,1380.0,17360265.54302358,4393.0,1380.0,18158529.517458078,4595.0,1380.0,3.0,6.0,8.0,['whole floor'],17305443.13382074,5117.666666666667,1380.0,10,10,1966/02,55,HARRISON COURT,恒信園,True,5.0,330.0,POINT Z (22.318833 114.177849 0),22.318832999999998,114.177849
59,"HUNG HING COURT,VALLEY RD|鴻興閣,山谷道",KHMT,5084820.0,12402.0,410.0,5395600.0,13160.0,410.0,5361160.0,13076.0,410.0,6.0,13.0,20.0,['whole floor'],5280526.666666667,12879.333333333334,410.0,21,21,1992/11,29,blank,,False,,,POINT Z (22.3097572 114.183983 0),22.3097572,114.18398300000001
60,"CYPRESS GARDEN,HO MAN TIN HILL RD|龍柏花園,何文田山道",KHMT,11837282.0,15903.0,622.0,12467368.0,16615.0,622.0,25189224.15776192,19320.0,2200.0,5.0,11.0,19.0,"['A', 'A-C', 'B', 'B & C', 'B+C', 'B-C', 'BC', 'C']",19257742.19166584,17921.52380952381,1211.375,19,152,1996/08,25,blank,,False,,,POINT Z (22.3169114 114.1761456 0),22.3169114,114.1761456
61,"PINE MANOR,WATERLOO RD|松亭閣,窩打老道",KHMT,8306280.0,15382.0,540.0,8659980.0,16037.0,540.0,,,720.0,6.0,12.0,19.0,"['A', 'B', 'C']",8523360.0,15784.0,604.4444444444445,20,60,1979/11,42,blank,,False,,,POINT Z (22.3175312 114.1744272 0),22.3175312,114.17442720000001
62,"KAISER'S MANSION,PRINCE EDWARD RD W|國城大廈,太子道西",KHMT,10432534.554662125,9159.0,1051.0,10706773.662384048,9428.0,1051.0,11268595.299625766,10058.0,1100.0,2.0,5.0,8.0,"['A', 'B', 'C']",10813242.71802895,9640.555555555557,1083.6666666666667,9,27,1964/09,57,blank,,False,,,POINT Z (22.3259514 114.1810222 0),22.3259514,114.1810222
63,"GREENFIELD TERR(Block A),HO MAN TIN HILL RD|嘉輝臺A座,何文田山道",KHMT,9638370.0,15299.0,630.0,10112760.0,16052.0,630.0,12915890.0,17693.0,730.0,5.0,12.0,20.0,"['1', '2', '3', '4', '5', '6']",10984832.5,16449.277777777777,667.3333333333334,24,144,1978/11,43,GREENFIELD TERR,嘉輝臺,True,2.0,201.0,POINT Z (22.313525 114.1766212 0),22.313525,114.1766212
64,"PARC REGAL(Block 2),HO MAN TIN HILL RD|賀龍居2座,何文田山道",KHMT,11085035.900616758,12545.0,685.0,11682172.15944314,13297.0,685.0,24087058.5892255,14680.0,1603.0,3.0,10.0,16.0,"['A', 'A & B', 'A&B', 'A-B', 'AB', 'B', 'C', 'C & D', 'CD', 'D']",16959297.879756704,13588.733333333332,1222.3333333333333,18,180,1995/05,26,PARC REGAL,賀龍居,True,3.0,450.0,POINT Z (22.3150144 114.1765636 0),22.315014399999995,114.1765636
65,"HELENA GARDEN,PRINCE EDWARD RD W|海倫苑,太子道西",KHMT,15459586.394952735,12971.0,1151.0,16161590.587892922,13560.0,1151.0,17637236.76725617,14410.0,1182.0,2.0,8.0,13.0,"['A', 'B', 'C', 'D']",16427486.461513473,13618.77777777778,1166.5,15,60,1991/08,30,blank,,False,,,POINT Z (22.3255257 114.1787465 0),22.3255257,114.1787465
66,"LUNG CHEUNG BLDG,WATERLOO RD|龍翔大廈,窩打老道",KHMT,7055478.7275368,11394.0,598.0,7417931.87397987,11880.0,603.0,7563864.547732317,12215.0,899.0,3.0,8.0,12.0,"['A', 'B', 'C', 'D']",7345758.383082996,11829.666666666666,753.8333333333334,14,56,1965/01,56,blank,,False,,,POINT Z (22.3170586 114.1746594 0),22.3170586,114.17465940000001
67,"PARC REGAL(Block 3),HO MAN TIN HILL RD|賀龍居3座,何文田山道",KHMT,11382645.0,7973.0,685.0,11991610.0,8452.0,685.0,40776435.47315749,19141.0,1603.0,3.0,10.0,16.0,"['A', 'AB', 'B', 'C', 'C & D', 'CD', 'D']",20759443.470624816,14410.380952380952,1045.142857142857,18,126,1995/05,26,PARC REGAL,賀龍居,True,3.0,450.0,POINT Z (22.3152907 114.1764707 0),22.315290700000002,114.1764707
68,"KAM BIT BLDG,VICTORY AVE|金碧大廈,勝利道",KHMT,4824805.701721024,14934.0,312.0,4868420.859731761,15069.0,312.0,5321159.999999999,17055.0,312.0,7.0,12.0,18.0,"['A', 'B']",4974444.602176116,15676.666666666666,312.0,18,36,1984/01,37,blank,,False,,,POINT Z (22.3193183 114.1747058 0),22.319318300000003,114.1747058
69,"LAI SZE COURT,HO MAN TIN ST|麗思閣,何文田街",KHMT,11085322.736533616,7269.0,870.0,11328360.055999558,10441.0,870.0,12421332.479096819,10732.0,870.0,3.0,6.0,10.0,"['A', 'B']",11602209.132058764,9458.0,870.0,12,24,1973/03,48,blank,,False,,,POINT Z (22.3167165 114.1751703 0),22.316716500000002,114.1751703
70,"WEI KING BLDG,CHATHAM RD N|蔚景樓,漆咸道北",KHMT,5223990.0,13289.0,345.0,5267500.0,14414.0,345.0,6576360.0,16584.0,420.0,10.0,16.0,22.0,"['A', 'B', 'C', 'D', 'E', 'F', 'G', 'H']",5781907.291666667,15108.708333333334,383.75,19,152,1975/08,46,blank,,False,,,POINT Z (22.3095747 114.1835907 0),22.3095747,114.18359070000001
71,"DUCHY HEIGHTS,DUKE ST|公爵閣,公爵街",KHMT,15122515.000000002,15671.0,965.0,15576065.0,16141.0,965.0,16149275.0,16735.0,1030.0,4.0,8.0,13.0,"['A', 'B', 'C', 'D']",15615951.666666666,16182.333333333334,990.5,16,64,1972/05,49,blank,,False,,,POINT Z (22.3263068 114.1760063 0),22.3263068,114.17600630000001
72,"SUNFIELD COURT,PEACE AVE|新雅閣,太平道",KHMT,8037123.183568901,12223.0,635.0,8473072.841648439,12886.0,635.0,9128133.78736026,13667.0,645.0,5.0,12.0,19.0,"['A', 'B']",8604699.253437843,12983.166666666666,640.0,21,42,1978/07,43,blank,,False,,,POINT Z (22.3176766 114.1743343 0),22.3176766,114.17433429999998
73,"CAMBRIDGE COURT,WATERLOO RD|冠華園,窩打老道",KHMT,11759866.415842142,10535.0,1055.0,11623667.419328557,10640.0,1055.0,14134165.02680524,12662.0,1078.0,9.0,16.0,22.0,"['A1', 'A2', 'A3', 'B1', 'B2', 'B3']",12763220.768941363,11536.466666666665,1068.3888888888887,20,120,1965/07,56,blank,,False,,,POINT Z (22.3194868 114.1765404 0),22.3194868,114.17654040000001
74,"PRINCESS TERR,MAN FUK RD|公主台,文福道",KHMT,15512677.0,13487.0,1097.0,15746338.0,14017.0,1097.0,33880073.53066382,15458.0,2243.0,4.0,9.0,14.0,"['A', 'A & B', 'B', 'C', 'D', 'E', 'F']",19218244.20986126,14541.952380952382,1316.142857142857,17,119,1967/05,54,blank,,False,,,POINT Z (22.319568 114.1783749 0),22.319568,114.17837490000001
75,"MANDARIN COURT(Block 5),ARGYLE ST|翠華大廈5座,亞皆老街",KHMT,15849843.68687886,12100.0,1265.0,16229715.97358918,12390.0,1265.0,18024600.0,13655.0,1565.0,3.0,6.0,10.0,"['126A', '128A', 'whole floor']",17301620.22627272,12840.166666666666,1404.4444444444443,12,36,1963/00,58,MANDARIN COURT,翠華大廈,True,3.0,156.0,POINT Z (22.3213551 114.1786536 0),22.3213551,114.17865359999999
76,"BEAUTY COURT,MAN FUK RD|麗苑,文福道",KHMT,16133350.0,14029.0,1150.0,16869350.0,14299.0,1150.0,18344460.903490093,15440.0,1200.0,5.0,10.0,15.0,"['A', 'B']",17389500.25216968,14542.666666666666,1175.0,17,34,1965/09,56,blank,,False,,,POINT Z (22.319613 114.1772603 0),22.319613,114.17726029999999
77,"KING'S COURT,MAN FUK RD|瓊苑,文福道",KHMT,20825784.099064343,10437.0,1600.0,21761617.455628604,10906.0,1600.0,23455695.322841942,11755.0,1600.0,4.0,10.0,15.0,"['A', 'B']",22172333.23223019,11111.833333333334,1600.0,16,32,1964/06,57,blank,,False,,,POINT Z (22.3200486 114.1775389 0),22.3200486,114.1775389
78,"GRAND COURT(Block 3),HO MAN TIN HILL RD|加林閣3座,何文田山道",KHMT,15413759.031348526,11638.0,1062.0,15771356.121781943,11908.0,1062.0,16807680.571148165,12537.0,1075.0,3.0,6.0,10.0,"['A', 'B']",16186010.280233249,12145.5,1068.5,12,24,1981/10,40,GRAND COURT,加林閣,True,2.0,48.0,POINT Z (22.3164594 114.1773532 0),22.3164594,114.17735320000001
79,"THE CRESCENT(Block C),HO MAN TIN HILL RD|仁禮花園C座,何文田山道",KHMT,41934089.82173004,21935.0,1840.0,43963250.87675946,22992.0,1840.0,52748188.66614593,24211.0,2104.0,4.0,10.0,16.0,"['A', 'B', 'C']",47787508.76898513,23070.222222222223,2000.3333333333333,19,57,1987/07,34,THE CRESCENT,仁禮花園,True,1.0,57.0,POINT Z (22.316112 114.1762385 0),22.316112,114.1762385
80,"DELTEC COURT,WATERLOO RD|愷悌閣,窩打老道",KHMT,4451336.0,16012.0,278.0,4553918.0,16381.0,278.0,4767700.0,18796.0,278.0,7.0,13.0,19.0,"['A', 'B']",4402877.718361877,16811.666666666668,262.5,19,38,1988/01,33,blank,,False,,,POINT Z (22.3193471 114.1756637 0),22.3193471,114.17566370000002
81,"LUNG MAN BLDG,HO MAN TIN ST|龍文大廈,何文田街",KHMT,7740850.0,11909.0,635.0,7930000.0,12200.0,635.0,16614712.937816003,12867.0,1247.0,3.0,6.0,9.0,"['A', 'B', 'C', 'D', 'E', 'F']",13185443.63251911,12421.666666666666,844.0,11,66,1963/02,58,blank,,False,,,POINT Z (22.3169055 114.1750774 0),22.3169055,114.17507739999999
82,"REGAL COURT,WATERLOO RD|麗豪閣,窩打老道",KHMT,10389471.273364427,9687.0,860.0,11653968.706139967,10381.0,860.0,13474894.145576414,11260.0,991.0,3.0,8.0,13.0,"['A', 'B', 'C', 'D']",12181204.610919053,10583.0,923.25,17,68,1989/03,32,blank,,False,,,POINT Z (22.322952 114.1785642 0),22.322951999999997,114.1785642
83,"BELAIRE HEIGHTS,WATERLOO RD|碧儷閣,窩打老道",KHMT,12329523.410409791,6467.0,1185.0,12796517.225307249,6733.0,1185.0,15989598.140496574,8963.0,1185.0,2.0,7.0,12.0,"['A', 'B', 'PORTION A', 'REMARK']",14492646.382661978,7269.583333333333,1185.0,15,60,1974/01,47,blank,,False,,,POINT Z (22.3243197 114.1786536 0),22.3243197,114.17865359999999
84,"PERTH APTS(Block B2),PERTH ST|巴富洋樓B2座,巴富街",KHMT,19177384.09079057,15563.0,1190.0,16781905.412354738,13619.0,1190.0,20330762.713741157,16499.0,1190.0,3.0,6.0,10.0,"['A', 'B', 'C', 'D']",19048820.163089883,15458.666666666666,1190.0,12,48,1974/05,47,PERTH APTS,巴富洋樓,True,3.0,144.0,POINT Z (22.3219259 114.1811151 0),22.3219259,114.18111509999999
85,"PEACE GARDEN,PRINCE EDWARD RD W|太和大廈,太子道西",KHMT,11960882.800122943,6740.0,890.0,12230040.046076534,6901.0,890.0,14111041.856472153,7674.0,985.0,3.0,6.0,10.0,"['249', '249A', '251', 'whole floor']",12875901.538327845,7286.916666666667,947.4166666666666,12,48,1962/01,59,blank,,False,,,POINT Z (22.325317 114.177703 0),22.325317000000002,114.17770300000001
86,"STEPHEN MANSION,BELFRAN RD|鐘山閣,巴芬道",KHMT,12541873.63362847,4910.0,865.0,12359500.841707695,5007.0,862.0,11132225.821693016,4695.0,940.0,3.0,6.0,10.0,"['A', 'B']",12011200.099009728,4870.666666666667,875.3333333333334,12,24,1973/11,48,blank,,False,,,POINT Z (22.3261159 114.1774925 0),22.326115899999998,114.1774925
87,"TAK WAI MANSION(Block 2),MAN FUK RD|德威大廈2座,文福道",KHMT,8628031.947793564,11621.0,717.0,8937634.33332234,12038.0,717.0,9351179.965791235,12595.0,717.0,4.0,9.0,14.0,"['E', 'F', 'G', 'H']",9022397.576362792,12152.166666666666,717.0,17,68,1967/07,54,TAK WAI MANSION,德威大廈,True,2.0,132.0,POINT Z (22.3192642 114.1781475 0),22.3192642,114.17814750000001
88,"SHING TAK MANSION,PEACE AVE|成德大廈,太平道",KHMT,6687672.0,12477.0,536.0,6827568.000000001,12738.0,536.0,11937600.0,14922.0,802.0,2.0,5.0,8.0,"['1', '10', '11', '12', '13', '14', '15', '16', '2', '3', '4', '5', '6', '7', '8', '9']",9189687.0,13707.666666666666,683.0,11,176,1962/06,59,blank,,False,,,POINT Z (22.3197449 114.1735215 0),22.3197449,114.1735215
89,"CRYSTAL COURT,MAN WAN RD|麗晶樓,文運道",KHMT,9310000.0,13300.0,660.0,9968000.0,14240.0,700.0,12135900.0,17337.0,700.0,4.0,10.0,17.0,"['A', 'B', 'C', 'D', 'E', 'E1', 'F']",11014435.238095239,15823.095238095237,696.1904761904761,20,140,1967/07,54,blank,,False,,,POINT Z (22.3187445 114.1774597 0),22.3187445,114.1774597
90,"SUNLAND COURT,LIBERTY AVE|新麟閣,自由道",KHMT,8717812.694351135,11693.0,720.0,9191987.745544782,12329.0,720.0,9687162.687632488,12662.0,740.0,5.0,12.0,20.0,"['A', 'B']",9447916.149584278,12328.5,740.0,21,42,1977/05,44,blank,,False,,,POINT Z (22.3187226 114.1746129 0),22.3187226,114.1746129
91,"KAM WAH HSE,WATERLOO RD|金華樓,窩打老道",KHMT,7576989.29039236,6159.0,659.0,7872244.596398881,6399.0,659.0,8482690.915372241,11746.0,1155.0,3.0,8.0,12.0,"['F.P.', 'R', 'R.P.', 'RP']",7979439.828411366,8119.88888888889,788.4166666666666,13,52,1966/07,55,blank,,False,,,POINT Z (22.3196982 114.1760295 0),22.319698199999998,114.1760295
92,"MANDARIN COURT(Block 1),ARGYLE ST|翠華大廈1座,亞皆老街",KHMT,9124880.0,10860.0,835.0,9450530.0,11227.0,835.0,10229999.999999998,11625.0,880.0,2.0,6.0,9.0,"['1', '2', '3', '4', '5']",9771502.333333334,11270.4,867.0,12,60,1958/12,63,MANDARIN COURT,翠華大廈,True,3.0,156.0,POINT Z (22.3216086 114.1792574 0),22.3216086,114.1792574
93,"MANCHESTER COURT,HO MAN TIN ST|文采閣,何文田街",KHMT,12556766.713378197,16104.0,753.0,13054234.247104928,16344.0,753.0,14425726.0,18662.0,773.0,3.0,6.0,10.0,"['A', 'B', 'C', 'D']",13431113.608814163,17131.0,763.0,12,48,1990/10,31,blank,,False,,,POINT Z (22.3157786 114.1755883 0),22.3157786,114.17558829999999
94,"KINGSLAND VILLA(Block B),MAN FUK RD|瓊林別墅B座,文福道",KHMT,9457924.23368147,12260.0,745.0,9597555.904668123,12441.0,745.0,10971500.68934893,14222.0,745.0,4.0,9.0,14.0,"['1', '2', '3', '4']",10210790.945893569,13235.916666666666,745.0,17,68,1967/00,54,KINGSLAND VILLA,瓊林別墅,True,2.0,136.0,POINT Z (22.3196152 114.1780717 0),22.3196152,114.17807169999999
95,"SPRINGVALE,PRINCE EDWARD RD W|春苑,太子道西",KHMT,,,1325.0,,,1325.0,,,1330.0,2.0,5.0,8.0,"['A', 'B', 'C', 'D']",,,1323.4166666666667,9,36,1963/03,58,blank,,False,,,POINT Z (22.3264519 114.1840479 0),22.3264519,114.18404790000001
96,"KING'S COURT,PRINCE EDWARD RD W|乾隆閣,太子道西",KHMT,13996458.34581721,12873.0,1050.0,14326989.172907121,13177.0,1050.0,15259650.000000002,14533.0,1050.0,3.0,6.0,10.0,"['A', 'B', 'C', 'D']",14598765.713038623,13588.666666666666,1050.0,12,48,1972/08,49,blank,,False,,,POINT Z (22.3255905 114.1791645 0),22.3255905,114.1791645
97,"KOWLOON TONG MANSION,BOUNDARY ST|九龍塘大廈,界限街",KHMT,17364074.163650636,5563.0,1090.0,18990297.898912538,5668.0,1090.0,18041407.274114806,5780.0,1090.0,4.0,6.0,9.0,"['110A', 'whole floor']",17978200.147281647,5601.5,1103.3333333333333,10,20,1964/03,57,blank,,False,,,POINT Z (22.3266984 114.1765636 0),22.326698399999998,114.1765636
98,"MOUNT TRIO COURT(Block 2),HOK YU LANE|鼎峰花園2座,學餘里",KHMT,15111533.91333529,12605.0,1150.0,15751005.443001254,13165.0,1150.0,16479788.638821676,13839.0,1160.0,4.0,9.0,14.0,"['A', 'B', 'C']",15910767.762192369,13234.666666666666,1161.111111111111,17,51,1965/02,56,MOUNT TRIO COURT,鼎峰花園,True,2.0,78.0,POINT Z (22.3204044 114.1777711 0),22.3204044,114.17777109999999
99,"IMPERIAL GARDEN,DUKE ST|嘉爵園,公爵街",KHMT,17100109.676268965,16547.0,998.0,17911349.544273503,17332.0,998.0,18989213.470806926,18375.0,998.0,3.0,8.0,13.0,"['A', 'B', 'C', 'D']",18062574.30098433,17478.333333333332,998.0,14,56,1988/08,33,blank,,False,,,POINT Z (22.326311 114.1755651 0),22.326310999999997,114.17556509999999
100,"KARIN COURT,PRINCE EDWARD RD W|嘉倫閣,太子道西",KHMT,7860763.243730203,13411.0,470.0,7895345.678401747,13470.0,470.0,8744105.627509562,13748.0,770.0,4.0,7.0,10.0,"['A', 'B']",8166738.183213837,13543.0,626.6666666666666,11,22,1975/08,46,blank,,False,,,POINT Z (22.3250641 114.1761456 0),22.3250641,114.1761456
101,"LIBERTY MANSION,WATERLOO RD|自由大廈,窩打老道",KHMT,5575564.227154551,9233.0,435.0,5779614.202506063,9868.0,435.0,13414289.181155954,16254.0,874.0,3.0,8.0,13.0,"['A', 'B', 'C', 'D']",8824855.443972083,12855.083333333334,635.25,15,60,1962/01,59,blank,,False,,,POINT Z (22.3176902 114.1750774 0),22.3176902,114.17507739999999
102,"YEE ON COURT(Block C),ARGYLE ST|怡安閣C座,亞皆老街",KHMT,8765970.0,12434.0,705.0,9158655.0,11982.0,705.0,18961910.0,15725.0,1210.0,9.0,17.0,24.0,"['1', '2', '3', '4', '5', '6']",12075038.055555554,13717.22222222222,871.0,21,126,1976/06,45,YEE ON COURT,怡安閣,True,3.0,320.0,POINT Z (22.3202757 114.1760992 0),22.3202757,114.17609920000001
103,"HEALTH MANSION,PRINCE EDWARD RD W|康寧大廈,太子道西",KHMT,,,1017.0,,,1017.0,,,780.0,4.0,6.0,8.0,['whole floor'],,,938.0,7,7,1959/04,62,blank,,False,,,POINT Z (22.3252443 114.1772138 0),22.3252443,114.1772138
104,"ORIENTAL GARDEN(Block B),PRINCE EDWARD RD W|東方花園B座,太子道西",KHMT,15103643.42178634,14808.0,980.0,15605404.128473956,15364.0,980.0,17178252.46554062,16842.0,985.0,3.0,7.0,10.0,"['1', '2', '3', '4']",15905401.583629476,15633.166666666666,982.5,11,44,1967/01,54,ORIENTAL GARDEN,東方花園,True,2.0,116.0,POINT Z (22.3255524 114.1757144 0),22.325552399999996,114.1757144
105,"WELLIVE COURT,VICTORY AVE|慧宜閣,勝利道",KHMT,7775358.0,14754.0,527.0,8209079.0,15577.0,527.0,8638584.0,16392.0,527.0,6.0,13.0,20.0,['whole floor'],8207673.666666667,15574.333333333334,527.0,20,20,1995/01,26,blank,,False,,,POINT Z (22.318953 114.17488 0),22.318953,114.17488
106,"CELEBRITY GARDEN,HO MAN TIN ST|名人花園,何文田街",KHMT,,,884.0,,,884.0,,,884.0,6.0,10.0,15.0,"['A', 'B']",,,884.0,12,24,1996/11,25,blank,,False,,,POINT Z (22.3167789 114.1746362 0),22.3167789,114.1746362
107,"SCENERY MANSION,WATERLOO RD|匯景大廈,窩打老道",KHMT,12659127.249450326,6660.0,1010.0,12960804.39569877,6813.0,1010.0,15738455.649872795,8003.0,1150.0,3.0,6.0,10.0,"['A', 'B', 'C', 'D']",14252565.027617542,7073.833333333333,1080.0,12,48,1965/01,56,blank,,False,,,POINT Z (22.3240581 114.1786536 0),22.324058100000002,114.17865359999999
108,"PRINCE EDWARD TOWERS,PRINCE EDWARD RD W|愛華苑,太子道西",KHMT,12238230.0,14971.0,795.0,12532380.0,15329.0,795.0,16790049.600810446,16633.0,1025.0,3.0,6.0,10.0,"['A', 'B', 'C']",14937015.072028553,15582.333333333334,948.3333333333334,12,36,1973/04,48,blank,,False,,,POINT Z (22.3258543 114.1774925 0),22.3258543,114.1774925
109,"FU TAO BLDG,ARGYLE ST|富都大廈,亞皆老街",KHMT,5890842.174911648,13138.0,430.0,6200745.890235798,13674.0,430.0,7041399.999999999,14824.0,475.0,9.0,14.0,18.0,"['A', 'B', 'C', 'D', 'E', 'F']",6459716.189591072,14083.27777777778,448.3333333333333,16,96,1979/06,42,blank,,False,,,POINT Z (22.3199228 114.1736376 0),22.3199228,114.17363759999999
110,"KERIN COURT,MAN WAN RD|嘉嗚閣,文運道",KHMT,12817637.547360362,10745.0,1152.0,13581089.202112397,11385.0,1152.0,17487360.0,15180.0,1152.0,4.0,10.0,17.0,"['A', 'B']",15111426.969986016,12915.5,1152.0,18,36,1964/09,57,blank,,False,,,POINT Z (22.3193734 114.1771209 0),22.3193734,114.1771209
111,"CAMBRIDGE BLDG,WATERLOO RD|金碧大廈,窩打老道",KHMT,11863759.474775646,4156.0,1130.0,14621666.858453732,4255.0,1130.0,14968738.151686123,5062.0,1200.0,2.0,5.0,8.0,"['A', 'B']",13791643.429601625,4488.333333333333,1165.0,9,18,1962/06,59,blank,,False,,,POINT Z (22.3226496 114.178533 0),22.322649600000002,114.178533
112,"TUNG LUNG COURT,JULIA AVE|騰龍閣,棗梨雅道",KHMT,6632750.30254086,13775.0,465.0,6600209.999999999,14194.0,465.0,7224521.636248498,15004.0,465.0,3.0,8.0,14.0,['whole floor'],6819160.646263119,14324.333333333334,465.0,14,14,1981/11,40,blank,,False,,,POINT Z (22.319946 114.175122 0),22.319945999999998,114.175122
113,"GALLANT COURT,PRINCE EDWARD RD W|麒麟閣,太子道西",KHMT,11040248.529766567,6974.0,848.0,11310951.49773188,7145.0,848.0,25839177.080658592,11640.0,1780.0,3.0,6.0,10.0,"['A', 'B', 'C', 'D', 'E', 'F', 'G', 'H']",18077865.90692914,10478.583333333334,1332.5,12,96,1964/12,57,blank,,False,,,POINT Z (22.3258844 114.1767494 0),22.3258844,114.17674939999999
114,"SHUNG MING MANSION,BOUNDARY ST|崇明大廈,界限街",KHMT,,,832.0,11831446.221460616,13733.0,832.0,12269967.020027822,14242.0,877.0,3.0,6.0,10.0,"['F.P.', 'R.P.']",12050706.620744219,13987.5,854.5,12,24,1975/01,46,blank,,False,,,POINT Z (22.3267054 114.1767958 0),22.326705399999998,114.1767958
115,1 PERTH ST|1 巴富街,KHMT,15025138.765837962,5258.0,1215.0,15411525.452535085,5381.0,1215.0,19289260.30001371,10507.0,1215.0,3.0,6.0,10.0,"['1', 'whole floor']",17110480.74056446,7796.166666666667,1215.0,12,24,1963/00,58,blank,,False,,,POINT Z (22.3215521 114.1807198 0),22.3215521,114.18071979999999
116,"EDWARDIAN HEIGHTS,PRINCE EDWARD RD W|愛華閣,太子道西",KHMT,9339254.14017847,12423.0,715.0,10690872.561567027,13003.0,715.0,11037012.479156794,13424.0,794.0,3.0,6.0,10.0,"['A', 'B', 'C']",10355713.060300762,12950.0,748.4444444444445,12,36,1972/04,49,blank,,False,,,POINT Z (22.3262902 114.1830193 0),22.3262902,114.1830193
117,"EARL GARDENS,EARL ST|伯爵園,伯爵街",KHMT,19066880.0,14328.0,1330.0,19505780.0,14657.0,1330.0,25530800.0,15380.0,1660.0,3.0,6.0,10.0,"['A', 'B', 'C', 'D']",22289128.333333332,14830.666666666666,1501.6666666666667,12,48,1972/12,49,blank,,False,,,POINT Z (22.3268004 114.1801884 0),22.3268004,114.1801884
118,"PRINCE'S HEIGHTS(Phase 2),PRINCE EDWARD RD W|太子閣2期,太子道西",KHMT,15353529.697454691,12356.0,1200.0,16701747.54479512,13441.0,1200.0,17811883.788863264,14003.0,1240.0,3.0,6.0,10.0,"['A', 'B', 'C', 'D']",16800344.46780233,13406.47222222222,1220.0,12,48,1973/12,48,PRINCE'S HEIGHTS,太子閣,True,2.0,96.0,POINT Z (22.32571 114.1795394 0),22.32571,114.17953940000001
119,"COIN ORGANIZE BLDG,WATERLOO RD|集貴大廈,窩打老道",KHMT,5192913.000000001,12759.0,407.0,5390715.0,13245.0,407.0,5679278.0,13954.0,407.0,3.0,9.0,16.0,['whole floor'],5420968.666666667,13319.333333333334,407.0,17,17,1997/04,24,blank,,False,,,POINT Z (22.3181555 114.1748916 0),22.3181555,114.1748916
120,"HAPPY COURT,MAN FUK RD|樂園,文福道",KHMT,12399671.375728413,13217.0,906.0,13302182.071306134,14179.0,906.0,14292879.882667957,15235.0,906.0,4.0,8.0,14.0,"['A', 'B']",13535448.610837914,14406.333333333334,907.3333333333334,16,32,1966/01,55,blank,,False,,,POINT Z (22.3197794 114.177864 0),22.319779399999998,114.17786399999999
121,"PARC REGAL(Block 1),HO MAN TIN HILL RD|賀龍居1座,何文田山道",KHMT,11536085.0,13837.0,685.0,12202590.0,14616.0,685.0,32153872.28449923,20066.0,1603.0,3.0,10.0,16.0,"['A', 'A & B', 'AB', 'B', 'C', 'C & D', 'CD', 'D']",20163996.454001058,16834.47619047619,1130.625,18,144,1995/05,26,PARC REGAL,賀龍居,True,3.0,450.0,POINT Z (22.3147895 114.1763314 0),22.3147895,114.1763314
122,"YEE ON COURT(Block B),WATERLOO RD|怡安閣B座,窩打老道",KHMT,6386597.0,11549.0,553.0,7029000.0,12375.0,568.0,10527471.000000002,14093.0,747.0,9.0,17.0,24.0,"['1', '2', '3', '4', '5', '6']",8874021.0,12908.5,684.8333333333334,21,126,1976/06,45,YEE ON COURT,怡安閣,True,3.0,320.0,POINT Z (22.3203898 114.1764127 0),22.3203898,114.17641270000001
123,"PEACE MANSION,PEACE AVE|太平閣,太平道",KHMT,4642704.0,13280.0,297.0,4937031.0,14341.0,297.0,7000455.0,17898.0,435.0,5.0,12.0,20.0,"['A', 'B', 'C', 'D']",5719675.916666667,15768.916666666666,367.3333333333333,24,96,1991/05,30,blank,,False,,,POINT Z (22.3194139 114.1738234 0),22.3194139,114.17382340000002
124,"SHARON COURT,HO MAN TIN ST|瑞麟閣,何文田街",KHMT,8810821.086861208,15757.0,540.0,9292265.331056645,16618.0,540.0,9583033.051128224,17138.0,540.0,3.0,6.0,10.0,"['A', 'B']",9270049.07567359,16538.333333333332,541.3333333333334,12,24,1988/08,33,blank,,False,,,POINT Z (22.3161597 114.1753584 0),22.316159699999996,114.17535840000001
125,"WING YING MANSION,EMMA AVE|榮英大廈,艷馬道",KHMT,12119580.0,12242.0,990.0,12599730.000000002,12727.0,990.0,12449429.999999998,13174.0,945.0,4.0,9.0,14.0,['whole floor'],12389580.0,12714.333333333334,975.0,17,17,1964/02,57,blank,,False,,,POINT Z (22.3194662 114.1753044 0),22.319466199999997,114.1753044
126,"HOMAN VILLA,HO MAN TIN ST|浩文苑,何文田街",KHMT,5036728.954099619,13388.0,293.0,5228931.466422341,13875.0,293.0,9401633.31796124,17513.0,560.0,3.0,6.0,10.0,"['A', 'B', 'C']",7904129.852558377,14917.88888888889,456.3333333333333,12,36,1987/04,34,blank,,False,,,POINT Z (22.315546 114.1756812 0),22.315545999999998,114.17568119999999
127,"HARRISON COURT(Phase 3),MAN WAN RD|恒信園3期,文運道",KHMT,9097467.526569948,10336.0,850.0,9571000.56926486,10874.0,850.0,10171278.51558072,11556.0,850.0,4.0,10.0,17.0,"['A', 'B', 'C', 'D']",9617943.126161506,10927.333333333334,850.0,20,80,1971/09,50,HARRISON COURT,恒信園,True,5.0,330.0,POINT Z (22.318833 114.177849 0),22.318832999999998,114.177849
128,271 CHATHAM RD N|271 漆咸道北,KHMT,2049517.4312429489,3784.0,250.0,2063058.111946192,3719.0,250.0,2310581.755201485,4266.0,250.0,2.0,3.0,4.0,"['A', 'B']",2272348.289167806,3933.5,267.5,5,10,1986/03,35,blank,,False,,,POINT Z (22.3095972 114.1842974 0),22.3095972,114.18429740000002
129,"PRINCE GARDEN,PRINCE EDWARD RD W|太子花園,太子道西",KHMT,15363692.734592007,7838.0,1050.0,15922336.831218533,8123.0,1050.0,16149714.779319154,8239.0,1050.0,3.0,6.0,8.0,"['A', 'B']",15812241.474164067,8066.833333333333,1050.0,10,20,1978/09,43,blank,,False,,,POINT Z (22.32652 114.180506 0),22.326520000000002,114.18050600000001
130,"WALTON MANSION,PRINCE EDWARD RD W|華苑,太子道西",KHMT,13216715.390750134,4626.0,990.0,12570338.06147278,4434.0,990.0,16479632.272561548,4944.0,1164.0,3.0,6.0,8.0,"['A', 'B', 'C']",14839322.050048098,4743.0,1091.3333333333333,10,30,1964/02,57,blank,,False,,,POINT Z (22.326958 114.1834837 0),22.326957999999998,114.18348370000001
131,"EVERWELL GARDEN,SHEUNG HONG ST|常康園,常康街",KHMT,17487310.0,11390.0,1485.0,20525430.0,13593.0,1485.0,24646020.0,14847.0,3003.0,3.0,10.0,17.0,"['A', 'B', 'C', 'D', 'E', 'F', 'G', 'H']",20323146.063492063,13184.57142857143,1627.3333333333333,21,168,1972/07,49,blank,,False,,,POINT Z (22.3204041 114.1835766 0),22.3204041,114.18357659999998
132,"DUKE GARDEN,DUKE ST|爵園,公爵街",KHMT,14122448.09015766,7519.0,1000.0,14456607.80042048,7700.0,1000.0,18090286.6252147,8030.0,1220.0,3.0,6.0,10.0,"['A', 'B', 'C', 'D']",16075311.661857339,7765.416666666667,1108.8333333333333,12,48,1964/01,57,blank,,False,,,POINT Z (22.325829 114.1746129 0),22.325829000000002,114.1746129
133,"MANSFIELD COURT,PRINCE EDWARD RD W|文蔚閣,太子道西",KHMT,12755234.321283462,15553.0,792.0,11985967.312129993,14615.0,792.0,13704926.428532626,16711.0,796.0,3.0,6.0,10.0,"['A', 'B', 'C']",13102026.602347746,15948.666666666666,793.3333333333334,12,36,1994/12,27,blank,,False,,,POINT Z (22.32637 114.1837345 0),22.32637,114.1837345
134,108A BOUNDARY ST|108A 界限街,KHMT,22745680.0,19276.0,1180.0,21119367.640175026,18763.0,1087.0,21399638.521292306,19012.0,1087.0,0.0,1.0,2.0,['A'],21754895.38715578,19017.0,1118.0,3,3,1957/03,64,blank,,False,,,POINT Z (22.3267128 114.1749031 0),22.3267128,114.1749031
135,"PARIS GARDEN,BELFRAN RD|巴豪苑,巴芬道",KHMT,14745514.513231514,15378.0,926.0,15219196.667577747,15872.0,926.0,15741781.230571061,16417.0,926.0,3.0,7.0,11.0,['whole floor'],15235497.470460108,15889.0,926.0,13,13,1993/01,28,blank,,False,,,POINT Z (22.3261089 114.1772603 0),22.326108899999998,114.17726029999999
136,"LATIN COURT,PRINCE EDWARD RD W|蘭亭閣,太子道西",KHMT,12996826.439102298,7454.0,934.0,13193853.72480374,7567.0,934.0,13950141.15575957,11716.0,950.0,3.0,6.0,10.0,"['A', 'B', 'C']",13509203.93630611,8920.22222222222,944.6666666666666,12,36,1972/11,49,blank,,False,,,POINT Z (22.3250564 114.1764707 0),22.325056399999998,114.1764707
137,"GLEN HAVEN,ARGYLE ST|嘉麗園,亞皆老街",KHMT,10211165.882308487,13696.0,720.0,10744985.594029639,14412.0,720.0,22749964.64170277,15592.0,1440.0,4.0,10.0,16.0,"['A', 'B', 'C', 'D', 'E']",16314047.241556423,14644.6,1072.4,18,90,1973/02,48,blank,,False,,,POINT Z (22.3204679 114.1734983 0),22.320467899999997,114.1734983
138,"ILFORD COURT(PERTH GARDEN),PERTH ST|巴富花園(宜富閣),巴富街",KHMT,14555940.0,14853.0,785.0,15397760.0,15712.0,785.0,16693280.0,16528.0,1010.0,8.0,14.0,20.0,"['A', 'B', 'C', 'D', 'E', 'F']",14799106.799999999,15563.199999999999,868.0,19,114,1980/07,41,PERTH GARDEN,巴富花園,True,3.0,360.0,POINT Z (22.3210928 114.1792109 0),22.321092800000002,114.17921090000002
139,"ERIN COURT,PRINCE EDWARD RD W|楓嗚閣,太子道西",KHMT,16640121.245811682,4763.0,1220.0,17027913.279883716,4874.0,1220.0,18398375.25372848,7889.0,1249.0,2.0,5.0,8.0,"['297A', 'A', 'B', 'whole floor']",17484967.007544026,5636.0,1229.6666666666667,9,36,1963/11,58,blank,,False,,,POINT Z (22.3260594 114.1817189 0),22.3260594,114.1817189
140,"HARITA COURT,PRINCE EDWARD RD W|恒泰大樓,太子道西",KHMT,11061814.66247813,10817.0,820.0,11338948.04266964,11088.0,820.0,12079333.899712645,11812.0,820.0,3.0,6.0,10.0,['whole floor'],11493365.534953473,11239.0,820.0,12,12,1963/06,58,blank,,False,,,POINT Z (22.324694 114.174471 0),22.324694,114.174471
141,"TIP TOP MANSION,SHEUNG SHING ST|集德苑,常盛街",KHMT,15613542.741665058,9579.0,1307.0,16415491.069141747,10071.0,1307.0,17694748.08050862,10798.0,1314.0,4.0,10.0,16.0,"['A', 'B']",16722336.908981636,10193.0,1315.5,17,34,1973/01,48,blank,,False,,,POINT Z (22.3198073 114.1843197 0),22.3198073,114.18431969999999
142,"TIVOLI COURT,DUKE ST|德福閣,公爵街",KHMT,13153309.928060783,12123.0,870.0,13465786.48165985,12411.0,870.0,16007252.474030819,13511.0,950.0,3.0,6.0,10.0,"['A', 'B', 'C', 'D']",14547697.264447143,12810.416666666666,910.0,12,48,1976/08,45,blank,,False,,,POINT Z (22.3257989 114.1753493 0),22.3257989,114.17534930000001
143,"MING GARDEN,PRINCE EDWARD RD W|明園,太子道西",KHMT,8389350.79142327,11347.0,714.0,10292425.519291738,13151.0,714.0,12863166.304896355,14220.0,928.0,2.0,4.0,6.0,"['A', 'B']",11183589.232403131,13155.833333333334,821.0,7,14,1989/04,32,blank,,False,,,POINT Z (22.3257345 114.1801862 0),22.3257345,114.1801862
144,"WING ON COURT,HO MAN TIN HILL RD|永安臺,何文田山道",KHMT,,,1590.0,,,1590.0,,,1808.0,6.0,10.0,16.0,"['A', 'B', 'C', 'D']",,,1692.0833333333333,16,64,1977/07,44,blank,,False,,,POINT Z (22.314244 114.1767795 0),22.314244,114.1767795
145,"MAN CHUNG HSE(Block E,CHUN MAN COURT),CHUNG HAU ST|俊民苑,E座(文宗閣),忠孝街",KHMT,6117453.0,11787.0,485.0,6355440.0,12535.0,485.0,7941700.0,14187.0,596.0,3.0,8.0,13.0,"['1', '10', '2', '3', '4', '5', '6', '7', '8', '9']",6958624.566666667,12994.700000000003,535.8,15,150,1981/00,40,CHUN MAN COURT,俊民苑,True,12.0,1775.0,POINT Z (22.3141244 114.1781502 0),22.314124399999997,114.1781502
146,"MAN OI HSE(Block K,CHUN MAN COURT),CHUNG HAU ST|俊民苑,K座(文愛閣),忠孝街",KHMT,6356410.0,12207.0,485.0,6587270.0,12324.0,485.0,7836803.999999999,14208.0,596.0,3.0,8.0,13.0,"['1', '10', '2', '3', '4', '5', '6', '7', '8', '9']",6970799.666666667,13376.238095238094,535.8,15,150,1980/01,41,CHUN MAN COURT,俊民苑,True,12.0,1775.0,POINT Z (22.3140271 114.1788161 0),22.3140271,114.17881609999999
147,"NIN FUNG BLDG,WATERLOO RD|年豐樓,窩打老道",KHMT,10890167.532037597,10677.0,985.0,11222676.15950264,11003.0,985.0,12168183.821036672,11930.0,985.0,6.0,10.0,16.0,"['A', 'B']",11411709.69413512,11188.333333333334,985.0,16,32,1973/01,48,blank,,False,,,POINT Z (22.3177635 114.1746129 0),22.3177635,114.1746129
148,"MANTIN COURT,HO MAN TIN HILL RD|文田閣,何文田山道",KHMT,20883279.713793013,6503.0,1094.0,21227888.28992821,6654.0,1094.0,46064768.21356322,7352.0,2188.0,3.0,6.0,9.0,"['A', 'AB', 'B']",29437277.46101901,6824.444444444445,1488.0,10,30,1975/02,46,blank,,False,,,POINT Z (22.3166492 114.1767029 0),22.3166492,114.17670290000001
149,"CASCADES(Block 1),CHUNG HAU ST|欣圖軒1座,忠孝街",KHMT,6802789.0,13915.0,467.0,7125019.0,14573.0,467.0,12585460.0,17726.0,710.0,4.0,10.0,16.0,"['A', 'B', 'C', 'D', 'E', 'F', 'G', 'H', 'J', 'K']",7600290.614814815,15030.95925925926,519.0,19,190,1998/12,23,CASCADES,欣圖軒,True,4.0,740.0,POINT Z (22.3159115 114.1797218 0),22.3159115,114.17972179999998
150,"MAN HUNG HSE(Block G,CHUN MAN COURT),CHUNG HAU ST|俊民苑,G座(文雄閣),忠孝街",KHMT,6288025.0,12281.0,485.0,6670204.999999999,12601.0,485.0,8428036.0,14323.0,596.0,3.0,8.0,13.0,"['1', '10', '2', '3', '4', '5', '6', '7', '8', '9']",7187587.833333333,13424.633333333333,535.8,15,150,1981/03,40,CHUN MAN COURT,俊民苑,True,12.0,1775.0,POINT Z (22.3141244 114.1781502 0),22.314124399999997,114.1781502
151,"TRIUMPH TERR,VICTORY AVE|凱旋居,勝利道",KHMT,7399929.748575865,14151.0,505.0,7921287.246938535,12207.0,505.0,12356771.57539856,15947.0,777.0,8.0,18.0,26.0,"['A', 'B']",9207614.444237636,14059.333333333334,641.0,24,48,1998/12,23,blank,,False,,,POINT Z (22.319578 114.174331 0),22.319578,114.17433100000001
152,"MAN LAN HSE(Block C,CHUN MAN COURT),CHUNG HAU ST|俊民苑,C座(文蘭閣),忠孝街",KHMT,5731730.0,11534.0,485.0,5964044.999999999,11641.0,485.0,7949448.0,13338.0,596.0,3.0,8.0,13.0,"['1', '10', '2', '3', '4', '5', '6', '7', '8', '9']",6707514.866666667,12511.333333333334,535.8,15,150,1980/09,41,CHUN MAN COURT,俊民苑,True,12.0,1775.0,POINT Z (22.3141244 114.1781502 0),22.314124399999997,114.1781502
153,"DRAGON VIEW(Block 1),CHUNG HAU ST|御龍居1座,忠孝街",KHMT,8973240.0,15678.0,564.0,11213370.0,6211.0,630.0,,,1602.0,13.0,33.0,64.0,"['A', 'B', 'C', 'D', 'E', 'F', 'G', 'H']",16466345.146752052,15790.104166666668,990.9583333333334,57,456,1998/10,23,DRAGON VIEW,御龍居,True,2.0,648.0,POINT Z (22.3160869 114.1788858 0),22.3160869,114.1788858
154,"MAN PAN HSE(Block B,CHUN MAN COURT),CHUNG HAU ST|俊民苑,B座(文斌閣),忠孝街",KHMT,6083355.0,12383.0,485.0,6425280.000000001,12866.0,485.0,8107984.0,13895.0,596.0,3.0,8.0,12.0,"['1', '10', '2', '3', '4', '5', '6', '7', '8', '9']",7045570.566666667,13148.866666666667,535.8,14,140,1980/04,41,CHUN MAN COURT,俊民苑,True,12.0,1775.0,POINT Z (22.3141244 114.1781502 0),22.314124399999997,114.1781502
155,"MAN HEI HSE(Block H,CHUN MAN COURT),CHUNG HAU ST|俊民苑,H座(文禧閣),忠孝街",KHMT,6475563.0,12477.0,485.0,6731949.0,12971.0,485.0,8518628.0,14447.0,596.0,3.0,8.0,13.0,"['1', '10', '2', '3', '4', '5', '6', '7', '8', '9']",7320353.533333334,13665.366666666669,535.8,15,150,1981/03,40,CHUN MAN COURT,俊民苑,True,12.0,1775.0,POINT Z (22.3142168 114.1781659 0),22.3142168,114.1781659
156,"DRAGON VIEW(Block 2),CHUNG HAU ST|御龍居2座,忠孝街",KHMT,7891172.000000001,13942.0,532.0,8032672.0,14192.0,532.0,13999252.0,18769.0,796.0,5.0,12.0,21.0,"['A', 'B', 'C', 'D', 'E', 'F', 'G', 'H']",10589715.166666666,16118.791666666666,659.0,24,192,1998/06,23,DRAGON VIEW,御龍居,True,2.0,648.0,POINT Z (22.316338 114.1785375 0),22.316338000000002,114.1785375
157,"MAN FUK HSE(Block A,CHUN MAN COURT),CHUNG HAU ST|俊民苑,A座(文福閣),忠孝街",KHMT,6183265.000000001,11382.0,485.0,6154820.999999999,11580.0,485.0,7364176.0,13269.0,596.0,3.0,8.0,13.0,"['1', '10', '2', '3', '4', '5', '6', '7', '8', '9']",6527372.899999999,12206.9,535.8,15,150,1980/04,41,CHUN MAN COURT,俊民苑,True,12.0,1775.0,POINT Z (22.3141244 114.1781502 0),22.314124399999997,114.1781502
158,"MAN HOI HSE(Block F,CHUN MAN COURT),CHUNG HAU ST|俊民苑,F座(文凱閣),忠孝街",KHMT,6073804.24207492,11721.0,485.0,6283730.666185001,12107.0,485.0,8190901.822474419,13272.0,596.0,3.0,8.0,13.0,"['1', '10', '2', '3', '4', '5', '6', '7', '8', '9']",6899157.493360195,12436.233333333335,535.8,15,150,1980/12,41,CHUN MAN COURT,俊民苑,True,12.0,1775.0,POINT Z (22.3141244 114.1781502 0),22.314124399999997,114.1781502
159,"MAN MING HSE(Block J,CHUN MAN COURT),CHUNG HAU ST|俊民苑,J座(文明閣),忠孝街",KHMT,6051345.000000001,12068.0,485.0,6299665.0,12536.0,485.0,8118712.0,13754.0,596.0,3.0,8.0,13.0,"['1', '10', '2', '3', '4', '5', '6', '7', '8', '9']",6893515.866666667,12868.300000000001,535.8,15,150,1980/00,41,CHUN MAN COURT,俊民苑,True,12.0,1775.0,POINT Z (22.3141244 114.1781502 0),22.314124399999997,114.1781502
160,"TUNG NAM MANSION,WATERLOO RD|東南大樓,窩打老道",KHMT,7241233.00739621,3639.0,680.0,7416343.890784741,3727.0,680.0,8802609.591062892,12410.0,685.0,5.0,8.0,10.0,"['B', 'whole floor']",8026681.157348272,7960.5,682.5,8,16,1971/04,50,blank,,False,,,POINT Z (22.3179958 114.1747987 0),22.317995800000002,114.1747987
161,"MAN HOR HSE(Block D,CHUN MAN COURT),CHUNG HAU ST|俊民苑,D座(文賀閣),忠孝街",KHMT,5544519.999999999,11432.0,485.0,6237100.0,12398.0,485.0,8020372.0,13457.0,596.0,3.0,8.0,13.0,"['1', '10', '2', '3', '4', '5', '6', '7', '8', '9']",6820395.733333333,12636.514814814815,535.8,15,150,1981/04,40,CHUN MAN COURT,俊民苑,True,12.0,1775.0,POINT Z (22.3141244 114.1781502 0),22.314124399999997,114.1781502
162,"MAN YIN HSE(Block M,CHUN MAN COURT),CHUNG HAU ST|俊民苑,M座(文彥閣),忠孝街",KHMT,6448559.999999999,12311.0,485.0,6684270.0,12792.0,485.0,8299896.0,13926.0,596.0,3.0,8.0,13.0,"['1', '10', '2', '3', '4', '5', '6', '7', '8', '9']",7381912.2,13113.449999999999,535.8,15,150,1981/05,40,CHUN MAN COURT,俊民苑,True,12.0,1775.0,POINT Z (22.3141244 114.1781502 0),22.314124399999997,114.1781502
163,"MAN SHUI HSE(Block L,CHUN MAN COURT),CHUNG HAU ST|俊民苑,L座(文瑞閣),忠孝街",KHMT,6135250.0,12555.0,485.0,6382599.999999999,12905.0,485.0,8326716.0,13971.0,596.0,3.0,8.0,13.0,"['1', '10', '2', '3', '4', '5', '6', '8', '9']",7136590.185185186,13173.555555555555,541.4444444444445,15,135,1980/00,41,CHUN MAN COURT,俊民苑,True,12.0,1775.0,POINT Z (22.3141244 114.1781502 0),22.314124399999997,114.1781502
164,"GRAND COURT(Block 2),HO MAN TIN HILL RD|加林閣2座,何文田山道",KHMT,15998334.039650455,14372.0,1075.0,16370129.445247674,14706.0,1075.0,17674893.67219963,15213.0,1122.0,3.0,6.0,10.0,"['A', 'B']",16586714.636536961,14684.666666666666,1098.5,12,24,1981/10,40,GRAND COURT,加林閣,True,2.0,48.0,POINT Z (22.3164594 114.1773532 0),22.3164594,114.17735320000001
165,"YICK FAT BLDG,WATERLOO RD|益發大廈,窩打老道",KHMT,11309127.620430611,6113.0,854.0,8624031.124262333,6645.0,854.0,12820587.994370054,6930.0,1003.0,2.0,6.0,10.0,"['A', 'B', 'C', 'whole floor']",11506957.633748801,6606.0,959.75,12,48,1965/04,56,blank,,False,,,POINT Z (22.3191719 114.1756347 0),22.319171899999997,114.1756347
166,"DAWN GARDEN,HO MAN TIN HILL RD|春曉園,何文田山道",KHMT,20560504.0,16292.0,1262.0,21048898.0,16679.0,1262.0,21662230.0,17165.0,1262.0,3.0,6.0,10.0,"['A', 'B']",21089071.666666668,16710.833333333332,1262.0,12,24,1975/09,46,blank,,False,,,POINT Z (22.3168895 114.1762849 0),22.3168895,114.17628490000001
167,"BALWIN COURT(Block 1),ARGYLE ST|寶雲閣1座,亞皆老街",KHMT,7336500.344398569,10900.0,640.0,7612460.449096131,11310.0,640.0,10706946.590479676,15236.0,1309.0,3.0,8.0,13.0,"['A', 'B', 'C', 'D']",9772418.511118317,12945.38888888889,785.75,14,56,1976/12,45,BALWIN COURT,寶雲閣,True,5.0,299.0,POINT Z (22.3223931 114.1808481 0),22.322393100000003,114.18084809999999
168,"THE ASTRID(Block 1),ARGYLE ST|雅麗居1座,亞皆老街",KHMT,10250200.000000002,10795.0,530.0,,,530.0,,,1483.0,22.0,68.0,102.0,"['A', 'B', 'C', 'D', 'E', 'F']",21808637.124506522,18437.0,1081.6666666666667,96,576,1995/03,26,THE ASTRID,雅麗居,True,2.0,666.0,POINT Z (22.3230467 114.1824387 0),22.3230467,114.1824387
169,"THE ASTRID(Block 2),ARGYLE ST|雅麗居2座,亞皆老街",KHMT,11729116.000000002,16828.0,530.0,12215622.0,17228.0,530.0,39796360.52961937,18757.0,1836.0,6.0,11.0,18.0,"['A', 'B', 'C', 'D', 'E', 'F']",17890384.153426703,16367.166666666666,892.0,15,90,1995/03,26,THE ASTRID,雅麗居,True,2.0,666.0,POINT Z (22.3229163 114.1821601 0),22.3229163,114.1821601
170,"BALWIN COURT(Block 3),ARGYLE ST|寶雲閣3座,亞皆老街",KHMT,,,638.0,,,638.0,,,815.0,3.0,8.0,12.0,"['A', 'B', 'C', 'D']",,,726.5,14,56,1976/12,45,BALWIN COURT,寶雲閣,True,5.0,299.0,POINT Z (22.3223931 114.1808481 0),22.322393100000003,114.18084809999999
171,"FAIR WAY GARDEN(Block A),PEACE AVE|富威花園A座,太平道",KHMT,11021864.145260042,4705.0,842.0,12159119.781311816,7237.0,873.0,13574439.367240153,7670.0,900.0,7.0,15.0,22.0,"['1', '2']",12190437.583095392,6563.333333333333,876.1666666666666,21,42,1984/10,37,FAIR WAY GARDEN,富威花園,True,3.0,276.0,POINT Z (22.3192759 114.1737752 0),22.319275899999997,114.17377520000001
172,"GLORIOUS COURT,PRINCE EDWARD RD W|堂皇閣,太子道西",KHMT,15949982.565448536,12764.0,1002.0,,,1002.0,,,2064.0,15.0,50.0,76.0,['whole floor'],15949982.565448536,12764.0,1356.0,71,71,1986/01,35,blank,,False,,,POINT Z (22.3268859 114.1831122 0),22.3268859,114.1831122
173,"BRIGHT VIEW COURT,ARGYLE ST|明明閣,亞皆老街",KHMT,16488532.417605827,5268.0,1093.0,16745187.629876837,5202.0,1093.0,17466305.55942948,5430.0,1153.0,6.0,8.0,10.0,"['A', 'B']",17065632.464943465,5307.833333333333,1123.0,7,14,1973/00,48,blank,,False,,,POINT Z (22.3254434 114.1858988 0),22.325443399999997,114.18589879999999
174,"EMMA PLACE,EMMA AVE|盛馬苑,艷馬道",KHMT,4084344.0,17185.0,216.0,4245480.0,17916.0,216.0,5922630.0,20601.0,315.0,6.0,11.0,17.0,"['A', 'B']",4959847.5,18844.666666666668,265.5,17,34,2001/04,20,blank,,False,,,POINT Z (22.319376 114.1756859 0),22.319376000000002,114.17568590000002
175,"CASCADES(Block 2),CHUNG HAU ST|欣圖軒2座,忠孝街",KHMT,6535198.0,12782.0,467.0,6852291.0,13357.0,467.0,10929961.703983292,15626.0,725.0,4.0,10.0,16.0,"['A', 'B', 'C', 'D', 'E', 'F', 'G', 'H', 'J', 'K']",7440504.729266374,14396.766666666668,515.6999999999999,19,190,1998/12,23,CASCADES,欣圖軒,True,4.0,740.0,POINT Z (22.3157005 114.179954 0),22.315700500000002,114.17995400000001
176,"CASCADES(Block 3),CHUNG HAU ST|欣圖軒3座,忠孝街",KHMT,6453006.0,13382.0,467.0,6874707.0,13880.0,467.0,8040600.0,15424.0,540.0,5.0,10.0,16.0,"['A', 'B', 'C', 'D', 'E', 'F', 'G', 'H', 'J', 'K']",7138189.833333333,14479.699999999999,493.3,18,180,1998/12,23,CASCADES,欣圖軒,True,4.0,740.0,POINT Z (22.3155404 114.1801398 0),22.3155404,114.1801398
177,"CASCADES(Block 4),CHUNG HAU ST|欣圖軒4座,忠孝街",KHMT,6609421.0,12931.0,467.0,6886382.0,13524.0,467.0,12675175.0,17483.0,725.0,5.0,10.0,16.0,"['A', 'B', 'C', 'D', 'E', 'F', 'G', 'H', 'J', 'K']",7601915.8,14631.4,517.1,18,180,1998/12,23,CASCADES,欣圖軒,True,4.0,740.0,POINT Z (22.3156855 114.1803256 0),22.3156855,114.1803256
178,"ELLERY TERR,GOOD SHEPHERD ST|雅利德樺臺,牧愛街",KHMT,12406485.0,13559.0,915.0,13746045.0,14940.0,915.0,19430201.0,17059.0,1139.0,16.0,28.0,39.0,"['A', 'B', 'C', 'D', 'E', 'F']",15483263.388888888,15423.277777777776,1002.7777777777778,34,204,2000/12,21,blank,,False,,,POINT Z (22.3165194 114.1787697 0),22.316519399999997,114.17876969999999
179,"VISION COURT,PRINCE EDWARD RD W|青雲閣,太子道西",KHMT,7231939.940901606,14233.0,397.0,7626177.685519878,15374.0,397.0,22627732.224818975,19231.0,1142.0,9.0,16.0,21.0,"['A', 'A & B', 'AB', 'B', 'C']",14419503.37324555,16936.733333333334,764.6,17,85,2001/09,20,blank,,False,,,POINT Z (22.3264749 114.1807436 0),22.326474899999997,114.1807436
180,"BALWIN COURT(Block 4),ARGYLE ST|寶雲閣4座,亞皆老街",KHMT,7505615.737940771,7043.0,638.0,8556705.839081846,7315.0,638.0,19627473.56321633,13963.0,1309.0,3.0,8.0,13.0,"['A', 'B', 'C', 'CD', 'D']",11738543.953083582,12201.666666666666,842.5333333333333,15,75,1976/12,45,BALWIN COURT,寶雲閣,True,5.0,299.0,POINT Z (22.3223931 114.1808481 0),22.322393100000003,114.18084809999999
181,"GRAND EXCELSIOR,WATERLOO RD|嘉多利豪園,窩打老道",KHMT,13285370.0,19978.0,665.0,14625976.0,21928.0,667.0,24083190.0,25218.0,955.0,11.0,22.0,31.0,"['A', 'B', 'C', 'D']",17451274.22222222,21486.666666666668,818.0,28,112,2002/10,19,blank,,False,,,POINT Z (22.3239666 114.1780196 0),22.323966600000002,114.1780196
182,"ST. GEORGE APTS,WATERLOO RD|聖佐治大廈,窩打老道",KHMT,23455930.1628133,12379.0,1015.0,25917296.451002527,13678.0,1015.0,33559310.6074724,14723.0,1221.0,9.0,16.0,22.0,"['A', 'B', 'C', 'D']",28416357.13682495,13771.5,1104.0,18,72,2002/04,19,blank,,False,,,POINT Z (22.3237478 114.1779588 0),22.3237478,114.1779588
183,"NO.1 HO MAN TIN HILL,HO MAN TIN HILL RD|何文田山1號,何文田山道",KHMT,22433279.452736355,20289.0,1041.0,23449425.65258991,21629.0,1008.0,40079198.86718911,25752.0,1503.0,8.0,18.0,27.0,"['A', 'B', 'C', 'D']",28091276.96708804,21845.166666666668,1232.75,28,112,2002/11,19,blank,,False,,,POINT Z (22.3173487 114.1758001 0),22.3173487,114.17580009999999
184,"PRINCESS COURT,KING TAK ST|嘉苑,敬德街",KHMT,9963341.053889297,4367.0,771.0,10243108.782757565,4507.0,771.0,15178206.954937365,4936.0,1109.0,7.0,11.0,16.0,"['A', 'B', 'C']",12498319.50284209,4617.11111111111,926.0,13,39,1972/12,49,blank,,False,,,POINT Z (22.31929 114.1798611 0),22.31929,114.1798611
185,"MING FAI HSE(Block A,KWUN FAI COURT),SHEUNG LOK ST|冠暉苑,A座(鳴暉閣),常樂街",KHMT,4806645.0,10890.0,411.0,4878981.0,11056.0,411.0,8138870.0,13085.0,622.0,4.0,6.0,9.0,"['1', '10', '11', '13', '3', '4', '5', '6', '7']",5812001.958333333,11617.25,502.7777777777778,10,90,1999/01,22,KWUN FAI COURT,冠暉苑,True,2.0,234.0,POINT Z (22.3143165 114.1826477 0),22.3143165,114.18264769999999
186,"CARMEL ON THE HILL,CARMEL VILLAGE ST|君逸山,迦密村街",KHMT,7502496.0,15126.0,492.0,7939968.0,16008.0,492.0,9128896.0,18368.0,502.0,10.0,18.0,27.0,"['A', 'B', 'C', 'D', 'E', 'F', 'G', 'H']",8258651.583333333,16625.791666666668,496.75,24,192,2003/10,18,blank,,False,,,POINT Z (22.313789 114.1792695 0),22.313789,114.1792695
187,"EDWARDIAN HEIGHTS,(Phase 2),PRINCE EDWARD RD W|愛華閣,2期,太子道西",KHMT,11071956.380444312,13399.0,793.0,9467678.620871905,11260.0,793.0,11580147.527095053,14014.0,812.0,3.0,6.0,9.0,"['A', 'B', 'C']",10869948.866538951,13152.27777777778,801.1111111111112,11,33,1973/02,48,blank,,False,,,POINT Z (22.3261748 114.1823691 0),22.3261748,114.18236909999999
188,"KO FAI HSE(Block B,KWUN FAI COURT),SHEUNG LOK ST|冠暉苑,B座(高暉閣),常樂街",KHMT,3816174.0,13114.0,287.0,3914844.0,13407.0,287.0,4302952.0,14834.0,296.0,7.0,10.0,13.0,"['1', '10', '11', '12', '13', '14', '15', '16', '24', '3', '4', '5', '6', '7', '8', '9']",4120706.488888889,14247.177777777777,289.3541666666667,9,144,1999/06,22,KWUN FAI COURT,冠暉苑,True,2.0,234.0,POINT Z (22.3141285 114.1819046 0),22.3141285,114.18190459999998
189,6C DUKE ST|6C 公爵街,KHMT,,,940.0,,,940.0,,,940.0,1.0,2.0,2.0,['whole floor'],,,940.0,2,2,1958/08,63,blank,,False,,,POINT Z (22.3261147 114.1759857 0),22.326114699999998,114.17598570000001
190,6 DUKE ST|6 公爵街,KHMT,,,968.0,,,968.0,,,968.0,0.0,0.0,0.0,['whole floor'],,,968.0,1,1,1958/08,63,blank,,False,,,POINT Z (22.3261147 114.1759857 0),22.326114699999998,114.17598570000001
191,"KAI HING BLDG,ARGYLE ST|皆興大廈,亞皆老街",KHMT,5555078.490665189,7630.0,390.0,5602099.802297031,7578.0,390.0,5738123.33932826,7762.0,950.0,1.0,4.0,7.0,"['A', 'B', 'whole floor']",5638691.223977822,7685.666666666667,575.3333333333334,9,27,1958/07,63,blank,,False,,,POINT Z (22.3201552 114.1751354 0),22.3201552,114.1751354
192,"NG FUNG HSE,WATERLOO RD|五豐樓,窩打老道",KHMT,14145728.0,11633.0,1216.0,14553087.999999998,11875.0,1216.0,15269894.629026126,12212.0,1216.0,3.0,7.0,10.0,"['A', 'B']",14916343.201374635,12050.833333333334,1216.0,11,22,1964/01,57,blank,,False,,,POINT Z (22.3249226 114.1787 0),22.3249226,114.1787
193,"KWUN HEI COURT,SHEUNG LOK ST|冠熹苑,常樂街",KHMT,3031415.9999999995,10163.0,213.0,3355666.5891417116,11116.0,212.0,8574467.0,16398.0,601.0,8.0,20.0,33.0,"['1', '10', '11', '12', '13', '14', '15', '16', '17', '18', '19', '2', '20', '3', '4', '5', '6', '7', '8', '9']",5958109.388608794,12617.252723311547,439.75,40,800,2000/05,21,blank,,False,,,POINT Z (22.314472 114.1831818 0),22.314472,114.1831818
194,13 LIBERTY AVE|13 自由道,KHMT,,,788.0,,,788.0,,,788.0,1.0,1.0,1.0,['whole floor'],,,788.0,1,1,1964/06,57,blank,,False,,,POINT Z (22.3186438 114.1740588 0),22.3186438,114.1740588
195,268-270C PRINCE EDWARD RD W|268-270C 太子道西,KHMT,7555383.822563563,10972.0,665.0,7613915.323194068,11057.0,665.0,9586100.194956042,11674.0,793.0,0.0,1.0,2.0,"['A', 'E', 'F', 'H']",8998348.058808284,11404.416666666666,761.0,3,12,1958/01,63,blank,,False,,,POINT Z (22.3256252 114.1777429 0),22.325625199999998,114.1777429
196,6A DUKE ST|6A 公爵街,KHMT,,,933.0,,,933.0,,,933.0,1.0,1.0,1.0,['whole floor'],,,933.0,1,1,1958/08,63,blank,,False,,,POINT Z (22.3261147 114.1759857 0),22.326114699999998,114.17598570000001
197,"HOVE COURT(PERTH GARDEN),PERTH ST|巴富花園(豪富閣),巴富街",KHMT,11100685.0,14141.0,785.0,11573255.0,14743.0,785.0,13260945.0,16035.0,980.0,8.0,14.0,21.0,"['A', 'B', 'C', 'D', 'E', 'F']",12033012.333333334,14993.666666666666,865.6666666666666,20,120,1980/07,41,PERTH GARDEN,巴富花園,True,3.0,360.0,POINT Z (22.3211723 114.179536 0),22.3211723,114.17953600000001
198,"GARVE COURT(PERTH GARDEN),PERTH ST|巴富花園(嘉富閣),巴富街",KHMT,11624280.0,14808.0,785.0,12070945.0,15377.0,785.0,17980060.0,18347.0,1010.0,8.0,15.0,22.0,"['A', 'B', 'C', 'D', 'E', 'F']",13881644.944444446,16051.777777777776,862.1111111111112,21,126,1980/07,41,PERTH GARDEN,巴富花園,True,3.0,360.0,POINT Z (22.321344 114.17981 0),22.321344,114.17981
199,"PARK HORIZON,WATERLOO RD|翠林雅軒,窩打老道",KHMT,8915943.0,15189.0,587.0,9478289.0,16147.0,587.0,12958792.0,16951.0,772.0,12.0,20.0,27.0,"['A', 'B']",11116366.833333334,16328.0,679.5,22,44,2006/10,15,blank,,False,,,POINT Z (22.3178207 114.1753561 0),22.3178207,114.1753561
200,"GAY MANSION,WATERLOO RD|寶建大廈,窩打老道",KHMT,8667720.187342627,5697.0,815.0,8921802.910053918,5864.0,815.0,8757485.939677754,5756.0,825.0,3.0,7.0,10.0,"['A', 'B']",8782336.345691433,5772.333333333333,820.0,11,22,1966/04,55,blank,,False,,,POINT Z (22.3169498 114.1745201 0),22.316949800000003,114.1745201
201,11 LIBERTY AVE|11 自由道,KHMT,,,803.0,,,803.0,,,650.0,3.0,4.0,5.0,['whole floor'],,,752.0,4,4,1963/05,58,blank,,False,,,POINT Z (22.3186438 114.1740588 0),22.3186438,114.1740588
202,"BELFRAN MANSION,BELFRAN RD|福園,巴芬道",KHMT,,,1040.0,,,1040.0,,,1098.0,2.0,6.0,9.0,"['1', '4A', '5', '6A', '7']",,,1074.8,9,45,1966/10,55,blank,,False,,,POINT Z (22.3264068 114.1773067 0),22.3264068,114.1773067
203,"15 HOMANTIN HILL,HO MAN TIN HILL RD|灝畋峰,何文田山道",KHMT,83376185.74993385,21821.0,1620.0,49311968.649369575,28601.0,1620.0,59301427.25161622,30189.0,3498.0,17.0,28.0,40.0,"['A', 'AB', 'B', 'whole floor']",79286900.83860317,27780.94444444444,2512.8333333333335,34,136,2006/04,15,blank,,False,,,POINT Z (22.3159481 114.1765868 0),22.315948100000004,114.1765868
204,"GARTIN COURT,HO MAN TIN ST|嘉田大廈,何文田街",KHMT,11261861.756161649,7221.0,792.0,11461461.511587908,7319.0,792.0,12127365.27476673,8019.0,870.0,4.0,6.0,9.0,"['B', 'FRONT FLAT', 'REAR']",11670647.9792978,7652.666666666667,818.0,10,30,1964/02,57,blank,,False,,,POINT Z (22.3159534 114.175263 0),22.315953399999998,114.17526299999999
205,"BALWIN COURT(Block 5),ARGYLE ST|寶雲閣5座,亞皆老街",KHMT,8025545.2851425465,11553.0,638.0,8324157.934869616,12113.0,638.0,10518750.08305657,14691.0,815.0,3.0,8.0,12.0,"['A', 'B', 'C', 'D']",9471859.905376123,12762.916666666666,726.5,14,56,1976/12,45,BALWIN COURT,寶雲閣,True,5.0,299.0,POINT Z (22.3223931 114.1808481 0),22.322393100000003,114.18084809999999
206,23 SOARES AVE|23 梭椏道,KHMT,,,473.0,,,473.0,,,473.0,4.0,6.0,9.0,['whole floor'],,,473.0,10,10,1973/07,48,blank,,False,,,POINT Z (22.3192803 114.1751104 0),22.319280300000003,114.17511040000001
207,"BALWIN COURT(Block 2),ARGYLE ST|寶雲閣2座,亞皆老街",KHMT,9358822.0,14477.0,638.0,9711636.0,15015.0,638.0,12686289.999999998,15855.0,815.0,3.0,8.0,12.0,"['A', 'B', 'C', 'D']",11007305.0,15154.583333333334,727.0833333333334,14,56,1976/12,45,BALWIN COURT,寶雲閣,True,5.0,299.0,POINT Z (22.3223931 114.1808481 0),22.322393100000003,114.18084809999999
208,"CHUEN FAT BLDG,VALLEY RD|全發大廈,山谷道",KHMT,3769344.0,12969.0,288.0,4032288.0,13613.0,288.0,5272689.0,14836.0,367.0,4.0,11.0,19.0,"['A', 'B', 'C', 'D']",4524121.583333333,13835.5,327.5,21,84,1978/12,43,blank,,False,,,POINT Z (22.3098464 114.1839017 0),22.309846399999998,114.18390169999999
209,"YEE ON COURT(Block A),WATERLOO RD|怡安閣A座,窩打老道",KHMT,11843736.54222105,11731.0,975.0,12397002.898468355,12279.0,975.0,14895787.992833463,14754.0,975.0,9.0,15.0,20.0,"['1', '2', '3', '4']",13183236.794321619,13057.75,975.0,17,68,1976/06,45,YEE ON COURT,怡安閣,True,3.0,320.0,POINT Z (22.3205439 114.17661 0),22.320543899999997,114.17661000000001
210,"THE HONG GARDEN,HO MAN TIN ST|康園,何文田街",KHMT,,,1141.0,,,1141.0,,,1141.0,1.0,2.0,2.0,['whole floor'],,,1141.0,4,4,1956/11,65,blank,,False,,,POINT Z (22.3151011 114.1753315 0),22.315101100000003,114.1753315
211,"MOUNTAIN COURT(Block B),HO MAN TIN HILL RD|文豪閣B座,何文田山道",KHMT,15617705.839707755,14723.0,985.0,15979793.455505578,15049.0,985.0,18677977.070099115,16018.0,1152.0,3.0,6.0,9.0,"['A', 'B', 'C', 'D']",17046851.53334896,15443.583333333334,1067.25,11,44,1985/03,36,MOUNTAIN COURT,文豪閣,True,2.0,92.0,POINT Z (22.316796 114.176508 0),22.316796,114.17650800000001
212,"ONE VICTORY,VICTORY AVE|勝利道1號,勝利道",KHMT,4089922.0,16662.0,226.0,4258744.0,17969.0,226.0,17129099.0,21086.0,823.0,9.0,18.0,26.0,"['A', 'B', 'C', 'whole floor']",9850628.916666666,18951.916666666668,515.0,23,92,2011/09,10,blank,,False,,,POINT Z (22.3184736 114.1747407 0),22.3184736,114.17474070000002
213,"MOUNTAIN COURT(Block A),HO MAN TIN HILL RD|文豪閣A座,何文田山道",KHMT,18070810.0,18346.0,985.0,18519970.0,18802.0,985.0,23143680.0,20096.0,1152.0,3.0,6.0,10.0,"['A', 'B', 'C', 'D']",20643329.0,19324.333333333332,1067.25,12,48,1985/03,36,MOUNTAIN COURT,文豪閣,True,2.0,92.0,POINT Z (22.316796 114.176508 0),22.316796,114.17650800000001
214,19 VALLEY RD|19 山谷道,KHMT,,,177.0,,,177.0,,,760.0,1.0,2.0,3.0,"['C', 'whole floor']",,,468.5,3,6,1951/10,70,blank,,False,,,POINT Z (22.3095873 114.1838606 0),22.3095873,114.18386059999999
215,"CHEERBOND COURT,BOUNDARY ST|昌邦閣,界限街",KHMT,14840624.965826152,15889.0,902.0,15068525.556905614,16133.0,902.0,16038971.10662513,17172.0,902.0,3.0,5.0,7.0,"['A', 'B']",15217190.218436277,16292.166666666666,902.0,7,14,1991/08,30,blank,,False,,,POINT Z (22.3268522 114.1811151 0),22.3268522,114.18111509999999
216,1B LIBERTY AVE|1B 自由道,KHMT,,,988.0,,,988.0,,,988.0,0.0,1.0,2.0,['whole floor'],,,988.0,3,3,1955/08,66,blank,,False,,,POINT Z (22.3186438 114.1740588 0),22.3186438,114.1740588
217,"KADOORIE HILL,PRINCE EDWARD RD W|KADOORIE HILL,太子道西",KHMT,25820154.903399564,23282.0,610.0,31279946.35927604,25575.0,1102.0,44402815.456885904,29451.0,1456.0,9.0,16.0,20.0,"['A', 'B', 'C', 'D', 'E']",33031677.317245316,26686.8,1160.1333333333334,16,80,2013/01,8,blank,,False,,,POINT Z (22.324937 114.175459 0),22.324937,114.175459
218,"THE PENTLAND COURT,PENTLAND ST|品蘭臺,品蘭街",KHMT,,,1141.0,,,1141.0,,,1178.0,1.0,2.0,4.0,"['A', 'B']",,,1147.1666666666667,5,10,1961/06,60,blank,,False,,,POINT Z (22.3261485 114.1841354 0),22.3261485,114.1841354
219,"KADOORIE LOOKOUT,ARGYLE ST|加多利峰,亞皆老街",KHMT,9501258.0,17826.0,533.0,10052380.000000002,18860.0,533.0,22532961.0,24519.0,960.0,9.0,16.0,22.0,"['A', 'B', 'C']",16794578.222222224,20600.777777777777,804.0,18,54,2014/03,7,blank,,False,,,POINT Z (22.3200972 114.1749058 0),22.3200972,114.17490579999999
220,"DUNBAR PLACE,DUNBAR RD|DUNBAR PLACE,登巴道",KHMT,23802205.0,19655.0,1211.0,25854850.0,21350.0,1211.0,45427920.0,24824.0,4248.0,9.0,16.0,21.0,"['A', 'A-C', 'B', 'C']",32013697.666666668,22417.44444444444,2124.6666666666665,18,72,2013/08,8,blank,,False,,,POINT Z (22.3220695 114.1801687 0),22.3220695,114.1801687
221,"PAXTON,PRINCE EDWARD RD W|雋瓏,太子道西",KHMT,26558426.363532726,27431.0,935.0,30497024.24355355,31499.0,935.0,62201981.26448877,35281.0,4412.0,5.0,10.0,17.0,"['A', 'ABC', 'B', 'C']",47999753.959811926,31782.05555555556,2206.0,15,60,2014/03,7,blank,,False,,,POINT Z (22.326324 114.183337 0),22.326324,114.18333700000001
222,"3 JULIA AVENUE,JULIA AVE|棗梨雅道3號,棗梨雅道",KHMT,14448645.0,22059.0,655.0,,,655.0,,,1887.0,22.0,68.0,102.0,"['A', 'B', 'C']",19279173.288958255,22825.0,1137.4444444444446,96,288,2015/09,6,blank,,False,,,POINT Z (22.31995 114.1751238 0),22.31995,114.1751238
223,"8 LASALLE,LA SALLE RD|傲名,喇沙利道",KHMT,16748963.127886657,24431.0,599.0,17609888.240707703,27734.0,599.0,65504149.906729564,32637.0,2545.0,5.0,10.0,17.0,"['A', 'A-C', 'AB', 'B', 'C', 'D']",33803973.916181095,29300.800000000003,1341.3333333333333,15,90,2014/07,7,blank,,False,,,POINT Z (22.3266361 114.1820819 0),22.3266361,114.18208190000001
224,"EUGENE TERRACE,EARL ST|耀爵臺,伯爵街",KHMT,,,982.0,,,1986.0,,,1986.0,15.0,30.0,57.0,['whole floor'],,,1651.3333333333333,44,44,2010/11,11,blank,,False,,,POINT Z (22.326892 114.180598 0),22.326892,114.180598
225,"ULTIMA(Phase 1),Block 7,FAT KWONG ST|天鑄1期,7座,佛光街",KHMT,33452146.0,31381.0,1066.0,,,1066.0,,,5253.0,23.0,68.0,102.0,"['A', 'B', 'C', 'CD', 'D']",46237792.0,34815.75,2476.0000000000005,95,475,2015/11,6,ULTIMA,天鑄,True,7.0,1567.0,POINT Z (22.3131109 114.1815051 0),22.313110899999998,114.1815051
226,"ULTIMA(Phase 1),Block 6,FAT KWONG ST|天鑄1期,6座,佛光街",KHMT,25773300.0,28637.0,900.0,28911600.0,32124.0,900.0,,,4036.0,14.0,31.0,58.0,"['A', 'B', 'C', 'D']",44080728.79166667,32019.375,1633.9166666666667,47,188,2015/11,6,ULTIMA,天鑄,True,7.0,1567.0,POINT Z (22.3131109 114.1815051 0),22.313110899999998,114.1815051
227,"ULTIMA(Phase 1),Block 8,FAT KWONG ST|天鑄1期,8座,佛光街",KHMT,25558170.0,27329.0,902.0,27538962.000000004,30474.0,902.0,56007888.0,36047.0,1576.0,8.0,17.0,24.0,"['A', 'B', 'C', 'D']",40244447.0,31189.583333333332,1283.75,21,84,2015/11,6,ULTIMA,天鑄,True,7.0,1567.0,POINT Z (22.3131109 114.1815051 0),22.313110899999998,114.1815051
228,"ONE HOMANTIN(Block 1),SHEUNG FOO ST|ONE HOMANTIN1座,常富街",KHMT,15451657.0,27139.0,503.0,,,503.0,,,1470.0,20.0,66.0,102.0,"['A', 'B', 'C', 'D', 'E', 'EF', 'F', 'G']",22480931.873566896,30233.85714285714,829.0833333333334,98,784,2017/06,4,ONE HOMANTIN,ONE HOMANTIN,True,6.0,1823.0,POINT Z (22.3168383 114.1812535 0),22.3168383,114.1812535
229,"ONE HOMANTIN(Block 2),SHEUNG FOO ST|ONE HOMANTIN2座,常富街",KHMT,8043012.0,19823.0,372.0,8528844.0,22187.0,372.0,18561110.0,27611.0,697.0,4.0,10.0,16.0,"['A', 'B', 'C', 'D', 'E', 'F']",11789759.944444446,23676.0,496.3333333333333,16,96,2017/06,4,ONE HOMANTIN,ONE HOMANTIN,True,6.0,1823.0,POINT Z (22.3168383 114.1812535 0),22.3168383,114.1812535
230,"ONE HOMANTIN(Block 3),SHEUNG FOO ST|ONE HOMANTIN3座,常富街",KHMT,12563500.000000002,25127.0,483.0,,,483.0,,,752.0,19.0,63.0,98.0,"['A', 'B', 'C', 'D', 'E', 'F', 'G']",15064637.142857144,28208.14285714286,535.5714285714286,95,665,2017/06,4,ONE HOMANTIN,ONE HOMANTIN,True,6.0,1823.0,POINT Z (22.3168383 114.1812535 0),22.3168383,114.1812535
231,"ULTIMA(Phase 2),Block 2,FAT KWONG ST|天鑄2期,2座,佛光街",KHMT,84171340.0,47932.0,1237.0,,,1708.0,,,2173.0,23.0,68.0,103.0,"['A', 'B', 'C', 'D']",93085318.0,48181.0,1852.4166666666667,96,384,2016/04,5,ULTIMA,天鑄,True,7.0,1567.0,POINT Z (22.3131109 114.1815051 0),22.313110899999998,114.1815051
232,"ULTIMA(Phase 2),Block 1,FAT KWONG ST|天鑄2期,1座,佛光街",KHMT,30733408.6662945,28092.0,994.0,34680715.08095137,33058.0,994.0,87846756.0,40897.0,2148.0,7.0,14.0,20.0,"['A', 'B', 'C', 'CD', 'D']",57864240.42150333,34725.86666666666,1627.5999999999997,18,90,2016/04,5,ULTIMA,天鑄,True,7.0,1567.0,POINT Z (22.3131109 114.1815051 0),22.313110899999998,114.1815051
233,"ULTIMA(Phase 2),Block 3,FAT KWONG ST|天鑄2期,3座,佛光街",KHMT,42343747.0,34079.0,1237.0,99622160.0,51266.0,1738.0,,,3446.0,16.0,36.0,65.0,"['A', 'AB', 'B', 'C', 'D']",106556252.28047816,47648.5,2211.5333333333333,54,270,2016/04,5,ULTIMA,天鑄,True,7.0,1567.0,POINT Z (22.3131109 114.1815051 0),22.313110899999998,114.1815051
234,"MANTIN HEIGHTS(Block 1),SHEUNG SHING ST|皓畋1座,常盛街",KHMT,9726792.0,19857.0,399.0,10393710.0,20331.0,399.0,35468771.0,28197.0,1339.0,6.0,15.0,22.0,"['A', 'AB', 'B', 'C', 'CD', 'D', 'E', 'EF', 'F', 'G', 'H', 'J']",16945509.166666668,23713.833333333332,717.5,23,276,2017/03,4,MANTIN HEIGHTS,皓畋,True,9.0,2327.0,POINT Z (22.3193908 114.1812438 0),22.3193908,114.1812438
235,"MANTIN HEIGHTS(Block 2),SHEUNG SHING ST|皓畋2座,常盛街",KHMT,12859140.0,21612.0,550.0,,,550.0,,,1615.0,20.0,64.0,98.0,"['A', 'B', 'C', 'CD', 'D', 'E', 'F', 'G', 'H']",19549745.67589064,24501.875,875.0,94,846,2017/03,4,MANTIN HEIGHTS,皓畋,True,9.0,2327.0,POINT Z (22.3193908 114.1812438 0),22.3193908,114.1812438
236,"MANTIN HEIGHTS(Block 6),SHEUNG SHING ST|皓畋6座,常盛街",KHMT,11091674.0,24101.0,454.0,13505540.000000002,23662.0,535.0,26741680.0,29680.0,3855.0,6.0,15.0,22.0,"['A', 'AB', 'B', 'C', 'D', 'E', 'F', 'G', 'H']",17431437.083333332,26167.5,1133.7407407407406,23,207,2017/03,4,MANTIN HEIGHTS,皓畋,True,9.0,2327.0,POINT Z (22.3193908 114.1812438 0),22.3193908,114.1812438
237,"MANTIN HEIGHTS(Block 5),SHEUNG SHING ST|皓畋5座,常盛街",KHMT,11721582.0,20727.0,529.0,12841212.0,21876.0,529.0,27408256.0,29965.0,932.0,6.0,15.0,22.0,"['A', 'B', 'C', 'D', 'E', 'F', 'G', 'H']",17743391.101190478,25928.333333333332,674.75,23,184,2017/03,4,MANTIN HEIGHTS,皓畋,True,9.0,2327.0,POINT Z (22.3193908 114.1812438 0),22.3193908,114.1812438
238,"ULTIMA(Phase 2),Block 5,FAT KWONG ST|天鑄2期,5座,佛光街",KHMT,33476408.0,25438.0,1160.0,39966920.0,30370.0,1160.0,66288979.0,39933.0,1723.0,7.0,15.0,21.0,"['A', 'B', 'C', 'D']",46739917.666666664,32930.583333333336,1379.75,19,76,2016/04,5,ULTIMA,天鑄,True,7.0,1567.0,POINT Z (22.3131109 114.1815051 0),22.313110899999998,114.1815051
239,"ONE HOMANTIN(Block 5),SHEUNG FOO ST|ONE HOMANTIN5座,常富街",KHMT,10901358.0,22172.0,477.0,11839410.0,23918.0,477.0,40888522.029175654,28437.0,1411.0,3.0,9.0,16.0,"['A', 'AE', 'B', 'C', 'D', 'E']",19156214.761945512,24824.94444444444,757.1666666666666,17,102,2017/06,4,ONE HOMANTIN,ONE HOMANTIN,True,6.0,1823.0,POINT Z (22.3168383 114.1812535 0),22.3168383,114.1812535
240,"SEVEN VICTORY AVENUE,VICTORY AVE|加多利軒,勝利道",KHMT,4644540.0,23739.0,179.0,,,179.0,,,390.0,21.0,67.0,102.0,"['A', 'B', 'C', 'D', 'E', 'F', 'G', 'H', 'J', 'K']",6621730.2,25539.5,260.7,97,970,2018/11,3,blank,,False,,,POINT Z (22.3194898 114.1744049 0),22.319489800000003,114.17440490000001
241,"MANTIN HEIGHTS(Block 8),SHEUNG SHING ST|皓畋8座,常盛街",KHMT,10731225.0,18663.0,575.0,11629375.0,20225.0,575.0,30735650.0,25850.0,1205.0,6.0,15.0,22.0,"['A', 'B', 'C', 'CD', 'D', 'E', 'EF', 'F']",16381865.390225967,21385.82738095238,742.25,21,168,2017/03,4,MANTIN HEIGHTS,皓畋,True,9.0,2327.0,POINT Z (22.3193908 114.1812438 0),22.3193908,114.1812438
242,"ONE HOMANTIN(Block 7),SHEUNG FOO ST|ONE HOMANTIN7座,常富街",KHMT,9606195.0,23090.0,405.0,10149300.0,23952.0,405.0,29315202.0,30347.0,966.0,4.0,10.0,16.0,"['A', 'B', 'C', 'CD', 'D', 'E']",18480339.944444444,26230.94444444444,698.8333333333334,16,96,2017/06,4,ONE HOMANTIN,ONE HOMANTIN,True,6.0,1823.0,POINT Z (22.3168383 114.1812535 0),22.3168383,114.1812535
243,"ONE HOMANTIN(Block 6),SHEUNG FOO ST|ONE HOMANTIN6座,常富街",KHMT,9978390.0,19547.0,485.0,10457085.0,21561.0,485.0,18893616.0,27804.0,696.0,4.0,10.0,16.0,"['A', 'B', 'C', 'D', 'E']",13971986.266666666,23457.93333333333,591.6,16,80,2017/06,4,ONE HOMANTIN,ONE HOMANTIN,True,6.0,1823.0,POINT Z (22.3168383 114.1812535 0),22.3168383,114.1812535
244,"MANTIN HEIGHTS(Block 9),SHEUNG SHING ST|皓畋9座,常盛街",KHMT,12759845.392000979,21209.0,581.0,12998820.629683593,21349.0,581.0,40831599.00000001,34933.0,1171.0,7.0,16.0,22.0,"['A', 'B', 'C', 'CD', 'D', 'E', 'EF', 'F']",25384378.101730186,28247.5,847.5833333333334,22,176,2017/03,4,MANTIN HEIGHTS,皓畋,True,9.0,2327.0,POINT Z (22.3193908 114.1812438 0),22.3193908,114.1812438
245,"MANTIN HEIGHTS(Block 10),SHEUNG SHING ST|皓畋10座,常盛街",KHMT,12798045.933173204,20948.0,539.0,14384600.0,23805.0,539.0,45152900.0,34733.0,1300.0,7.0,16.0,22.0,"['A', 'B', 'C', 'D', 'E', 'F']",22250191.280230906,27855.77777777778,754.0,22,132,2017/03,4,MANTIN HEIGHTS,皓畋,True,9.0,2327.0,POINT Z (22.3193908 114.1812438 0),22.3193908,114.1812438
246,"NAIRN COURT,PRINCESS MARGARET RD|楠苑,公主道",KHMT,,,1561.0,,,1356.0,,,1356.0,5.0,6.0,6.0,['whole floor'],,,1424.3333333333333,2,2,1960/03,61,blank,,False,,,POINT Z (22.3207879 114.1783172 0),22.3207879,114.1783172
247,"MANTIN HEIGHTS(Block 7),SHEUNG SHING ST|皓畋7座,常盛街",KHMT,9995165.229402324,20842.0,453.0,13233907.573958559,22502.0,528.0,57969296.0,39248.0,1477.0,7.0,16.0,22.0,"['A', 'B', 'C', 'D', 'E', 'F', 'G']",25621847.961756233,29419.238095238095,817.0952380952381,22,154,2017/03,4,MANTIN HEIGHTS,皓畋,True,9.0,2327.0,POINT Z (22.3193908 114.1812438 0),22.3193908,114.1812438
248,"KADOORIA,KADOORIE AVE|KADOORIA,嘉道理道",KHMT,52585568.0,35126.0,1267.0,55539204.0,38632.0,1267.0,100356494.0,48642.0,2219.0,1.0,3.0,6.0,"['111', '113', '115', '117', '119', '121', '123', '125', '127', '129', '131', '133', 'whole floor']",75153743.79487179,42516.307692307695,1772.3589743589744,7,91,2016/06,5,blank,,False,,,POINT Z (22.3245815 114.1749941 0),22.3245815,114.17499409999999
249,"MANTIN HEIGHTS(Block 3),SHEUNG SHING ST|皓畋3座,常盛街",KHMT,11894565.0,22485.0,529.0,13211775.0,24975.0,529.0,31014688.0,33649.0,928.0,6.0,15.0,22.0,"['A', 'B', 'C', 'D', 'E', 'F', 'G', 'H']",19893906.166666668,27221.291666666668,720.875,23,184,2017/03,4,MANTIN HEIGHTS,皓畋,True,9.0,2327.0,POINT Z (22.3193908 114.1812438 0),22.3193908,114.1812438
250,"CRISTALLO,PRINCE EDWARD RD W|明寓,太子道西",KHMT,42953759.99999999,32940.0,1304.0,44255152.00000001,33938.0,1304.0,48312800.0,36880.0,2718.0,4.0,8.0,11.0,"['A', 'B']",46148612.0,35279.0,1542.6666666666667,11,22,2016/10,5,blank,,False,,,POINT Z (22.3257034 114.1799919 0),22.3257034,114.1799919
251,"MOUNT TRIO COURT,HOK YU LANE|鼎峰花園,學餘里",KHMT,15144350.0,12979.0,1150.0,15489350.0,13293.0,1150.0,16188285.0,13770.0,1185.0,6.0,9.0,12.0,"['B1', 'C1', 'C2']",15688677.777777776,13372.0,1173.3333333333333,9,27,1965/02,56,MOUNT TRIO COURT,鼎峰花園,True,2.0,78.0,POINT Z (22.3204044 114.1777711 0),22.3204044,114.17777109999999
252,6B DUKE ST|6B 公爵街,KHMT,,,1032.0,,,1032.0,,,1032.0,0.0,0.0,0.0,['whole floor'],,,1032.0,1,1,1958/08,63,blank,,False,,,POINT Z (38.81310080000001 -77.11115959999999 0),38.81310080000001,-77.1111596
253,17 VALLEY RD|17 山谷道,KHMT,8167604.0,12527.0,652.0,8301264.0,12732.0,652.0,8301264.0,12732.0,652.0,5.0,6.0,6.0,['whole floor'],8256710.666666667,12663.666666666666,652.0,4,4,1964/01,57,blank,,False,,,POINT Z (22.3095873 114.1838606 0),22.3095873,114.18386059999999
254,21 VALLEY RD|21 山谷道,KHMT,,,712.0,,,712.0,,,712.0,3.0,3.0,3.0,['whole floor'],,,712.0,1,1,9999,-7978,blank,,False,,,POINT Z (22.3095873 114.1838606 0),22.3095873,114.18386059999999
255,"TIMBER HSE,WATERLOO RD|瑧樺,窩打老道",KHMT,4478412.0,18855.0,204.0,4644432.0,19341.0,204.0,10925020.0,23433.0,526.0,8.0,18.0,26.0,"['A1', 'A2', 'A3', 'A5', 'A6', 'B1', 'B2', 'B3', 'B5', 'B6']",6540831.5,21307.033333333333,308.7,24,240,2021/02,0,blank,,False,,,POINT Z (22.3178824 114.1750356 0),22.3178824,114.17503559999999
256,1C LIBERTY AVE|1C 自由道,KHMT,,,1109.0,,,1109.0,,,1109.0,3.0,3.0,3.0,['whole floor'],,,1109.0,1,1,1955/08,66,blank,,False,,,POINT Z (22.3186438 114.1740588 0),22.3186438,114.1740588
257,"LASALLE RESIDENCE,LA SALLE RD|晟林,喇沙利道",KHMT,6592382.999999999,23503.0,260.0,7251849.0,24120.0,297.0,11513282.0,29206.0,419.0,3.0,6.0,8.0,"['A', 'B', 'C', 'D', 'E', 'F']",9543928.01111111,25391.911111111112,368.8888888888889,7,42,2018/06,3,blank,,False,,,POINT Z (22.3266361 114.1820819 0),22.3266361,114.18208190000001
258,"GRAND HOMM(Block 2),SHEUNG SHING ST|傲玟2座,常盛街",KHMT,37068663.0,26421.0,1403.0,37946941.0,27047.0,1403.0,42326774.99999999,29703.0,1425.0,6.0,9.0,13.0,"['A', 'B']",39307891.666666664,27794.0,1414.0,11,22,2020/11,1,GRAND HOMM,傲玟,True,2.0,50.0,POINT Z (22.3170931 114.1798338 0),22.3170931,114.1798338
259,"KWUN TAK COURT(Block B),SHEUNG LOK ST|冠德苑B座,常樂街",KHMT,3499034.9999999995,7597.0,445.0,3754464.9999999995,8325.0,445.0,5197615.999999999,9232.0,563.0,5.0,14.0,22.0,"['1', '2', '3', '4', '5', '6', '7', '8', '9']",4276132.814814814,8481.407407407407,503.4444444444445,26,234,2019/09,2,KWUN TAK COURT,冠德苑,True,3.0,538.0,POINT Z (22.3143178 114.1840736 0),22.3143178,114.1840736
260,"KWUN TAK COURT(Block A),SHEUNG LOK ST|冠德苑A座,常樂街",KHMT,3777916.0000000005,7826.0,482.0,4010722.0,8247.0,482.0,5375524.0,9584.0,568.0,5.0,13.0,21.0,"['1', '2', '3', '4', '6', '7']",4642978.166666667,8650.388888888889,537.0,25,150,2019/09,2,KWUN TAK COURT,冠德苑,True,3.0,538.0,POINT Z (22.3143178 114.1840736 0),22.3143178,114.1840736
261,"KWUN TAK COURT(Block C),SHEUNG LOK ST|冠德苑C座,常樂街",KHMT,3756168.0,7851.0,468.0,3932604.0,8276.0,468.0,5107456.0,8992.0,568.0,9.0,16.0,23.0,"['1', '2', '3', '4', '5', '6', '7']",4490304.666666667,8510.761904761905,527.1428571428571,22,154,2019/09,2,KWUN TAK COURT,冠德苑,True,3.0,538.0,POINT Z (22.3143178 114.1840736 0),22.3143178,114.1840736
262,"GRAND HOMM(Block 3),SHEUNG SHING ST|傲玟3座,常盛街",KHMT,27431946.0,28576.0,934.0,28303338.0,29456.0,934.0,36973852.0,32025.0,1228.0,10.0,14.0,17.0,"['A', 'C', 'D']",31159844.0,30225.333333333332,1033.6666666666667,10,30,2020/11,1,GRAND HOMM,傲玟,True,2.0,50.0,POINT Z (22.3172996 114.1799387 0),22.317299600000002,114.17993870000001
263,"128 WATERLOO,WATERLOO RD|128 WATERLOO,窩打老道",KHMT,9880722.0,28891.0,331.0,10044539.999999998,29370.0,331.0,19968552.0,34488.0,579.0,4.0,6.0,6.0,"['A', 'B', 'C', 'E', 'G']",14508747.533333333,31291.2,461.6000000000001,4,20,2022/02,-1,blank,,False,,,POINT Z (22.3266882 114.1788394 0),22.3266882,114.17883940000002
