,final_address,district,lowZone_value,lowZone_npsf_min,lowZone_nfa_min,midZone_value,midZone_npsf_min,midZone_nfa_min,highZone_value,highZone_npsf_max,highZone_nfa_max,oneSixth_floor,middle_floor,fifthSixth_floor,unit_list,value_avg,npsf_avg,unitSize_avg,noStorey,noFlat,op_date,bldgAge,est_name_en,est_name_ch,est_orNot,est_bldgNo,est_flatNo,final_coords,lat,long
0,"MERRY COURT(Block 2),FESSENDEN RD|真能閣2座,范信達道",KKL,9587956.248653658,12640.0,670,9889096.963109,13037.0,670,13219770.0,19731.0,670,1.0,4.0,7.0,"['A', 'B', 'C', 'D', 'E', 'F', 'G', 'H']",11138157.280137658,15287.583333333334,668.3333333333334,9,72,1975/08,46,MERRY COURT,真能閣,True,2.0,144.0,POINT Z (22.3425775 114.1824387 0),22.3425775,114.1824387
1,"BEVERLY VILLAS(Block 6),LA SALLE RD|碧華花園6座,喇沙利道",KKL,20886676.830912355,13281.0,1175,18834121.918749873,13777.0,1145,29030229.60316489,15551.0,1601,3.0,6.0,10.0,"['A', 'B', 'C', 'D']",24467030.161290873,14422.583333333334,1366.5,12,48,1980/12,41,BEVERLY VILLAS,碧華花園,True,10.0,480.0,POINT Z (22.3273631 114.1821601 0),22.327363100000003,114.1821601
2,"CLIFFORD MANSION,BROADCAST DR|嘉翠園,廣播道",KKL,10820775.0,15431.0,525,11132625.0,17187.0,525,15163440.0,21700.0,820,2.0,4.0,5.0,"['A', 'B', 'C', 'D', 'E', 'F', 'G', 'H']",12598008.333333334,19544.875,655.0,6,48,1978/08,43,blank,,False,,,POINT Z (22.3428823 114.1827174 0),22.3428823,114.18271740000002
3,"HAPPY GARDEN(Block B),BROADCAST DR|雅樂園B座,廣播道",KKL,13716195.907920996,14957.0,600,10364173.894226411,13244.0,600,14367295.666871583,15667.0,1210,2.0,4.0,6.0,"['1', '2', '3', '34', '4']",13393511.02484507,14928.833333333334,815.0,7,35,1976/02,45,HAPPY GARDEN,雅樂園,True,1.0,35.0,POINT Z (22.3415555 114.1832515 0),22.3415555,114.18325149999998
4,"TANG COURT(Block D3),NGA TSIN WAI RD|怡德花園D3座,衙前圍道",KKL,,,1007,,,1007,,,1010,1.0,2.0,3.0,"['A', 'B']",,,1008.5,3,6,1987/01,34,TANG COURT,怡德花園,True,3.0,24.0,POINT Z (22.3296829 114.1833444 0),22.329682899999998,114.18334440000001
5,"CHERMAIN HEIGHTS(Block 2),EASTBOURNE RD|霞明閣2座,義本道",KKL,10684013.801488366,12417.0,730,11114230.995717585,12917.0,730,12908859.378434537,15070.0,790,3.0,6.0,10.0,"['C1', 'C2', 'C3', 'D1', 'D2', 'D3']",12214438.005970083,14138.244444444446,765.0,12,72,1969/04,52,CHERMAIN HEIGHTS,霞明閣,True,2.0,144.0,POINT Z (22.3436927 114.177446 0),22.3436927,114.177446
6,"JUMBO COURT,BROADCAST DR|珍寶閣,廣播道",KKL,13729043.431795783,7863.0,889,14270313.107982567,8173.0,889,14965233.53095786,8571.0,1020,2.0,5.0,8.0,"['A', 'B', 'C', 'D']",14321530.023578739,8202.333333333334,954.75,9,36,1976/06,45,blank,,False,,,POINT Z (22.3428295 114.1815331 0),22.3428295,114.1815331
7,"FABER GARDEN(Block C),MARCONI RD|百美花園C座,馬可尼道",KKL,5676277.581849615,10056.0,440,5824167.868886668,10318.0,440,5950043.952891488,10541.0,490,2.0,4.0,6.0,"['1', '2', '3']",5816829.801209257,10305.0,456.6666666666667,7,21,1977/03,44,FABER GARDEN,百美花園,True,3.0,63.0,POINT Z (22.3416917 114.1819743 0),22.3416917,114.18197430000001
8,"KWONG FAI COURT,FESSENDEN RD|光輝園,范信達道",KKL,5865415.334066768,5011.0,410,5671111.0144788455,4845.0,410,13287371.25882047,15860.0,760,2.0,5.0,8.0,"['A', 'B', 'C', 'D', 'E', 'F', 'G', 'H']",10166652.193178821,11402.24603174603,662.5,9,72,1976/00,45,blank,,False,,,POINT Z (22.3416651 114.1828335 0),22.3416651,114.1828335
9,"ALICE COURT(Block B),BROADCAST DR|雅麗園B座,廣播道",KKL,9454815.348544829,12848.0,440,9917695.08502013,13477.0,440,10956400.0,16856.0,650,2.0,5.0,8.0,"['E', 'F', 'G']",10249580.868114833,14880.666666666666,580.0,9,27,1971/10,50,ALICE COURT,雅麗園,True,2.0,63.0,POINT Z (22.3426482 114.1813009 0),22.3426482,114.18130090000001
10,"BEVERLY VILLAS(Block 3),LA SALLE RD|碧華花園3座,喇沙利道",KKL,26095843.58158622,9522.0,1175,27118081.520667467,9895.0,1175,28474670.74277261,11166.0,1601,3.0,6.0,10.0,"['A', 'B', 'C', 'D']",26131323.96292184,10065.0,1385.5,12,48,1981/01,40,BEVERLY VILLAS,碧華花園,True,10.0,480.0,POINT Z (22.32743 114.183488 0),22.32743,114.18348799999998
11,"NGA YUEN BLDG,SAU CHUK YUEN RD|雅園大廈,秀竹園道",KKL,,,726,,,1089,,,1089,1.0,3.0,6.0,['whole floor'],,,968.0,7,7,1963/12,58,blank,,False,,,POINT Z (22.3278851 114.1856201 0),22.327885100000003,114.1856201
12,"BOLAND COURT(Phase 1),BROADCAST DR|寶能閣1期,廣播道",KKL,6751432.784486785,9462.0,480,6917135.8459470635,9532.0,480,16415140.832907764,13413.0,1310,2.0,4.0,7.0,"['A', 'B', 'C', 'D', 'E', 'F', 'G', 'H']",8485270.138812011,11372.333333333334,610.4166666666666,10,80,1974/09,47,BOLAND COURT,寶能閣,True,2.0,160.0,POINT Z (22.3402406 114.1821438 0),22.3402406,114.1821438
13,"CHERMAIN HEIGHTS(Block 1),EASTBOURNE RD|霞明閣1座,義本道",KKL,12109240.0,16588.0,730,12669150.0,16953.0,730,15420400.0,20290.0,803,3.0,6.0,10.0,"['A1', 'A2', 'A3', 'B1', 'B2', 'B3']",13642973.333333334,18164.833333333332,767.1666666666666,12,72,1969/04,52,CHERMAIN HEIGHTS,霞明閣,True,2.0,144.0,POINT Z (22.3436927 114.177446 0),22.3436927,114.177446
14,"INVERNESS VILLA(Block A),INVERNESS RD|賢文別墅A座,延文禮士道",KKL,8958423.009509478,4233.0,535,8928794.395728912,4219.0,535,12788282.362658508,4521.0,650,1.0,2.0,4.0,"['1', '2', '3', '4']",9436017.69709945,4255.88888888889,590.8333333333334,6,24,1977/00,44,INVERNESS VILLA,賢文別墅,True,2.0,48.0,POINT Z (22.3312363 114.1856636 0),22.3312363,114.1856636
15,"ROCKFORD MANSION,BROADCAST DR|嘉柏園,廣播道",KKL,8792700.0,15469.0,525,10300500.0,15617.0,525,14331670.0,19887.0,890,2.0,4.0,5.0,"['A', 'B', 'C', 'D', 'E', 'G']",11897897.11111111,17151.38888888889,705.6666666666666,6,36,1978/08,43,blank,,False,,,POINT Z (22.3430135 114.1824387 0),22.3430135,114.1824387
16,"KOWLOON TONG GARDEN,CAMBRIDGE RD|九龍塘花園,劍橋道",KKL,,,1560,,,1560,,,2200,0.0,1.0,2.0,"['A', 'B', 'C', 'D', 'E', 'F', 'G', 'H']",,,1836.25,3,24,1987/12,34,blank,,False,,,POINT Z (22.3305497 114.1790948 0),22.3305497,114.17909479999999
17,"BOUNDARY CREST,BOUNDARY ST|新利大廈,界限街",KKL,9570158.842618704,13634.0,560,9236808.446121728,14202.0,560,10234889.693723287,14953.0,620,3.0,6.0,8.0,"['A', 'B', 'C']",9722433.086365623,14273.22222222222,593.3333333333334,10,30,1978/02,43,blank,,False,,,POINT Z (22.3275147 114.1854808 0),22.3275147,114.1854808
18,"FABER GARDEN(Block B),MARCONI RD|百美花園B座,馬可尼道",KKL,6751022.263218119,11960.0,390,6770554.415687409,12119.0,390,6981889.161684358,15706.0,940,2.0,4.0,6.0,"['1', '2', '3']",6838344.565205065,13241.333333333334,490.0,7,21,1977/03,44,FABER GARDEN,百美花園,True,3.0,63.0,POINT Z (22.3416917 114.1819743 0),22.3416917,114.18197430000001
19,"PHOENIX COURT(Block H),FESSENDEN RD|碧麗閣H座,范信達道",KKL,8867600.0,15300.0,560,9283120.0,15890.0,560,10663400.0,19388.0,620,2.0,5.0,8.0,"['1', '2', '3']",9965860.0,16614.88888888889,601.1111111111112,9,27,1977/10,44,PHOENIX COURT,碧麗閣,True,6.0,209.0,POINT Z (22.3419421 114.1821833 0),22.3419421,114.18218329999999
20,"BEVERLY VILLAS(Block 2),LA SALLE RD|碧華花園2座,喇沙利道",KKL,21766932.35907569,10822.0,1175,22348424.65959445,11324.0,1145,30583210.560313005,18015.0,1601,3.0,6.0,10.0,"['A', 'B', 'C', 'D']",25707289.191528216,13991.888888888889,1358.1666666666667,12,48,1980/12,41,BEVERLY VILLAS,碧華花園,True,10.0,480.0,POINT Z (22.3277223 114.1825084 0),22.3277223,114.1825084
21,"BEVERLY VILLAS(Block 1),LA SALLE RD|碧華花園1座,喇沙利道",KKL,20167274.25889791,13284.0,1145,20532234.081137117,13629.0,1145,28146050.177590266,15031.0,1535,3.0,6.0,10.0,"['A', 'B', 'C', 'D']",24432601.25171906,13971.416666666666,1366.5,12,48,1980/12,41,BEVERLY VILLAS,碧華花園,True,10.0,480.0,POINT Z (22.32773 114.1821833 0),22.32773,114.18218329999999
22,"SHEFFIELD GARDEN(Block A),COLLEGE RD|勝豐園A座,書院道",KKL,19807968.0,15649.0,1104,20565312.0,16470.0,1104,24851269.794548478,19357.0,1300,4.0,8.0,10.0,"['1', '2']",22311213.790268023,17488.5,1202.0,10,20,1974/05,47,SHEFFIELD GARDEN,勝豐園,True,1.0,20.0,POINT Z (22.3276421 114.1838869 0),22.3276421,114.18388689999999
23,"EASTBOURNE COURT,EASTBOURNE RD|雅景樓,義本道",KKL,19683795.216600016,17105.0,936,25676358.444049448,23464.0,926,,,2200,11.0,35.0,67.0,"['A', 'B', 'C', 'D', 'E', 'F']",25275755.888069913,22262.25,1088.6666666666667,61,366,1965/12,56,blank,,False,,,POINT Z (22.343585 114.176736 0),22.343585,114.176736
24,"MARCONI COURT,MARCONI RD|馬可尼大廈,馬可尼道",KKL,9869375.0,15237.0,625,10238125.0,15807.0,625,13245040.0,19478.0,700,2.0,5.0,8.0,"['A', 'B', 'C', 'D', 'E', 'F', 'G', 'H']",10914221.458333334,16425.0,664.375,9,72,1975/04,46,blank,,False,,,POINT Z (22.3413275 114.1826245 0),22.3413275,114.18262450000002
25,"TWILIGHT COURT(Block B),MARCONI RD|翠麗苑B座,馬可尼道",KKL,6782221.879636762,11014.0,480,7018970.8808394475,11533.0,480,8695623.51954415,13425.0,635,2.0,5.0,8.0,"['1', '2', '3', '4']",7914195.026114269,12184.75,560.0,9,36,1975/06,46,TWILIGHT COURT,翠麗苑,True,2.0,68.0,POINT Z (22.3414406 114.1823226 0),22.341440600000002,114.1823226
26,"TWILIGHT COURT(Block A),MARCONI RD|翠麗苑A座,馬可尼道",KKL,,,440,,,440,,,640,2.0,4.0,7.0,"['1', '2', '3', '4']",,,583.75,8,32,1975/06,46,TWILIGHT COURT,翠麗苑,True,2.0,68.0,POINT Z (22.3414406 114.1823226 0),22.341440600000002,114.1823226
27,"BROADWAY TOWERS(Block B),BROADCAST DR|百樂園B座,廣播道",KKL,8456810.0,17684.0,430,8748350.0,18297.0,430,10929180.0,21272.0,780,3.0,6.0,10.0,"['1', '2', '3', '4']",9631745.0,19406.5,635.0,12,48,1973/05,48,BROADWAY TOWERS,百樂園,True,2.0,96.0,POINT Z (22.3404599 114.1821833 0),22.3404599,114.18218329999999
28,"PHOENIX COURT(Block B),BROADCAST DR|碧麗閣B座,廣播道",KKL,13752375.0,14950.0,762,14275500.0,15531.0,762,24174150.0,21122.0,1518,3.0,6.0,8.0,"['1', '2', '3', '4', '45', '5', '6']",15665979.904761905,18151.42857142857,880.2380952380953,8,56,1977/10,44,PHOENIX COURT,碧麗閣,True,6.0,209.0,POINT Z (22.3422627 114.1815331 0),22.3422627,114.1815331
29,"KENT COURT(Block 1),BOUNDARY ST|根德閣1座,界限街",KKL,21962903.268197276,13438.0,1274,23167447.077444293,14175.0,1274,24141542.206767526,14771.0,1274,2.0,6.0,9.0,"['A', 'B']",23139662.484829366,14158.0,1274.0,12,24,1980/01,41,KENT COURT,根德閣,True,2.0,78.0,POINT Z (22.327471 114.1802327 0),22.327471,114.1802327
30,"COLLEGE CREST,COLLEGE RD|博文閣,書院道",KKL,12830393.244529152,9205.0,750,13049015.627994511,9075.0,750,16170913.852379227,15279.0,1650,2.0,5.0,8.0,"['A1', 'A1A2', 'A2', 'A3', 'B1', 'B2', 'B3']",14366417.531882018,12719.566666666666,924.2857142857142,9,63,1978/11,43,COLLEGE CREST,博文閣,True,1.0,63.0,POINT Z (22.3282072 114.1838553 0),22.328207199999998,114.1838553
31,"MANHATTAN COURT,ALNWICK RD|新餘村,安域道",KKL,12067993.670425441,10444.0,783,12389431.823791193,10722.0,783,16746373.586642964,14481.0,2392,2.0,4.0,6.0,"['2A', '2B', '2C', '2E', '3C', '3E', '3F', '4A', '4C', '4F', '5C', '5D', '5E', '5F', '6B', '6C', '6D', '6E', '6F', '7B', '7C', '7F', '8C', '8D', '8E', '8F']",14665513.054318408,11536.596491228069,1016.0,7,182,1975/07,46,blank,,False,,,POINT Z (22.3429874 114.1777711 0),22.3429874,114.17777109999999
32,"PHOENIX COURT(Block C),MARCONI RD|碧麗閣C座,馬可尼道",KKL,8521574.625016676,12436.0,516,8873840.992253603,12912.0,516,10202487.54609476,15755.0,650,2.0,5.0,8.0,"['1', '2', '3', '4']",9463798.396775385,13863.583333333334,607.0833333333334,9,36,1977/10,44,PHOENIX COURT,碧麗閣,True,6.0,209.0,POINT Z (22.341863 114.1815795 0),22.341863,114.1815795
33,"WAH HING BLDG,BOUNDARY ST|華興大廈,界限街",KKL,11543406.611476561,8039.0,800,11837765.744370237,8243.0,800,16911647.503143016,13391.0,1170,4.0,6.0,8.0,"['A', 'B1 & B2', 'B1-2', 'B1-B2', 'B1B2']",15316626.585140908,9315.016666666666,1096.0,7,35,1966/10,55,blank,,False,,,POINT Z (22.3275417 114.185655 0),22.327541699999998,114.18565500000001
34,"BEVERLY VILLAS(Block 10),LA SALLE RD|碧華花園10座,喇沙利道",KKL,21356264.559166096,13035.0,1175,21976173.571535066,13570.0,1145,29039939.714047812,17336.0,1601,3.0,6.0,10.0,"['A', 'B', 'C', 'D']",25135114.679160565,15678.833333333334,1363.5,12,48,1980/12,41,BEVERLY VILLAS,碧華花園,True,10.0,480.0,POINT Z (22.3274194 114.1834605 0),22.3274194,114.1834605
35,"BOLAND COURT(Phase 2),BROADCAST DR|寶能閣2期,廣播道",KKL,8825760.0,18845.0,405,9005175.0,19222.0,405,9743160.0,23199.0,1210,2.0,4.0,7.0,"['A', 'B', 'C', 'D', 'E', 'F', 'G', 'H']",9292250.029761905,21011.75,477.5,10,80,1975/10,46,BOLAND COURT,寶能閣,True,2.0,160.0,POINT Z (22.3407369 114.1815331 0),22.340736899999996,114.1815331
36,"BELMONT HEIGHTS,MARCONI RD|碧滿閣,馬可尼道",KKL,10771369.263835467,9988.0,540,11191957.370853473,10378.0,540,17010000.0,17856.0,1000,2.0,5.0,8.0,"['A', 'B', 'C', 'D', 'E', 'F']",14370817.733832812,14277.02777777778,715.0,9,54,1977/02,44,blank,,False,,,POINT Z (22.34094 114.181975 0),22.34094,114.181975
37,"SAU CHUK YUEN,SAU CHUK YUEN RD|秀竹苑,秀竹園道",KKL,,,1066,,,1066,,,1109,2.0,5.0,8.0,"['A', 'B', 'C']",,,1094.6666666666667,9,27,1983/10,38,blank,,False,,,POINT Z (22.3278793 114.1845519 0),22.3278793,114.1845519
38,"PHOENIX COURT(Block E),FESSENDEN RD|碧麗閣E座,范信達道",KKL,8269680.1934944475,11504.0,600,8576040.121806094,11952.0,600,9546293.109844092,13096.0,680,2.0,5.0,8.0,"['1', '2', '3']",8803623.130635833,12325.555555555555,631.6666666666666,9,27,1977/10,44,PHOENIX COURT,碧麗閣,True,6.0,209.0,POINT Z (22.3421605 114.1819046 0),22.342160500000002,114.18190459999998
39,"AVA COURT,BROADCAST DR|雅華閣,廣播道",KKL,10768902.446812859,12042.0,730,11194534.431472,12361.0,730,17938800.0,18120.0,990,2.0,5.0,8.0,"['A', 'B', 'C', 'D', 'E', 'F']",13342603.76676178,13461.355555555556,879.1666666666666,9,54,1973/09,48,blank,,False,,,POINT Z (22.3425327 114.1832747 0),22.3425327,114.1832747
40,"LILAC COURT,BOUNDARY ST|昌蔚苑,界限街",KKL,,,846,,,846,,,1003,3.0,6.0,10.0,"['A', 'B', 'C', 'D']",,,924.5,12,48,1978/04,43,blank,,False,,,POINT Z (22.3275605 114.1852602 0),22.3275605,114.1852602
41,"BEVERLY VILLAS(Block 8),LA SALLE RD|碧華花園8座,喇沙利道",KKL,20398564.50742246,13003.0,1145,21471160.36652529,13489.0,1175,28789365.228927657,15001.0,1601,3.0,6.0,10.0,"['A', 'B', 'C', 'D']",24515694.92585377,13988.166666666666,1372.0,12,48,1980/12,41,BEVERLY VILLAS,碧華花園,True,10.0,480.0,POINT Z (22.3274348 114.1828103 0),22.3274348,114.18281029999999
42,"WELCOME GARDEN,BROADCAST DR|偉錦園,廣播道",KKL,11183960.0,16447.0,680,13689760.0,20132.0,680,,,1395,10.0,29.0,58.0,"['A', 'A & D', 'B', 'C', 'D', 'E', 'F', 'G', 'H']",14780068.75,21448.375,797.1481481481482,51,459,1971/11,50,blank,,False,,,POINT Z (22.3424538 114.1807442 0),22.3424538,114.1807442
43,"TANG COURT(Block D1),NGA TSIN WAI RD|怡德花園D1座,衙前圍道",KKL,18928840.0,18729.0,1009,18928840.0,18729.0,1009,20209440.0,19471.0,1065,2.0,2.0,3.0,"['A', 'B', 'whole floor']",19452282.333333332,18918.111111111113,1028.3333333333333,4,12,1987/01,34,TANG COURT,怡德花園,True,3.0,24.0,POINT Z (22.3296829 114.1833444 0),22.329682899999998,114.18334440000001
44,"KENT COURT(Block 5),BOUNDARY ST|根德閣5座,界限街",KKL,14328628.198314466,10714.0,869,14919915.313611567,11347.0,869,21641153.063481595,18648.0,1026,2.0,5.0,8.0,"['A', 'B', 'C', 'D', 'E', 'F']",17259351.09933603,13921.611111111111,921.3333333333334,9,54,1980/01,41,KENT COURT,根德閣,True,2.0,78.0,POINT Z (22.3274287 114.1808075 0),22.3274287,114.1808075
45,"AVON COURT,FESSENDEN RD|雅芳園,范信達道",KKL,12520385.542737829,12659.0,585,13005313.791349953,13810.0,585,14652900.0,18090.0,910,2.0,5.0,8.0,"['A', 'B', 'C', 'D', 'E', 'F', 'G', 'H']",13727549.538485862,14769.22222222222,787.5,9,72,1974/01,47,blank,,False,,,POINT Z (22.3421153 114.1830193 0),22.342115300000003,114.1830193
46,"LOCKOO GARDENS,CORNWALL ST|樂古花園,歌和老街",KKL,21840100.401602406,16702.0,1155,22431150.897442684,17154.0,1155,23596111.130384736,17890.0,1205,2.0,4.0,6.0,"['A', 'B', 'C', 'D']",22741489.705828447,17340.666666666668,1170.0,7,28,1988/02,33,blank,,False,,,POINT Z (22.3405074 114.1767726 0),22.3405074,114.1767726
47,"JADE COURT(Block A),BROADCAST DR|金翠苑A座,廣播道",KKL,4573774.086473995,4216.0,380,4604150.195207694,2326.0,380,10224553.370852841,9050.0,740,1.0,2.0,4.0,"['1', '2', '3']",6860303.203144852,5539.222222222222,593.3333333333334,6,18,1977/05,44,JADE COURT,金翠苑,True,2.0,68.0,POINT Z (22.34269 114.182114 0),22.34269,114.18211399999998
48,"BEVERLEY HEIGHTS(Block B),BEACON HILL RD|碧華閣B座,筆架山道",KKL,15824232.0,13845.0,949,,,949,,,1084,16.0,52.0,80.0,"['1', '2', '3']",16492137.682442218,14650.0,1039.0,76,228,1970/03,51,BEVERLEY HEIGHTS,碧華閣,True,1.0,228.0,POINT Z (22.344213 114.176952 0),22.344213,114.176952
49,"PEARL COURT,RHONDDA RD|麗景樓,朗德道",KKL,19906919.439333424,13306.0,1160,20500528.595328853,13789.0,1160,29932191.46592108,16181.0,1850,3.0,6.0,9.0,"['A', 'B', 'C', 'D']",26113559.748987317,14413.444444444445,1505.0,11,44,1966/10,55,blank,,False,,,POINT Z (22.3441275 114.178282 0),22.3441275,114.17828200000001
50,"KALAM COURT,GRAMPIAN RD|嘉林閣,嘉林邊道",KKL,18019975.503938965,15453.0,1030,17904530.11631909,15354.0,1030,20534345.93109629,17445.0,1105,2.0,4.0,5.0,"['A', 'B', 'D', 'E', 'F']",19446522.886312533,16439.333333333332,1045.0,6,30,1965/01,56,blank,,False,,,POINT Z (22.3283747 114.1862471 0),22.3283747,114.18624709999999
51,"WESTLAND HEIGHTS,BROADCAST DR|慧園,廣播道",KKL,8968247.635285072,7998.0,640,9214560.396484882,8382.0,640,13455703.957116764,11367.0,980,2.0,4.0,6.0,"['A', 'B', 'C', 'D', 'E']",11408287.583765082,9652.333333333334,837.0,7,35,1976/11,45,blank,,False,,,POINT Z (22.3430108 114.1817653 0),22.343010800000002,114.1817653
52,"EVERGREEN MANSION,CORNWALL ST|翠亨園,歌和老街",KKL,24806727.0,23633.0,1023,24806727.0,23633.0,1023,28526944.0,24438.0,1192,2.0,2.0,3.0,"['A', 'B', 'C', 'D', 'E']",26527952.400000002,24056.266666666666,1103.2,4,20,1966/09,55,blank,,False,,,POINT Z (22.3404908 114.1756347 0),22.3404908,114.1756347
53,"FESSENDEN COURT,FESSENDEN RD|信達閣,范信達道",KKL,9119520.0,14185.0,480,9496800.0,14751.0,480,14768360.0,20569.0,965,1.0,4.0,7.0,"['A', 'B', 'B2', 'C', 'D', 'E', 'F', 'G']",10592030.833333334,16796.875,642.375,9,72,1976/03,45,blank,,False,,,POINT Z (22.3418472 114.1825084 0),22.341847199999997,114.1825084
54,"MERRY COURT(Block 1),FESSENDEN RD|真能閣1座,范信達道",KKL,8431826.789698418,13066.0,537,8735775.23742136,13537.0,537,10886826.111901598,17907.0,637,1.0,4.0,7.0,"['A', 'B', 'C', 'D', 'E', 'F', 'G', 'H']",9424186.840486487,14920.111111111111,568.0416666666666,9,72,1974/05,47,MERRY COURT,真能閣,True,2.0,144.0,POINT Z (22.3425775 114.1824387 0),22.3425775,114.1824387
55,"MOONBEAM TERR(Block B),ALNWICK RD|映月臺B座,安域道",KKL,17876384.85461241,14098.0,1120,17971485.49754729,14173.0,1120,18592809.69805517,14663.0,1120,3.0,4.0,6.0,"['1', '2']",18146893.350071624,14311.333333333334,1120.0,6,12,1968/02,53,MOONBEAM TERR,映月臺,True,1.0,12.0,POINT Z (22.3425943 114.1783285 0),22.3425943,114.17832849999999
56,"MARPLE COURT,BROADCAST DR|萬寶閣,廣播道",KKL,9989982.89515575,12340.0,666,9522721.736202376,12554.0,670,14363814.304049859,14336.0,905,2.0,5.0,8.0,"['A', 'B', 'C', 'D', 'E', 'F']",11807881.625272961,13303.833333333334,784.7222222222223,9,54,1972/04,49,blank,,False,,,POINT Z (22.3425614 114.1810222 0),22.342561399999997,114.1810222
57,"PHOENIX COURT(Block F),FESSENDEN RD|碧麗閣F座,范信達道",KKL,8982051.938107364,14402.0,460,10182561.697098881,14910.0,600,11875126.711237509,18116.0,680,2.0,5.0,8.0,"['1', '2', '3']",10557911.113326117,16089.555555555555,607.2222222222222,9,27,1977/10,44,PHOENIX COURT,碧麗閣,True,6.0,209.0,POINT Z (22.3422766 114.1819975 0),22.3422766,114.18199750000001
58,"COMFORT COURT,MARCONI RD|康樂閣,馬可尼道",KKL,16423159.92879023,11132.0,1050,17041315.157874234,11551.0,1050,20400616.312721673,17555.0,1150,3.0,6.0,8.0,"['A', 'B', 'C', 'D']",18139404.94142152,14520.666666666666,1100.0,10,40,1977/00,44,blank,,False,,,POINT Z (22.3409174 114.1823226 0),22.3409174,114.1823226
59,"CARLTON COURT,MARCONI RD|康泰閣,馬可尼道",KKL,,,721,,,721,,,938,2.0,4.0,5.0,"['A', 'B', 'C', 'D', 'E', 'F']",,,838.8333333333334,6,36,1977/00,44,blank,,False,,,POINT Z (22.3411435 114.1817189 0),22.3411435,114.1817189
60,"BROADWAY TOWERS(Block A),BROADCAST DR|百樂園A座,廣播道",KKL,10371778.012023956,13277.0,430,10790492.557060098,13813.0,430,11354507.298694601,14535.0,760,3.0,6.0,10.0,"['1', '2', '3', '4']",10838925.955926219,13875.0,660.0,12,48,1973/05,48,BROADWAY TOWERS,百樂園,True,2.0,96.0,POINT Z (22.340392 114.182083 0),22.340392,114.182083
61,"EASTLAND HEIGHTS,BROADCAST DR|柏園,廣播道",KKL,11481070.40433377,12218.0,830,11779890.210241294,12536.0,830,15869851.860727346,13249.0,1060,2.0,4.0,5.0,"['A', 'B', 'C', 'D', 'E', 'F', 'G', 'H']",13612744.8462876,12770.238095238097,926.25,6,48,1976/11,45,blank,,False,,,POINT Z (22.3432612 114.1819743 0),22.3432612,114.18197430000001
62,"ALICE COURT(Block A),BROADCAST DR|雅麗園A座,廣播道",KKL,12140830.0,18298.0,540,12647130.0,19077.0,540,15460380.0,21524.0,780,2.0,5.0,8.0,"['A', 'B', 'C', 'D']",14111826.666666666,19764.11111111111,672.5,9,36,1971/10,50,ALICE COURT,雅麗園,True,2.0,63.0,POINT Z (22.3428881 114.1811615 0),22.342888100000003,114.1811615
63,"FAIRYLAND GARDEN,BROADCAST DR|翠華園,廣播道",KKL,17253698.44145941,9062.0,1100,17952282.106392447,9457.0,1100,19742785.761983383,10117.0,1140,3.0,6.0,9.0,"['A', 'B', 'C', 'D']",18337578.700157076,9564.166666666666,1120.0,11,44,1973/07,48,blank,,False,,,POINT Z (22.3405029 114.181769 0),22.340502899999997,114.18176899999999
64,"INVERNESS VILLA(Block B),INVERNESS RD|賢文別墅B座,延文禮士道",KKL,9520231.005077891,15866.0,530,9598236.175294714,15996.0,530,12523396.093910271,18436.0,600,1.0,2.0,4.0,"['1', '2', '3', '4']",11037662.713191135,17209.166666666668,565.0,6,24,1977/01,44,INVERNESS VILLA,賢文別墅,True,2.0,48.0,POINT Z (22.3312363 114.1856636 0),22.3312363,114.1856636
65,"VIOLET COURT,CORNWALL ST|紫蘭別墅,歌和老街",KKL,,,1005,14166705.049384024,2939.0,1005,,,1025,3.0,4.0,6.0,"['1', '2', '3', '4']",14388784.126793541,2955.5,1015.0,6,24,1964/07,57,blank,,False,,,POINT Z (22.340687 114.177616 0),22.340687,114.17761599999999
66,"PHOENIX COURT(Block D),MARCONI RD|碧麗閣D座,馬可尼道",KKL,9611550.0,12839.0,480,8989321.877062885,7502.0,670,10989671.796483114,16001.0,700,2.0,5.0,8.0,"['1', '2', '3', '4']",10077454.39316186,13102.194444444445,663.3333333333334,9,36,1978/00,43,PHOENIX COURT,碧麗閣,True,6.0,209.0,POINT Z (22.3420154 114.1817189 0),22.342015399999998,114.1817189
67,"BEVERLY VILLAS(Block 7),LA SALLE RD|碧華花園7座,喇沙利道",KKL,23171000.0,12104.0,1175,23487883.20227331,12460.0,1145,28446365.72880417,19020.0,1601,3.0,6.0,10.0,"['A', 'B', 'C', 'D']",25444067.866705243,14927.0,1372.0,12,48,1980/12,41,BEVERLY VILLAS,碧華花園,True,10.0,480.0,POINT Z (22.3273808 114.182462 0),22.3273808,114.18246200000002
68,"BEVERLY VILLAS(Block 5),LA SALLE RD|碧華花園5座,喇沙利道",KKL,22983617.703863665,17360.0,1145,23922147.834579814,18058.0,1145,36267772.523082025,20009.0,1601,3.0,6.0,10.0,"['A', 'B', 'C', 'D']",29135624.42382587,18636.583333333332,1380.5,12,48,1980/12,41,BEVERLY VILLAS,碧華花園,True,10.0,480.0,POINT Z (22.32743 114.183488 0),22.32743,114.18348799999998
69,"BEVERLY VILLAS(Block 4),LA SALLE RD|碧華花園4座,喇沙利道",KKL,20963832.88824583,15759.0,1175,21767320.105994448,16363.0,1145,37247281.046343945,18135.0,1601,3.0,6.0,10.0,"['A', 'B', 'C', 'D']",28497053.97027303,16888.166666666668,1374.5,12,48,1980/12,41,BEVERLY VILLAS,碧華花園,True,10.0,480.0,POINT Z (22.3277504 114.1831586 0),22.3277504,114.18315859999998
70,"JOY GARDEN(Block 2),ALNWICK RD|天樂園2座,安域道",KKL,12907364.939759849,14075.0,810,13262260.160483617,14462.0,810,15370539.520803893,16761.0,810,2.0,4.0,6.0,"['A', 'B', 'C', 'D']",14308910.665012633,15603.333333333334,810.0,7,28,1975/09,46,JOY GARDEN,天樂園,True,2.0,56.0,POINT Z (22.3432853 114.1778176 0),22.3432853,114.1778176
71,"TANG COURT(Block D2),NGA TSIN WAI RD|怡德花園D2座,衙前圍道",KKL,,,1007,19477323.649201255,6775.0,1007,,,1010,1.0,2.0,3.0,"['A', 'B']",19477323.649201255,6775.0,1008.5,3,6,1987/01,34,TANG COURT,怡德花園,True,3.0,24.0,POINT Z (22.3296829 114.1833444 0),22.329682899999998,114.18334440000001
72,"BEVERLY VILLAS(Block 9),LA SALLE RD|碧華花園9座,喇沙利道",KKL,20025432.954838462,14850.0,1145,20823961.353348333,15544.0,1145,29978144.323017318,16947.0,1601,3.0,6.0,10.0,"['A', 'B', 'C', 'D']",24670216.662192147,15914.166666666666,1372.0,12,48,1980/12,41,BEVERLY VILLAS,碧華花園,True,10.0,480.0,POINT Z (22.32743 114.183488 0),22.32743,114.18348799999998
73,"DRAGON COURT(Block C),EASTBOURNE RD|龍圃別墅C座,義本道",KKL,13652444.512639293,17916.0,636,13652444.512639293,17916.0,636,16242083.70222804,23066.0,787,2.0,2.0,3.0,"['1', '2', '3', '4']",14862989.441651428,20068.666666666668,679.75,4,16,1968/02,53,DRAGON COURT,龍圃別墅,True,4.0,44.0,POINT Z (22.3431232 114.1767726 0),22.343123199999997,114.1767726
74,"FUNG WAH COURT,SAU CHUK YUEN RD|鳳華閣,秀竹園道",KKL,16229376.684246927,4673.0,1061,15287660.638367416,4406.0,1060,19243411.310780857,17904.0,1061,2.0,6.0,8.0,"['A', 'B', 'C', 'D']",17658687.65002255,11126.833333333334,1060.8333333333333,8,32,1972/03,49,blank,,False,,,POINT Z (22.3278353 114.1848306 0),22.3278353,114.18483059999998
75,"JOY GARDEN(Block 1),ALNWICK RD|天樂園1座,安域道",KKL,10845626.944268685,7822.0,810,11136803.326050378,8032.0,810,12649533.957116237,9123.0,810,2.0,4.0,6.0,"['A', 'B', 'C', 'D']",11699744.330828324,8438.0,810.0,7,28,1975/09,46,JOY GARDEN,天樂園,True,2.0,56.0,POINT Z (22.3434411 114.178073 0),22.343441100000003,114.178073
76,"HAMBURG VILLA,EASTBOURNE RD|涵碧別墅,義本道",KKL,18770268.629922166,18136.0,845,18770268.629922166,18136.0,845,30428116.411515236,22671.0,1239,2.0,2.0,3.0,"['1', '3A', '3B', '4A', '4B', '5', '6A', '6B']",22559294.700843107,19969.190476190477,981.0,4,32,1970/06,51,blank,,False,,,POINT Z (22.343141 114.1770745 0),22.343141,114.17707450000002
77,"JADE COURT,BROADCAST DR|金翠苑,廣播道",KKL,11396880.0,16680.0,335,6125125.353945014,5646.0,335,12688780.0,17859.0,740,1.0,2.0,3.0,"['A3', 'B1', 'B2', 'B3', 'C1', 'C2', 'C3', 'D1', 'D2', 'D3']",11769340.104156112,16700.5,567.1,5,50,1977/05,44,JADE COURT,金翠苑,True,2.0,68.0,POINT Z (22.34269 114.182114 0),22.34269,114.18211399999998
78,"LUSO APTS(Block D),WARWICK RD|和域臺D座,和域道",KKL,21324675.47260848,3428.0,1285,21848547.55791823,3516.0,1285,23335749.543291718,3620.0,1350,4.0,6.0,8.0,"['2', '85', '95']",22213285.9531894,3514.6666666666665,1317.6666666666667,7,21,1965/03,56,LUSO APTS,和域臺,True,1.0,21.0,POINT Z (22.3422505 114.1773299 0),22.342250500000002,114.17732990000002
79,"HILLSEA COURT,CORNWALL ST|匯山園,歌和老街",KKL,21911166.51987842,10331.0,1239,21911166.51987842,10331.0,1239,23226734.0459135,16104.0,1289,2.0,2.0,3.0,"['A', 'B', 'C', 'D']",22434740.92814672,13845.5,1254.5833333333333,4,16,1963/11,58,blank,,False,,,POINT Z (22.3404827 114.1762385 0),22.3404827,114.1762385
80,"FABER GARDEN(Block A),MARCONI RD|百美花園A座,馬可尼道",KKL,7598462.11996109,13697.0,440,7871955.718934649,14190.0,440,8526768.931561738,19168.0,490,2.0,4.0,6.0,"['1', '2', '3']",8075231.477414799,16401.333333333332,456.6666666666667,7,21,1977/03,44,FABER GARDEN,百美花園,True,3.0,63.0,POINT Z (22.3416917 114.1819743 0),22.3416917,114.18197430000001
81,"VISTA PANORAMA,RHONDDA RD|蟠龍閣,朗德道",KKL,32564073.580730125,7015.0,1626,33757083.831656374,7272.0,1626,36170956.71290793,7792.0,1626,3.0,6.0,10.0,"['A1', 'A2', 'B1', 'B2']",34192664.0983694,7365.833333333333,1626.0,12,48,1966/07,55,VISTA PANORAMA,蟠龍閣,True,1.0,48.0,POINT Z (22.3440179 114.1787 0),22.344017899999997,114.1787
82,"ALBION GARDEN,LA SALLE RD|愛賓花園,喇沙利道",KKL,33678850.576041,8965.0,1470,34548308.96549703,8443.0,1470,51373736.64073905,16594.0,1850,2.0,4.0,5.0,"['B', 'C', 'D', 'E', 'F', 'G', 'H']",43243705.75618285,10711.2,1653.5714285714287,6,42,1981/10,40,blank,,False,,,POINT Z (22.329751 114.181702 0),22.329751,114.181702
83,"CRYSTAL MANSION,EASTBOURNE RD|晶苑,義本道",KKL,15490104.208100151,10283.0,880,16110732.71473608,10695.0,880,31426607.49760182,18383.0,1510,3.0,6.0,10.0,"['A', 'B', 'C']",23974459.919490922,15069.11111111111,1244.4444444444443,12,36,1971/01,50,blank,,False,,,POINT Z (22.343636 114.1764243 0),22.343636,114.17642430000001
84,"DEVON COURT,CORNWALL ST|達運閣,歌和老街",KKL,,,1245,,,1245,,,1300,2.0,4.0,6.0,"['A', 'B', 'C', 'D']",,,1272.5,7,28,1975/03,46,blank,,False,,,POINT Z (22.3405421 114.1753096 0),22.3405421,114.17530959999999
85,"MERLIN COURT,BROADCAST DR|美輪閣,廣播道",KKL,9228450.0,15125.0,470,11329110.0,15738.0,690,15043266.0,17574.0,918,1.0,4.0,7.0,"['A', 'B', 'C', 'D', 'E', 'F']",12709686.11111111,16652.166666666668,770.2222222222222,9,54,1975/03,46,blank,,False,,,POINT Z (22.3426639 114.1829961 0),22.342663899999998,114.18299609999998
86,"PENINSULA HEIGHTS(Block B),BROADCAST DR|星輝豪庭B座,廣播道",KKL,,,1101,,,1101,,,1248,2.0,8.0,14.0,"['1', '2', '3', '5', '6', '7']",,,1166.6666666666667,15,90,2000/06,21,PENINSULA HEIGHTS,星輝豪庭,True,2.0,180.0,POINT Z (22.3433467 114.183089 0),22.3433467,114.183089
87,"PENINSULA HEIGHTS(Block A),BROADCAST DR|星輝豪庭A座,廣播道",KKL,24052446.0,21340.0,1101,26078286.0,23144.0,1101,31510584.0,25566.0,1248,2.0,8.0,14.0,"['1', '2', '3', '5', '6', '7']",27461098.111111116,23544.833333333332,1166.6666666666667,15,90,2000/03,21,PENINSULA HEIGHTS,星輝豪庭,True,2.0,180.0,POINT Z (22.3434779 114.1828103 0),22.343477899999996,114.18281029999999
88,"DRAGON COURT(Block D),EASTBOURNE RD|龍圃別墅D座,義本道",KKL,22706752.560667966,18333.0,937,22706752.560667966,18333.0,937,24136499.023002476,21129.0,1094,2.0,2.0,3.0,"['1', '2', '3']",23145283.324792158,19480.666666666668,1013.3333333333334,4,12,1968/02,53,DRAGON COURT,龍圃別墅,True,4.0,44.0,POINT Z (22.3431232 114.1767726 0),22.343123199999997,114.1767726
89,"THE BLOOMSVILLE,NGA TSIN WAI RD|陶源,衙前圍道",KKL,14285040.40363598,16624.0,710,16472732.197258413,18441.0,711,20699768.97087947,23232.0,789,10.0,19.0,28.0,"['A', 'B', 'C']",17468118.54925998,19687.0,758.888888888889,25,75,2002/05,19,blank,,False,,,POINT Z (22.328713 114.1858988 0),22.328713,114.18589879999999
90,"THE PALACE,BROADCAST DR|嘉皇臺,廣播道",KKL,20686467.0,25854.0,691,24243044.0,24594.0,691,54074110.0,39495.0,1790,13.0,26.0,37.0,"['A', 'B', 'C', 'D']",35594502.222222224,29848.69444444444,1177.6666666666667,32,128,2002/09,19,blank,,False,,,POINT Z (22.3420412 114.1835975 0),22.342041199999997,114.1835975
91,"ONE BEACON HILL(Block 15),BEACON HILL RD|畢架山一號15座,筆架山道",KKL,56922171.870426826,22051.0,1502,53656631.316438064,20869.0,1502,55713524.55776014,21669.0,1508,3.0,7.0,10.0,"['A', 'B']",55211191.27439334,20024.0,1505.0,11,22,2004/02,17,ONE BEACON HILL,畢架山一號,True,12.0,494.0,POINT Z (22.3408868 114.174717 0),22.340886800000003,114.17471699999999
92,"ONE BEACON HILL(Block 12),BEACON HILL RD|畢架山一號12座,筆架山道",KKL,24851257.790432733,18899.0,1025,26213546.96292272,19935.0,1025,31816393.835718606,21679.0,1144,3.0,7.0,10.0,"['A', 'B', 'C', 'D']",28756642.94208464,20313.0,1102.75,11,44,2004/02,17,ONE BEACON HILL,畢架山一號,True,12.0,494.0,POINT Z (22.3408868 114.174717 0),22.340886800000003,114.17471699999999
93,"ONE BEACON HILL(Block 8),BEACON HILL RD|畢架山一號8座,筆架山道",KKL,27688438.975439046,23486.0,1025,27327537.69625373,23402.0,1025,30495067.26414139,24426.0,1165,3.0,7.0,10.0,"['A', 'B', 'C', 'D']",29855360.964756805,24340.44444444445,1109.5,11,44,2004/02,17,ONE BEACON HILL,畢架山一號,True,12.0,494.0,POINT Z (22.3408868 114.174717 0),22.340886800000003,114.17471699999999
94,"ONE BEACON HILL(Block 6),BEACON HILL RD|畢架山一號6座,筆架山道",KKL,29785209.005337454,21126.0,1060,28542882.02339258,20950.0,1060,33953418.74643573,26678.0,1106,3.0,8.0,11.0,"['A', 'B', 'C', 'D', 'E']",30828805.838110175,23083.066666666666,1086.8,12,60,2003/09,18,ONE BEACON HILL,畢架山一號,True,12.0,494.0,POINT Z (22.3408868 114.174717 0),22.340886800000003,114.17471699999999
95,"ONE BEACON HILL(Block 7),BEACON HILL RD|畢架山一號7座,筆架山道",KKL,32080366.708744857,21246.0,1177,33446870.138633497,22151.0,1177,38856977.275790535,25304.0,1197,3.0,8.0,11.0,"['A', 'B', 'C']",34987978.527117655,23034.666666666668,1183.6666666666667,12,36,2003/09,18,ONE BEACON HILL,畢架山一號,True,12.0,494.0,POINT Z (22.3408868 114.174717 0),22.340886800000003,114.17471699999999
96,"ONE BEACON HILL(Block 1),BEACON HILL RD|畢架山一號1座,筆架山道",KKL,30693415.50508924,24704.0,1064,31477615.40673025,25224.0,1064,35105689.08458875,27733.0,1162,1.0,3.0,6.0,"['A', 'B', 'C', 'D', 'E', 'F']",32906975.340300817,26040.333333333332,1182.0555555555557,7,42,2003/09,18,ONE BEACON HILL,畢架山一號,True,12.0,494.0,POINT Z (22.3408868 114.174717 0),22.340886800000003,114.17471699999999
97,"ONE BEACON HILL(Block 17),BEACON HILL RD|畢架山一號17座,筆架山道",KKL,53229825.96886374,20703.0,1502,56723973.36255962,22062.0,1502,58006354.546295464,22471.0,1508,2.0,6.0,8.0,"['A', 'B']",55986717.9592396,21745.333333333332,1505.0,8,16,2004/02,17,ONE BEACON HILL,畢架山一號,True,12.0,494.0,POINT Z (22.3408868 114.174717 0),22.340886800000003,114.17471699999999
98,"ONE BEACON HILL(Block 19),BEACON HILL RD|畢架山一號19座,筆架山道",KKL,57901619.505559556,13503.0,1502,63909185.89282823,14904.0,1502,65229907.12571814,15212.0,2298,2.0,6.0,9.0,"['A', 'B']",62346904.17470198,14539.666666666666,1635.0,9,18,2003/09,18,ONE BEACON HILL,畢架山一號,True,12.0,494.0,POINT Z (22.3408868 114.174717 0),22.340886800000003,114.17471699999999
99,"DRAGON COURT(Block B),EASTBOURNE RD|龍圃別墅B座,義本道",KKL,16260464.165776229,18337.0,726,16260464.165776229,18337.0,726,16687051.685466764,20302.0,785,2.0,2.0,3.0,"['1', '2']",16385127.145474218,19186.333333333332,755.5,4,8,1968/02,53,DRAGON COURT,龍圃別墅,True,4.0,44.0,POINT Z (22.3433134 114.176629 0),22.3433134,114.176629
100,"ONE BEACON HILL(Block 5),BEACON HILL RD|畢架山一號5座,筆架山道",KKL,28699968.0,14047.0,1050,30695808.0,14982.0,1050,61527029.63186947,32066.0,2311,3.0,8.0,11.0,"['A', 'B', 'B & C', 'C', 'D', 'E', 'F']",36389631.48311612,27254.38095238095,1284.5714285714287,12,84,2004/02,17,ONE BEACON HILL,畢架山一號,True,12.0,494.0,POINT Z (22.3408868 114.174717 0),22.340886800000003,114.17471699999999
101,"ONE BEACON HILL(Block 10),BEACON HILL RD|畢架山一號10座,筆架山道",KKL,29156125.0,28366.0,1025,27869750.0,26612.0,1025,35485232.0,31237.0,1138,3.0,8.0,11.0,"['A', 'B', 'C', 'D']",30920998.666666668,28244.833333333332,1101.1666666666667,12,48,2004/02,17,ONE BEACON HILL,畢架山一號,True,12.0,494.0,POINT Z (22.3408868 114.174717 0),22.340886800000003,114.17471699999999
102,"YEE YUEN,DUMBARTON RD|怡苑,東寶庭道",KKL,19458067.365986142,6080.0,1121,19720495.248224776,6162.0,1121,19720495.248224776,6162.0,1121,1.0,2.0,2.0,['whole floor'],19633019.287478566,6134.666666666667,1121.0,4,4,1962/05,59,blank,,False,,,POINT Z (22.3319727 114.185878 0),22.331972699999998,114.185878
103,"ONE BEACON HILL(Block 18),BEACON HILL RD|畢架山一號18座,筆架山道",KKL,48939266.35750365,28665.0,1507,50958982.11194032,29848.0,1507,52596266.48092151,30807.0,1508,3.0,6.0,9.0,"['A', 'B']",50831504.98345516,29773.333333333332,1507.5,10,20,2004/02,17,ONE BEACON HILL,畢架山一號,True,12.0,494.0,POINT Z (22.3408868 114.174717 0),22.340886800000003,114.17471699999999
104,"ONE BEACON HILL(Block 11),BEACON HILL RD|畢架山一號11座,筆架山道",KKL,30153450.0,29418.0,1025,34999650.0,30992.0,1025,39944032.0,35162.0,2128,3.0,8.0,11.0,"['A', 'B', 'C', 'C & D', 'D']",35687828.75,32389.583333333332,1306.6,12,60,2004/02,17,ONE BEACON HILL,畢架山一號,True,12.0,494.0,POINT Z (22.3408868 114.174717 0),22.340886800000003,114.17471699999999
105,15 GRAMPIAN RD|15 嘉林邊道,KKL,9377840.435293132,10999.0,634,9498674.859345984,11403.0,610,12096578.779514264,13706.0,836,2.0,3.0,4.0,"['A', 'B', 'C']",10350761.116066804,12164.77777777778,696.0,5,15,1966/07,55,blank,,False,,,POINT Z (22.329014 114.1865434 0),22.329014,114.18654340000002
106,16 HEREFORD RD|16 禧福道,KKL,,,3742,,,3742,,,3742,6.0,12.0,20.0,['D'],,,3742.0,19,19,1988/07,33,blank,,False,,,POINT Z (22.3340127 114.18051 0),22.3340127,114.18051000000001
107,19 GRAMPIAN RD|19 嘉林邊道,KKL,16219905.0,14495.0,1119,16523154.0,14766.0,1119,17139723.0,15317.0,1119,1.0,2.0,3.0,"['B', 'C', 'D']",16660542.333333334,14888.77777777778,1119.0,3,9,1963/05,58,blank,,False,,,POINT Z (22.329014 114.1865434 0),22.329014,114.18654340000002
108,"CAMBRIDGE GARDEN,LANCASHIRE RD|劍穚花園,蘭開夏道",KKL,,,4517,,,4517,,,4568,2.0,6.0,10.0,"['2', '4']",,,4542.5,12,24,1990/05,31,blank,,False,,,POINT Z (22.3305343 114.179745 0),22.3305343,114.179745
109,"ONE LASALLE,LA SALLE RD|ONE LASALLE,喇沙利道",KKL,,,2203,,,2203,,,2217,2.0,5.0,7.0,"['A', 'B']",,,2210.0,7,14,2010/05,11,blank,,False,,,POINT Z (22.328079 114.181717 0),22.328079000000002,114.18171699999999
110,"LUNG CHEUNG COURT(Block 1),BROADCAST DR|龍翔苑1座,廣播道",KKL,,,803,,,803,,,809,2.0,3.0,4.0,"['3B', '4A', '6F']",,,805.0,3,9,1970/03,51,LUNG CHEUNG COURT,龍翔苑,True,2.0,15.0,POINT Z (22.342999 114.179868 0),22.342999,114.179868
111,"MERIDIAN HILL(Block 1),BROADCAST DR|尚御1座,廣播道",KKL,43687455.55210413,15852.0,1355,45473457.18603671,16990.0,1355,60249326.78470865,21943.0,1614,1.0,5.0,8.0,"['A', 'B', 'C', 'D']",48753280.38947163,18516.416666666668,1543.25,9,36,2011/04,10,MERIDIAN HILL,尚御,True,3.0,108.0,POINT Z (22.3429933 114.1838088 0),22.342993300000003,114.1838088
112,"MERIDIAN HILL(Block 2),BROADCAST DR|尚御2座,廣播道",KKL,21691206.75928172,17975.0,988,22753843.229027886,18865.0,988,34128176.74747339,21204.0,1542,1.0,5.0,8.0,"['A', 'B', 'C', 'D']",26114851.65851502,19819.777777777777,1127.75,9,36,2011/04,10,MERIDIAN HILL,尚御,True,3.0,108.0,POINT Z (22.3427607 114.1839017 0),22.3427607,114.18390169999999
113,"MERIDIAN HILL(Block 3),BROADCAST DR|尚御3座,廣播道",KKL,33386750.0,20750.0,990,35101944.0,21816.0,990,36970956.0,23078.0,1609,1.0,5.0,8.0,"['A', 'B', 'C', 'D']",35228080.0,21942.5,1297.75,9,36,2011/04,10,MERIDIAN HILL,尚御,True,3.0,108.0,POINT Z (22.3425138 114.1838088 0),22.3425138,114.1838088
114,"DRAGON COURT(Block A),EASTBOURNE RD|龍圃別墅A座,義本道",KKL,19530920.0,19121.0,904,19530920.0,19121.0,904,20299614.901322786,19363.0,926,2.0,2.0,3.0,"['1', '2']",19791269.57621064,19944.5,915.0,4,8,1968/02,53,DRAGON COURT,龍圃別墅,True,4.0,44.0,POINT Z (22.3433134 114.176629 0),22.3433134,114.176629
115,"ONE MAYFAIR(Block 5),BROADCAST DR|逸瓏5座,廣播道",KKL,51349458.1950224,20119.0,1489,55795541.80632162,21861.0,1489,62882096.933643244,32919.0,1491,2.0,6.0,8.0,"['A', 'B']",59740148.54794705,27661.833333333332,1490.0,10,20,2011/12,10,ONE MAYFAIR,逸瓏,True,3.0,71.0,POINT Z (22.3401951 114.1820059 0),22.3401951,114.18200590000001
116,"ONE MAYFAIR(Block 6),BROADCAST DR|逸瓏6座,廣播道",KKL,34334262.48194195,19249.0,1042,38745329.60843385,20523.0,1042,65255749.47191863,21646.0,1893,2.0,6.0,9.0,"['A', 'B', 'C']",44170421.8187067,22046.666666666668,1260.888888888889,9,27,2011/12,10,ONE MAYFAIR,逸瓏,True,3.0,71.0,POINT Z (22.3401951 114.1820059 0),22.3401951,114.18200590000001
117,"ONE MAYFAIR(Block 1),BROADCAST DR|逸瓏1座,廣播道",KKL,31030456.71225249,25857.0,1060,32082568.710847195,26937.0,1052,33398648.394014817,28042.0,1495,1.0,4.0,7.0,"['A', 'B', 'C']",32170557.93903817,26945.333333333332,1340.888888888889,8,24,2011/12,10,ONE MAYFAIR,逸瓏,True,3.0,71.0,POINT Z (22.3401951 114.1820059 0),22.3401951,114.18200590000001
118,"1 & 3 EDE RD(Block 2),EDE RD|1 & 3 EDE RD2座,義德道",KKL,68499486.21366337,31749.0,1409,69796383.87072092,32638.0,1409,153581841.1416123,46031.0,3156,6.0,8.0,11.0,"['A', 'AB', 'B']",97046169.79032652,40015.666666666664,2104.0,8,24,2014/04,7,1 & 3 EDE RD,1 & 3 EDE RD,True,1.0,24.0,POINT Z (22.3407675 114.1778873 0),22.3407675,114.1778873
119,"EDEN GATE(Block 1),EDE RD|雲門1座,義德道",KKL,65254528.87231957,30206.0,1464,66955091.397668816,31445.0,1464,127509873.98409985,45200.0,3039,3.0,6.0,9.0,"['A', 'AB', 'B']",87963352.83998753,37846.77777777778,2026.0,10,30,2014/06,7,EDEN GATE,雲門,True,2.0,52.0,POINT Z (22.3412001 114.1780653 0),22.341200100000002,114.1780653
120,"EDEN GATE(Block 2),EDE RD|雲門2座,義德道",KKL,53993520.0,42211.0,1260,53352180.0,42343.0,1260,66073248.00000001,47782.0,1464,3.0,7.0,10.0,"['A', 'B']",60025078.0,44089.0,1362.0,11,22,2014/06,7,EDEN GATE,雲門,True,2.0,52.0,POINT Z (22.3412001 114.1780653 0),22.341200100000002,114.1780653
121,6 MORAY RD|6 慕禮道,KKL,,,1177,,,1177,,,1177,0.0,0.0,0.0,['whole floor'],,,1177.0,1,1,1955/01,66,blank,,False,,,POINT Z (22.331049 114.179541 0),22.331049,114.17954099999999
122,"THE GRAMPIAN,GRAMPIAN RD|THE GRAMPIAN,嘉林邊道",KKL,82245245.96788149,34976.0,2077,82856629.88690166,35236.0,2077,87472578.47550388,37199.0,2134,2.0,5.0,7.0,"['A', 'B']",84502003.84866837,35771.333333333336,2086.5,7,14,2016/06,5,blank,,False,,,POINT Z (22.328817 114.186251 0),22.328817,114.186251
123,"PARC INVERNESS(Block 2),INVERNESS RD|賢文禮士2座,延文禮士道",KKL,35806100.0,23650.0,833,33551740.0,24740.0,1286,39388224.0,26016.0,1514,2.0,6.0,9.0,"['A', 'B', 'C']",35943473.666666664,24997.166666666668,1364.7777777777778,9,27,2016/03,5,PARC INVERNESS,賢文禮士,True,4.0,149.0,POINT Z (22.3337311 114.186206 0),22.3337311,114.186206
124,"PARC INVERNESS(Block 3),INVERNESS RD|賢文禮士3座,延文禮士道",KKL,25046736.0,23452.0,883,23982079.354036964,25399.0,834,31612162.437773902,31622.0,1514,2.0,6.0,9.0,"['A', 'B', 'C']",29524729.371597458,27014.833333333332,1083.6666666666667,9,27,2016/03,5,PARC INVERNESS,賢文禮士,True,4.0,149.0,POINT Z (22.3337311 114.186206 0),22.3337311,114.186206
125,"PARC INVERNESS(Block 1),INVERNESS RD|賢文禮士1座,延文禮士道",KKL,47507600.0,29040.0,538,50113031.0,30321.0,538,65424895.99999999,38576.0,1696,2.0,6.0,9.0,"['A', 'B', 'C', 'D', 'E']",58083625.333333336,34038.166666666664,1479.9333333333334,9,45,2016/03,5,PARC INVERNESS,賢文禮士,True,4.0,149.0,POINT Z (22.3337311 114.186206 0),22.3337311,114.186206
126,"PARC INVERNESS(Block 5),INVERNESS RD|賢文禮士5座,延文禮士道",KKL,22174614.648824826,21811.0,898,38597845.0,26455.0,886,49371437.0,28489.0,1733,2.0,6.0,8.0,"['A', 'B', 'C', 'D', 'E']",41897936.587699436,26340.516666666666,1425.3999999999999,10,50,2016/03,5,PARC INVERNESS,賢文禮士,True,4.0,149.0,POINT Z (22.3337311 114.186206 0),22.3337311,114.186206
127,"LUNG CHEUNG COURT(Block 2),BROADCAST DR|龍翔苑2座,廣播道",KKL,,,803,,,803,,,809,0.0,0.0,1.0,"['1F', '2A', '2G']",,,805.0,2,6,1970/03,51,LUNG CHEUNG COURT,龍翔苑,True,2.0,15.0,POINT Z (22.3424117 114.1792838 0),22.3424117,114.1792838
128,"AYTON(Block 2),INVERNESS RD|雋睿2座,延文禮士道",KKL,,,265,,,265,,,616,2.0,4.0,6.0,"['A', 'B', 'C', 'D', 'E']",8538721.0,28553.083333333332,369.0,6,30,2019/09,2,AYTON,雋睿,True,2.0,33.0,POINT Z (22.3305552 114.1856898 0),22.3305552,114.1856898
129,"AYTON(Block 1),INVERNESS RD|雋睿1座,延文禮士道",KKL,22482285.0,29592.0,651,22759611.0,29958.0,651,36030852.0,35386.0,1188,4.0,5.0,6.0,"['A', 'D']",29175739.0,32460.166666666668,919.5,3,6,2019/09,2,AYTON,雋睿,True,2.0,33.0,POINT Z (22.329282 114.185216 0),22.329282,114.185216
