,final_address,district,lowZone_value,lowZone_npsf_min,lowZone_nfa_min,midZone_value,midZone_npsf_min,midZone_nfa_min,highZone_value,highZone_npsf_max,highZone_nfa_max,oneSixth_floor,middle_floor,fifthSixth_floor,unit_list,value_avg,npsf_avg,unitSize_avg,noStorey,noFlat,op_date,bldgAge,est_name_en,est_name_ch,est_orNot,est_bldgNo,est_flatNo,final_coords,lat,long
0,"MERRY COURT(Block 2),FESSENDEN RD|真能閣2座,范信達道",KKL,10661240.521948382,13872.0,670,11082402.56102189,14420.0,670,12640220.0,18866.0,670,1.0,4.0,7.0,"['A', 'B', 'C', 'D', 'E', 'F', 'G', 'H']",11496655.540217604,15450.47619047619,668.3333333333334,9,72,1975/08,45,MERRY COURT,真能閣,True,2.0,144.0,POINT Z (22.3425775 114.1824387 0),22.3425775,114.1824387
1,"BEVERLY VILLAS(Block 6),LA SALLE RD|碧華花園6座,喇沙利道",KKL,19818337.459093653,13121.0,1175,19804864.999814544,13617.0,1145,29159787.71675261,15759.0,1601,3.0,6.0,10.0,"['A', 'B', 'C', 'D']",24217168.97373205,14142.5,1366.5,12,48,1980/12,40,BEVERLY VILLAS,碧華花園,True,10.0,480.0,POINT Z (22.3273631 114.1821601 0),22.327363100000003,114.1821601
2,"CLIFFORD MANSION,BROADCAST DR|嘉翠園,廣播道",KKL,10386075.0,15992.0,525,10685850.0,16341.0,525,14910060.0,20913.0,820,2.0,4.0,5.0,"['A', 'B', 'C', 'D', 'E', 'F', 'G', 'H']",12228463.541666664,18944.0,655.0,6,48,1978/08,42,blank,,False,,,POINT Z (22.3428823 114.1827174 0),22.3428823,114.18271740000002
3,"HAPPY GARDEN(Block B),BROADCAST DR|雅樂園B座,廣播道",KKL,10296365.718023956,12511.0,600,10343946.612949245,12840.0,600,14337481.67505562,15049.0,1210,2.0,4.0,6.0,"['1', '2', '3', '34', '4']",12656995.927592805,14103.888888888889,815.0,7,35,1976/02,44,HAPPY GARDEN,雅樂園,True,0.0,0.0,POINT Z (22.3415555 114.1832515 0),22.3415555,114.18325149999998
4,"TANG COURT(Block D3),NGA TSIN WAI RD|怡德花園D3座,衙前圍道",KKL,,,1007,,,1007,,,1010,1.0,2.0,3.0,"['A', 'B']",,,1008.5,3,6,1987/01,33,TANG COURT,怡德花園,True,3.0,24.0,POINT Z (22.3296829 114.1833444 0),22.329682899999998,114.18334440000001
5,"CHERMAIN HEIGHTS(Block 2),EASTBOURNE RD|霞明閣2座,義本道",KKL,11898068.490710285,13648.0,730,12380163.440546362,14201.0,730,17078122.978591576,19276.0,790,3.0,6.0,10.0,"['C1', 'C2', 'C3', 'D1', 'D2', 'D3']",14919879.738213547,17011.5,765.0,12,72,1969/04,51,CHERMAIN HEIGHTS,霞明閣,True,0.0,0.0,POINT Z (22.3436927 114.177446 0),22.3436927,114.177446
6,"JUMBO COURT,BROADCAST DR|珍寶閣,廣播道",KKL,14847121.940190004,9522.0,889,15475497.296406828,9925.0,889,16317677.49928176,15806.0,1020,2.0,5.0,8.0,"['A', 'B', 'C', 'D']",15566908.18705248,13088.722222222219,954.75,9,36,1976/06,44,blank,,False,,,POINT Z (22.3428295 114.1815331 0),22.3428295,114.1815331
7,"FABER GARDEN(Block C),MARCONI RD|百美花園C座,馬可尼道",KKL,8576628.372343117,16993.0,440,8801731.42972351,17439.0,440,9022292.048726274,17876.0,490,2.0,4.0,6.0,"['1', '2', '3']",8800217.283597633,17436.0,456.66666666666674,7,21,1977/03,43,FABER GARDEN,百美花園,True,0.0,0.0,POINT Z (22.3416917 114.1819743 0),22.3416917,114.18197430000001
8,"KWONG FAI COURT,FESSENDEN RD|光輝園,范信達道",KKL,6125648.608061495,5016.0,410,6118321.277190607,5010.0,410,12747022.693560004,15915.0,760,2.0,5.0,8.0,"['A', 'B', 'C', 'D', 'E', 'F', 'G', 'H']",10037264.55084896,11074.142857142857,662.5,9,72,1976/00,44,blank,,False,,,POINT Z (22.3416651 114.1828335 0),22.3416651,114.1828335
9,"ALICE COURT(Block B),BROADCAST DR|雅麗園B座,廣播道",KKL,9761700.0,14167.0,440,10156250.0,14771.0,440,11105745.647129163,16104.0,650,2.0,5.0,8.0,"['E', 'F', 'G']",10511255.636126358,15096.666666666664,580.0,9,27,1971/10,49,ALICE COURT,雅麗園,True,2.0,63.0,POINT Z (22.3426482 114.1813009 0),22.3426482,114.18130090000001
10,"BEVERLY VILLAS(Block 3),LA SALLE RD|碧華花園3座,喇沙利道",KKL,27268949.80919448,11142.0,1175,28340911.75645953,11580.0,1175,32501494.65680333,15398.0,1601,3.0,6.0,10.0,"['A', 'B', 'C', 'D']",27586336.57182557,12072.083333333336,1385.5,12,48,1981/01,39,BEVERLY VILLAS,碧華花園,True,10.0,480.0,POINT Z (22.32743 114.183488 0),22.32743,114.18348799999998
11,"NGA YUEN BLDG,SAU CHUK YUEN RD|雅園大廈,秀竹園道",KKL,,,726,18140405.51617181,12914.0,1089,18810451.468720514,13391.0,1089,1.0,3.0,6.0,['whole floor'],,,968.0,7,7,1963/12,57,blank,,False,,,POINT Z (22.3278851 114.1856201 0),22.327885100000003,114.1856201
12,"BOLAND COURT(Phase 1),BROADCAST DR|寶能閣1期,廣播道",KKL,8196377.330621004,11343.0,480,8222659.181497175,10684.0,480,17177081.60456083,16413.0,1310,2.0,4.0,7.0,"['A', 'B', 'C', 'D', 'E', 'F', 'G', 'H']",9759325.134893203,13406.75,610.4166666666666,10,80,1974/09,46,BOLAND COURT,寶能閣,True,2.0,160.0,POINT Z (22.3402406 114.1821438 0),22.3402406,114.1821438
13,"CHERMAIN HEIGHTS(Block 1),EASTBOURNE RD|霞明閣1座,義本道",KKL,11582910.0,15867.0,730,12117270.0,16599.0,730,14670280.0,19303.0,803,3.0,6.0,10.0,"['A1', 'A2', 'A3', 'B1', 'B2', 'B3']",13352053.333333336,17773.333333333332,767.1666666666665,12,72,1969/04,51,CHERMAIN HEIGHTS,霞明閣,True,0.0,0.0,POINT Z (22.3436927 114.177446 0),22.3436927,114.177446
14,"INVERNESS VILLA(Block A),INVERNESS RD|賢文別墅A座,延文禮士道",KKL,8003445.434032952,3954.0,535,8110724.79872788,4007.0,535,12090302.490000967,12576.0,650,1.0,2.0,4.0,"['1', '2', '3', '4']",9552935.368781714,8671.666666666666,590.8333333333334,6,24,1977/00,43,INVERNESS VILLA,賢文別墅,True,2.0,48.0,POINT Z (22.3312363 114.1856636 0),22.3312363,114.1856636
15,"ROCKFORD MANSION,BROADCAST DR|嘉柏園,廣播道",KKL,9560775.0,14748.0,525,9819600.0,15147.0,525,13663280.0,18958.0,890,2.0,4.0,5.0,"['A', 'B', 'C', 'D', 'E', 'G']",11445841.333333336,16518.222222222223,705.6666666666665,6,36,1978/08,42,blank,,False,,,POINT Z (22.3430135 114.1824387 0),22.3430135,114.1824387
16,"KOWLOON TONG GARDEN,CAMBRIDGE RD|九龍塘花園,劍橋道",KKL,42372278.13548785,22760.0,1560,42927006.21615009,23057.0,1560,58920472.91163041,24291.0,2200,0.0,1.0,2.0,"['A', 'B', 'C', 'D', 'E', 'F', 'G', 'H']",49330987.26154464,23517.36904761905,1836.25,3,24,1987/12,33,blank,,False,,,POINT Z (22.3305497 114.1790948 0),22.3305497,114.17909479999999
17,"BOUNDARY CREST,BOUNDARY ST|新利大廈,界限街",KKL,8455450.799057014,12745.0,560,8795261.896276582,13394.0,560,9778860.396289526,14047.0,620,3.0,6.0,8.0,"['A', 'B', 'C']",9161336.036484215,13466.333333333336,593.3333333333334,10,30,1978/02,42,blank,,False,,,POINT Z (22.3275147 114.1854808 0),22.3275147,114.1854808
18,"FABER GARDEN(Block B),MARCONI RD|百美花園B座,馬可尼道",KKL,6643277.957421233,11705.0,390,7134216.482254156,12565.0,390,11899134.410327734,16232.0,940,2.0,4.0,6.0,"['1', '2', '3']",8069205.668982212,12624.444444444443,490.0,7,21,1977/03,43,FABER GARDEN,百美花園,True,0.0,0.0,POINT Z (22.3416917 114.1819743 0),22.3416917,114.18197430000001
19,"PHOENIX COURT(Block H),FESSENDEN RD|碧麗閣H座,范信達道",KKL,8461040.0,14578.0,560,8849680.0,15140.0,560,10159050.0,18471.0,620,2.0,5.0,8.0,"['1', '2', '3']",9497123.333333334,15833.777777777781,601.1111111111112,9,27,1977/10,43,PHOENIX COURT,碧麗閣,True,6.0,209.0,POINT Z (22.3419421 114.1821833 0),22.3419421,114.18218329999999
20,"BEVERLY VILLAS(Block 2),LA SALLE RD|碧華花園2座,喇沙利道",KKL,22298325.28041658,16544.0,1175,22673346.010464784,17263.0,1145,24342967.413539886,18061.0,1601,3.0,6.0,10.0,"['A', 'B', 'C', 'D']",23104879.568140414,17289.333333333332,1352.6666666666667,12,48,1980/12,40,BEVERLY VILLAS,碧華花園,True,10.0,480.0,POINT Z (22.3277223 114.1825084 0),22.3277223,114.1825084
21,"BEVERLY VILLAS(Block 1),LA SALLE RD|碧華花園1座,喇沙利道",KKL,28180910.99028372,13646.0,1145,21482894.502209853,14169.0,1145,28753660.56345874,14522.0,1535,3.0,6.0,10.0,"['A', 'B', 'C', 'D']",27435502.87072188,14407.333333333336,1366.5,12,48,1980/12,40,BEVERLY VILLAS,碧華花園,True,10.0,480.0,POINT Z (22.32773 114.1821833 0),22.32773,114.18218329999999
22,"SHEFFIELD GARDEN(Block A),COLLEGE RD|勝豐園A座,書院道",KKL,20780901.644400064,10457.0,1104,21941468.39971513,11041.0,1104,22535662.680261716,11340.0,1300,4.0,8.0,10.0,"['1', '2']",21752677.5747923,10946.0,1202.0,10,20,1974/05,46,SHEFFIELD GARDEN,勝豐園,True,0.0,0.0,POINT Z (22.3276421 114.1838869 0),22.3276421,114.18388689999999
23,"EASTBOURNE COURT,EASTBOURNE RD|雅景樓,義本道",KKL,19800571.47788336,16278.0,936,26097629.91611056,23634.0,926,,,2200,11.0,35.0,67.0,"['A', 'B', 'C', 'D', 'E', 'F']",,,1088.6666666666667,61,366,1965/12,55,blank,,False,,,POINT Z (22.343585 114.176736 0),22.343585,114.176736
24,"MARCONI COURT,MARCONI RD|馬可尼大廈,馬可尼道",KKL,10730720.0,16016.0,625,10876110.0,16233.0,625,12626240.0,18568.0,700,2.0,5.0,8.0,"['A', 'B', 'C', 'D', 'E', 'F', 'G', 'H']",11131126.25,16571.583333333332,664.375,9,72,1975/04,45,blank,,False,,,POINT Z (22.3413275 114.1826245 0),22.3413275,114.18262450000002
25,"TWILIGHT COURT(Block B),MARCONI RD|翠麗苑B座,馬可尼道",KKL,8055209.931362688,11907.0,480,8054590.776102782,12362.0,480,10395900.593297314,14233.0,635,2.0,5.0,8.0,"['1', '2', '3', '4']",9182409.0925802,13291.5,560.0,9,36,1975/06,45,TWILIGHT COURT,翠麗苑,True,2.0,68.0,POINT Z (22.3414406 114.1823226 0),22.341440600000002,114.1823226
26,"TWILIGHT COURT(Block A),MARCONI RD|翠麗苑A座,馬可尼道",KKL,,,440,,,440,,,640,2.0,4.0,7.0,"['1', '2', '3', '4']",,,583.75,8,32,1975/06,45,TWILIGHT COURT,翠麗苑,True,2.0,68.0,POINT Z (22.3414406 114.1823226 0),22.341440600000002,114.1823226
27,"BROADWAY TOWERS(Block B),BROADCAST DR|百樂園B座,廣播道",KKL,8055620.0,13819.0,430,8337700.0,14315.0,430,10425300.0,20285.0,780,3.0,6.0,10.0,"['1', '2', '3', '4']",9834327.5,17202.666666666668,635.0,12,48,1973/05,47,BROADWAY TOWERS,百樂園,True,2.0,96.0,POINT Z (22.3404599 114.1821833 0),22.3404599,114.18218329999999
28,"PHOENIX COURT(Block B),BROADCAST DR|碧麗閣B座,廣播道",KKL,13128500.0,14278.0,762,11494770.0,14832.0,762,23085744.0,20184.0,1518,3.0,6.0,8.0,"['1', '2', '3', '4', '45', '5', '6']",14910382.206349207,17175.666666666668,880.2380952380953,8,56,1977/10,43,PHOENIX COURT,碧麗閣,True,6.0,209.0,POINT Z (22.3422627 114.1815331 0),22.3422627,114.1815331
29,"KENT COURT(Block 1),BOUNDARY ST|根德閣1座,界限街",KKL,23023210.94515604,14010.0,1274,24234353.44812392,14747.0,1274,27820338.0,21837.0,1274,2.0,6.0,9.0,"['A', 'B']",24615096.49479559,15796.666666666664,1274.0,12,24,1980/01,40,KENT COURT,根德閣,True,2.0,78.0,POINT Z (22.327471 114.1802327 0),22.327471,114.1802327
30,"COLLEGE CREST,COLLEGE RD|博文閣,書院道",KKL,13996778.59422504,13502.0,750,14376645.40314319,16048.0,750,17735508.933957007,19002.0,1650,2.0,5.0,8.0,"['A1', 'A1A2', 'A2', 'A3', 'B1', 'B2', 'B3']",15659907.376826068,16327.377777777778,924.2857142857142,9,63,1978/11,42,COLLEGE CREST,博文閣,True,1.0,63.0,POINT Z (22.3282072 114.1838553 0),22.328207199999998,114.1838553
31,"MANHATTAN COURT,ALNWICK RD|新餘村,安域道",KKL,13330950.636884434,11009.0,783,13685459.590104107,11303.0,783,17748364.14504078,15291.0,2392,2.0,4.0,6.0,"['2A', '2B', '2C', '2E', '3C', '3E', '3F', '4A', '4C', '4F', '5C', '5D', '5E', '5F', '6B', '6C', '6D', '6E', '6F', '7B', '7C', '7F', '8C', '8D', '8E', '8F']",,,1016.0,7,182,1975/07,45,blank,,False,,,POINT Z (22.3429874 114.1777711 0),22.3429874,114.17777109999999
32,"PHOENIX COURT(Block C),MARCONI RD|碧麗閣C座,馬可尼道",KKL,7707045.075608719,11595.0,516,7907696.967216995,12197.0,516,11292146.21186782,15145.0,650,2.0,5.0,8.0,"['1', '2', '3', '4']",9386263.466791255,13106.0,607.0833333333334,9,36,1977/10,43,PHOENIX COURT,碧麗閣,True,6.0,209.0,POINT Z (22.341863 114.1815795 0),22.341863,114.1815795
33,"WAH HING BLDG,BOUNDARY ST|華興大廈,界限街",KKL,11227622.939458285,12235.0,800,11518522.528490428,12552.0,800,11810339.781841286,12870.0,1170,4.0,6.0,8.0,"['A', 'B1 & B2', 'B1-2', 'B1-B2', 'B1B2']",11518828.416596664,12552.333333333336,1096.0,7,35,1966/10,54,blank,,False,,,POINT Z (22.3275417 114.185655 0),22.327541699999998,114.18565500000001
34,"BEVERLY VILLAS(Block 10),LA SALLE RD|碧華花園10座,喇沙利道",KKL,21121678.884756293,13449.0,1175,21899370.717855934,14050.0,1145,30231595.77801285,17331.0,1601,3.0,6.0,10.0,"['A', 'B', 'C', 'D']",25232849.57169217,15845.333333333336,1363.5,12,48,1980/12,40,BEVERLY VILLAS,碧華花園,True,10.0,480.0,POINT Z (22.3274194 114.1834605 0),22.3274194,114.1834605
35,"BOLAND COURT(Phase 2),BROADCAST DR|寶能閣2期,廣播道",KKL,8612730.0,18443.0,405,8777565.0,18797.0,405,9545690.0,22341.0,1210,2.0,4.0,7.0,"['A', 'B', 'C', 'D', 'E', 'F', 'G', 'H']",9027171.577380953,20402.47619047619,477.5,10,80,1975/10,45,BOLAND COURT,寶能閣,True,2.0,160.0,POINT Z (22.3407369 114.1815331 0),22.340736899999996,114.1815331
36,"BELMONT HEIGHTS,MARCONI RD|碧滿閣,馬可尼道",KKL,8793861.33819883,10653.0,540,9142214.805271003,11075.0,540,16755000.0,16755.0,1000,2.0,5.0,8.0,"['A', 'B', 'C', 'D', 'E', 'F']",11678259.033388484,12377.483333333332,715.0,9,54,1977/02,43,blank,,False,,,POINT Z (22.34094 114.181975 0),22.34094,114.181975
37,"SAU CHUK YUEN,SAU CHUK YUEN RD|秀竹苑,秀竹園道",KKL,,,1066,,,1066,,,1109,2.0,5.0,8.0,"['A', 'B', 'C']",,,1094.6666666666667,9,27,1983/10,37,blank,,False,,,POINT Z (22.3278793 114.1845519 0),22.3278793,114.1845519
38,"PHOENIX COURT(Block E),FESSENDEN RD|碧麗閣E座,范信達道",KKL,9876362.230152823,13720.0,600,10274857.960554112,14268.0,600,11544997.144085307,15486.0,680,2.0,5.0,8.0,"['1', '2', '3']",10620584.169028053,14673.777777777776,631.6666666666666,9,27,1977/10,43,PHOENIX COURT,碧麗閣,True,6.0,209.0,POINT Z (22.3421605 114.1819046 0),22.342160500000002,114.18190459999998
39,"AVA COURT,BROADCAST DR|雅華閣,廣播道",KKL,11420871.57417534,11736.0,730,11871375.929839708,12210.0,730,15675150.0,16855.0,990,2.0,5.0,8.0,"['A', 'B', 'C', 'D', 'E', 'F']",13366397.423454715,13841.833333333336,879.1666666666665,9,54,1973/09,47,blank,,False,,,POINT Z (22.3425327 114.1832747 0),22.3425327,114.1832747
40,"LILAC COURT,BOUNDARY ST|昌蔚苑,界限街",KKL,,,846,,,846,,,1003,3.0,6.0,10.0,"['A', 'B', 'C', 'D']",,,924.5,12,48,1978/04,42,blank,,False,,,POINT Z (22.3275605 114.1852602 0),22.3275605,114.1852602
41,"BEVERLY VILLAS(Block 8),LA SALLE RD|碧華花園8座,喇沙利道",KKL,20827854.08141617,13129.0,1145,21907067.49756624,13640.0,1175,29329129.260150176,15429.0,1601,3.0,6.0,10.0,"['A', 'B', 'C', 'D']",24931388.76542392,14159.0,1372.0,12,48,1980/12,40,BEVERLY VILLAS,碧華花園,True,10.0,480.0,POINT Z (22.3274348 114.1828103 0),22.3274348,114.18281029999999
42,"WELCOME GARDEN,BROADCAST DR|偉錦園,廣播道",KKL,13239600.0,4953.0,680,13096800.0,19260.0,680,,,1395,10.0,29.0,58.0,"['A', 'A & D', 'B', 'C', 'D', 'E', 'F', 'G', 'H']",,,797.1481481481482,51,459,1971/11,49,blank,,False,,,POINT Z (22.3424538 114.1807442 0),22.3424538,114.1807442
43,"TANG COURT(Block D1),NGA TSIN WAI RD|怡德花園D1座,衙前圍道",KKL,,,1009,,,1009,19813733.0,19637.0,1065,2.0,2.0,3.0,"['A', 'B', 'whole floor']",,,1028.3333333333333,4,12,1987/01,33,TANG COURT,怡德花園,True,3.0,24.0,POINT Z (22.3296829 114.1833444 0),22.329682899999998,114.18334440000001
44,"KENT COURT(Block 5),BOUNDARY ST|根德閣5座,界限街",KKL,14467112.0,16256.0,869,15016320.0,16865.0,869,17928324.0,18277.0,1026,2.0,5.0,8.0,"['A', 'B', 'C', 'D', 'E', 'F']",15846250.611111112,17219.38888888889,921.3333333333335,9,54,1980/01,40,KENT COURT,根德閣,True,2.0,78.0,POINT Z (22.3274287 114.1808075 0),22.3274287,114.1808075
45,"AVON COURT,FESSENDEN RD|雅芳園,范信達道",KKL,13949598.841625933,13664.0,585,12144725.188776458,13071.0,585,15796409.753840605,15473.0,910,2.0,5.0,8.0,"['A', 'B', 'C', 'D', 'E', 'F', 'G', 'H']",14230502.26225298,14205.0,787.5,9,72,1974/01,46,blank,,False,,,POINT Z (22.3421153 114.1830193 0),22.342115300000003,114.1830193
46,"LOCKOO GARDENS,CORNWALL ST|樂古花園,歌和老街",KKL,22465357.392628394,16811.0,1155,23199936.20895448,17511.0,1155,25019779.26100296,18101.0,1205,2.0,4.0,6.0,"['A', 'B', 'C', 'D']",23566420.27108781,17558.75,1170.0,7,28,1988/02,32,blank,,False,,,POINT Z (22.3405074 114.1767726 0),22.3405074,114.1767726
47,"JADE COURT(Block A),BROADCAST DR|金翠苑A座,廣播道",KKL,5680826.009582528,5019.0,380,5910594.425590747,5222.0,380,12711477.325884862,11237.0,740,1.0,2.0,4.0,"['1', '2', '3']",9679014.052347803,9685.388888888889,593.3333333333334,6,18,1977/05,43,JADE COURT,金翠苑,True,2.0,68.0,POINT Z (22.34269 114.182114 0),22.34269,114.18211399999998
48,"BEVERLEY HEIGHTS(Block B),BEACON HILL RD|碧華閣B座,筆架山道",KKL,15026408.0,13862.0,949,,,949,,,1084,16.0,52.0,80.0,"['1', '2', '3']",,,1039.0,76,228,1970/03,50,BEVERLEY HEIGHTS,碧華閣,True,0.0,0.0,POINT Z (22.344213 114.176952 0),22.344213,114.176952
49,"PEARL COURT,RHONDDA RD|麗景樓,朗德道",KKL,18979867.57108523,12539.0,1160,19565337.40642437,12994.0,1160,28580425.79024875,15242.0,1850,3.0,6.0,9.0,"['A', 'B', 'C', 'D']",24928262.00048483,13579.111111111111,1505.0,11,44,1966/10,54,blank,,False,,,POINT Z (22.3441275 114.178282 0),22.3441275,114.17828200000001
50,"KALAM COURT,GRAMPIAN RD|嘉林閣,嘉林邊道",KKL,17796826.20220392,15063.0,1030,17125738.28592882,14495.0,1030,20309534.49189097,16071.0,1105,2.0,4.0,5.0,"['A', 'B', 'D', 'E', 'F']",18587671.60623191,15502.4,1045.0,6,30,1965/01,55,blank,,False,,,POINT Z (22.3283747 114.1862471 0),22.3283747,114.18624709999999
51,"WESTLAND HEIGHTS,BROADCAST DR|慧園,廣播道",KKL,9322689.661873344,8624.0,640,9566298.616202917,8848.0,640,14107581.654512553,12051.0,980,2.0,4.0,6.0,"['A', 'B', 'C', 'D', 'E']",12159605.69168646,9826.25,837.0,7,35,1976/11,44,blank,,False,,,POINT Z (22.3430108 114.1817653 0),22.343010800000002,114.1817653
52,"EVERGREEN MANSION,CORNWALL ST|翠亨園,歌和老街",KKL,23505471.0,22393.0,1023,23505471.0,22393.0,1023,27029792.0,23156.0,1192,2.0,2.0,3.0,"['A', 'B', 'C', 'D', 'E']",25136645.93333333,22794.6,1103.2,4,20,1966/09,54,blank,,False,,,POINT Z (22.3404908 114.1756347 0),22.3404908,114.1756347
53,"FESSENDEN COURT,FESSENDEN RD|信達閣,范信達道",KKL,8717280.0,13548.0,480,9077280.0,14089.0,480,14105405.0,19661.0,965,1.0,4.0,7.0,"['A', 'B', 'B2', 'C', 'D', 'E', 'F', 'G']",10179435.625,16142.416666666664,642.375,9,72,1976/03,44,blank,,False,,,POINT Z (22.3418472 114.1825084 0),22.341847199999997,114.1825084
54,"MERRY COURT(Block 1),FESSENDEN RD|真能閣1座,范信達道",KKL,8488750.543022327,12983.0,537,8824168.322316052,13496.0,537,10995426.336894237,16800.0,637,1.0,4.0,7.0,"['A', 'B', 'C', 'D', 'E', 'F', 'G', 'H']",9874237.69386995,15195.333333333336,568.0416666666666,9,72,1974/05,46,MERRY COURT,真能閣,True,2.0,144.0,POINT Z (22.3425775 114.1824387 0),22.3425775,114.1824387
55,"MOONBEAM TERR(Block B),ALNWICK RD|映月臺B座,安域道",KKL,17776809.649251986,13837.0,1120,18249590.30625312,14205.0,1120,18448723.463413924,14360.0,1120,3.0,4.0,6.0,"['1', '2']",18158374.472973008,14134.0,1120.0,6,12,1968/02,52,MOONBEAM TERR,映月臺,True,1.0,12.0,POINT Z (22.3425943 114.1783285 0),22.3425943,114.17832849999999
56,"MARPLE COURT,BROADCAST DR|萬寶閣,廣播道",KKL,10800039.544314578,13037.0,666,10811106.575998262,13622.0,670,14789921.264477756,15304.0,905,2.0,5.0,8.0,"['A', 'B', 'C', 'D', 'E', 'F']",12561077.71091958,13998.777777777781,784.7222222222223,9,54,1972/04,48,blank,,False,,,POINT Z (22.3425614 114.1810222 0),22.342561399999997,114.1810222
57,"PHOENIX COURT(Block F),FESSENDEN RD|碧麗閣F座,范信達道",KKL,8913181.761231251,13865.0,460,10358187.616095278,14359.0,600,11671359.520772142,15279.0,680,2.0,5.0,8.0,"['1', '2', '3']",10709329.126045743,14842.777777777781,607.2222222222222,9,27,1977/10,43,PHOENIX COURT,碧麗閣,True,6.0,209.0,POINT Z (22.3422766 114.1819975 0),22.3422766,114.18199750000001
58,"COMFORT COURT,MARCONI RD|康樂閣,馬可尼道",KKL,15685349.429668315,11623.0,1050,16318881.933700072,12060.0,1050,19479776.679508336,16889.0,1150,3.0,6.0,8.0,"['A', 'B', 'C', 'D']",17511923.45423981,14030.25,1100.0,10,40,1977/00,43,blank,,False,,,POINT Z (22.3409174 114.1823226 0),22.3409174,114.1823226
59,"CARLTON COURT,MARCONI RD|康泰閣,馬可尼道",KKL,15527391.870488185,15631.0,721,,,721,,,938,2.0,4.0,5.0,"['A', 'B', 'C', 'D', 'E', 'F']",,,838.8333333333335,6,36,1977/00,43,blank,,False,,,POINT Z (22.3411435 114.1817189 0),22.3411435,114.1817189
60,"BROADWAY TOWERS(Block A),BROADCAST DR|百樂園A座,廣播道",KKL,9523153.23388004,12032.0,430,8347797.303667951,10547.0,430,8809233.335528994,11130.0,760,3.0,6.0,10.0,"['1', '2', '3', '4']",8893394.624358995,11236.333333333336,660.0,12,48,1973/05,47,BROADWAY TOWERS,百樂園,True,2.0,96.0,POINT Z (22.340392 114.182083 0),22.340392,114.182083
61,"EASTLAND HEIGHTS,BROADCAST DR|柏園,廣播道",KKL,11421112.461059002,11996.0,830,11726729.091602512,12317.0,830,16360004.765982416,14521.0,1060,2.0,4.0,5.0,"['A', 'B', 'C', 'D', 'E', 'F', 'G', 'H']",14068694.737103336,13041.80952380952,926.25,6,48,1976/11,44,blank,,False,,,POINT Z (22.3432612 114.1819743 0),22.3432612,114.18197430000001
62,"ALICE COURT(Block A),BROADCAST DR|雅麗園A座,廣播道",KKL,11049480.0,17517.0,540,12124970.0,18256.0,540,14791920.0,20632.0,780,2.0,5.0,8.0,"['A', 'B', 'C', 'D']",13345952.5,19109.13888888889,672.5,9,36,1971/10,49,ALICE COURT,雅麗園,True,2.0,63.0,POINT Z (22.3428881 114.1811615 0),22.342888100000003,114.1811615
63,"FAIRYLAND GARDEN,BROADCAST DR|翠華園,廣播道",KKL,18066441.17625865,10636.0,1100,18796228.54320729,11090.0,1100,21051629.216010045,12080.0,1140,3.0,6.0,9.0,"['A', 'B', 'C', 'D']",19295711.48602539,11268.5,1120.0,11,44,1973/07,47,blank,,False,,,POINT Z (22.3405029 114.181769 0),22.340502899999997,114.18176899999999
64,"INVERNESS VILLA(Block B),INVERNESS RD|賢文別墅B座,延文禮士道",KKL,9079164.294878537,14934.0,530,9161237.897383465,15069.0,530,11951430.670843467,17365.0,600,1.0,2.0,4.0,"['1', '2', '3', '4']",10484419.034436628,16128.833333333336,565.0,6,24,1977/01,43,INVERNESS VILLA,賢文別墅,True,2.0,48.0,POINT Z (22.3312363 114.1856636 0),22.3312363,114.1856636
65,"VIOLET COURT,CORNWALL ST|紫蘭別墅,歌和老街",KKL,,,1005,,,1005,17589845.4461631,4983.0,1025,3.0,4.0,6.0,"['1', '2', '3', '4']",,,1015.0,6,24,1964/07,56,blank,,False,,,POINT Z (22.340687 114.177616 0),22.340687,114.17761599999999
66,"PHOENIX COURT(Block D),MARCONI RD|碧麗閣D座,馬可尼道",KKL,7411729.059286075,10101.0,480,9378088.686126003,8764.0,670,11190801.65866991,15227.0,700,2.0,5.0,8.0,"['1', '2', '3', '4']",9619553.54709518,12327.333333333336,663.3333333333334,9,36,1978/00,42,PHOENIX COURT,碧麗閣,True,6.0,209.0,POINT Z (22.3420154 114.1817189 0),22.342015399999998,114.1817189
67,"BEVERLY VILLAS(Block 7),LA SALLE RD|碧華花園7座,喇沙利道",KKL,21148635.274118505,13265.0,1175,21507040.544595998,13664.0,1145,29665747.206172183,18214.0,1601,3.0,6.0,10.0,"['A', 'B', 'C', 'D']",24418178.65452663,16136.555555555557,1372.0,12,48,1980/12,40,BEVERLY VILLAS,碧華花園,True,10.0,480.0,POINT Z (22.3273808 114.182462 0),22.3273808,114.18246200000002
68,"BEVERLY VILLAS(Block 5),LA SALLE RD|碧華花園5座,喇沙利道",KKL,21437503.90411648,11926.0,1145,23209216.08937746,12443.0,1145,36095930.233853616,19655.0,1601,3.0,6.0,10.0,"['A', 'B', 'C', 'D']",27551700.2668134,16056.666666666664,1380.5,12,48,1980/12,40,BEVERLY VILLAS,碧華花園,True,10.0,480.0,POINT Z (22.32743 114.183488 0),22.32743,114.18348799999998
69,"BEVERLY VILLAS(Block 4),LA SALLE RD|碧華花園4座,喇沙利道",KKL,21078548.66177677,15639.0,1175,21877805.60636617,16232.0,1145,38717259.21484971,18748.0,1601,3.0,6.0,10.0,"['A', 'B', 'C', 'D']",29242080.118579537,17114.0,1374.5,12,48,1980/12,40,BEVERLY VILLAS,碧華花園,True,10.0,480.0,POINT Z (22.3277504 114.1831586 0),22.3277504,114.18315859999998
70,"JOY GARDEN(Block 2),ALNWICK RD|天樂園2座,安域道",KKL,13863625.165766472,14921.0,810,14248287.106563155,15335.0,810,15021327.528647313,16167.0,810,2.0,4.0,6.0,"['A', 'B', 'C', 'D']",14362338.442874247,15457.75,810.0,7,28,1975/09,45,JOY GARDEN,天樂園,True,0.0,0.0,POINT Z (22.3432853 114.1778176 0),22.3432853,114.1778176
71,"TANG COURT(Block D2),NGA TSIN WAI RD|怡德花園D2座,衙前圍道",KKL,,,1007,20624148.844591968,6876.0,1007,,,1010,1.0,2.0,3.0,"['A', 'B']",,,1008.5,3,6,1987/01,33,TANG COURT,怡德花園,True,3.0,24.0,POINT Z (22.3296829 114.1833444 0),22.329682899999998,114.18334440000001
72,"BEVERLY VILLAS(Block 9),LA SALLE RD|碧華花園9座,喇沙利道",KKL,20277691.54003161,14713.0,1145,21082810.0654568,15347.0,1145,29848239.8418124,16878.0,1601,3.0,6.0,10.0,"['A', 'B', 'C', 'D']",24772776.622606635,15786.083333333336,1372.0,12,48,1980/12,40,BEVERLY VILLAS,碧華花園,True,10.0,480.0,POINT Z (22.32743 114.183488 0),22.32743,114.18348799999998
73,"DRAGON COURT(Block C),EASTBOURNE RD|龍圃別墅C座,義本道",KKL,13102320.0,19107.0,636,13102320.0,19107.0,636,15525149.0,22071.0,787,2.0,2.0,3.0,"['1', '2', '3', '4']",14104405.222222222,20397.666666666668,679.75,4,16,1968/02,52,DRAGON COURT,龍圃別墅,True,4.0,44.0,POINT Z (22.3431232 114.1767726 0),22.343123199999997,114.1767726
74,"FUNG WAH COURT,SAU CHUK YUEN RD|鳳華閣,秀竹園道",KKL,17380723.934767716,5283.0,1061,15530751.104296545,4705.0,1060,19582371.55034049,17864.0,1061,2.0,6.0,8.0,"['A', 'B', 'C', 'D']",18232436.31173568,11374.416666666664,1060.8333333333333,8,32,1972/03,48,blank,,False,,,POINT Z (22.3278353 114.1848306 0),22.3278353,114.18483059999998
75,"JOY GARDEN(Block 1),ALNWICK RD|天樂園1座,安域道",KKL,12965435.380495625,10471.0,810,12149446.27575428,9812.0,810,13700939.975664604,11065.0,810,2.0,4.0,6.0,"['A', 'B', 'C', 'D']",12808387.401560836,10344.166666666666,810.0,7,28,1975/09,45,JOY GARDEN,天樂園,True,0.0,0.0,POINT Z (22.3434411 114.178073 0),22.343441100000003,114.178073
76,"HAMBURG VILLA,EASTBOURNE RD|涵碧別墅,義本道",KKL,17917390.08747688,17070.0,845,17917390.08747688,17070.0,845,29149480.905086897,21437.0,1239,2.0,2.0,3.0,"['1', '3A', '3B', '4A', '4B', '5', '6A', '6B']",21525880.193059187,18806.714285714286,981.0,4,32,1970/06,50,blank,,False,,,POINT Z (22.343141 114.1770745 0),22.343141,114.17707450000002
77,"JADE COURT,BROADCAST DR|金翠苑,廣播道",KKL,4890568.843718171,4594.0,335,4954204.658450852,4654.0,335,12227020.0,17160.0,740,1.0,2.0,3.0,"['A3', 'B1', 'B2', 'B3', 'C1', 'C2', 'C3', 'D1', 'D2', 'D3']",9336878.922324048,12319.566666666666,567.1,5,50,1977/05,43,JADE COURT,金翠苑,True,2.0,68.0,POINT Z (22.34269 114.182114 0),22.34269,114.18211399999998
78,"LUSO APTS(Block D),WARWICK RD|和域臺D座,和域道",KKL,20196248.45192237,3859.0,1285,20651566.828527,3946.0,1285,22498946.965779036,4110.0,1350,4.0,6.0,8.0,"['2', '85', '95']",21271940.294466034,3963.0,1317.6666666666667,7,21,1965/03,55,LUSO APTS,和域臺,True,1.0,21.0,POINT Z (22.3422505 114.1773299 0),22.342250500000002,114.17732990000002
79,"HILLSEA COURT,CORNWALL ST|匯山園,歌和老街",KKL,21960886.345460884,11971.0,1239,21960886.345460884,11971.0,1239,24035385.325539894,15658.0,1289,2.0,2.0,3.0,"['A', 'B', 'C', 'D']",22881652.944329336,14300.666666666664,1254.5833333333333,4,16,1963/11,57,blank,,False,,,POINT Z (22.3404827 114.1762385 0),22.3404827,114.1762385
80,"FABER GARDEN(Block A),MARCONI RD|百美花園A座,馬可尼道",KKL,7400641.547911912,14233.0,440,7689338.7425791435,14605.0,440,8418113.332089365,18184.0,490,2.0,4.0,6.0,"['1', '2', '3']",7903779.829891018,15861.666666666664,456.66666666666674,7,21,1977/03,43,FABER GARDEN,百美花園,True,0.0,0.0,POINT Z (22.3416917 114.1819743 0),22.3416917,114.18197430000001
81,"VISTA PANORAMA,RHONDDA RD|蟠龍閣,朗德道",KKL,32323429.97305653,6674.0,1626,33476108.476740595,6912.0,1626,35641013.06139092,7359.0,1626,3.0,6.0,10.0,"['A1', 'A2', 'B1', 'B2']",33840020.16587054,6987.1388888888905,1626.0,12,48,1966/07,54,VISTA PANORAMA,蟠龍閣,True,1.0,48.0,POINT Z (22.3440179 114.1787 0),22.344017899999997,114.1787
82,"ALBION GARDEN,LA SALLE RD|愛賓花園,喇沙利道",KKL,34028856.92831449,8255.0,1470,34907322.1505083,8474.0,1470,51825228.31515442,20206.0,1850,2.0,4.0,5.0,"['B', 'C', 'D', 'E', 'F', 'G', 'H']",41850569.05611517,11544.095238095237,1653.571428571429,6,42,1981/10,39,blank,,False,,,POINT Z (22.329751 114.181702 0),22.329751,114.181702
83,"CRYSTAL MANSION,EASTBOURNE RD|晶苑,義本道",KKL,16547676.314903773,12301.0,880,17209529.558293145,12793.0,880,30865868.776004434,17820.0,1510,3.0,6.0,10.0,"['A', 'B', 'C']",23393302.604812235,14941.166666666664,1244.4444444444443,12,36,1971/01,49,blank,,False,,,POINT Z (22.343636 114.1764243 0),22.343636,114.17642430000001
84,"DEVON COURT,CORNWALL ST|達運閣,歌和老街",KKL,,,1245,,,1245,,,1300,2.0,4.0,6.0,"['A', 'B', 'C', 'D']",,,1272.5,7,28,1975/03,45,blank,,False,,,POINT Z (22.3405421 114.1753096 0),22.3405421,114.17530959999999
85,"MERLIN COURT,BROADCAST DR|美輪閣,廣播道",KKL,8814850.0,14407.0,470,10812990.0,14770.0,690,14330898.0,16783.0,918,1.0,4.0,7.0,"['A', 'B', 'C', 'D', 'E', 'F']",12125161.666666664,15893.5,770.2222222222223,9,54,1975/03,45,blank,,False,,,POINT Z (22.3426639 114.1829961 0),22.342663899999998,114.18299609999998
86,"PENINSULA HEIGHTS(Block B),BROADCAST DR|星輝豪庭B座,廣播道",KKL,21911931.248218324,17231.0,1101,24156167.66482259,18746.0,1101,29007626.06053939,20694.0,1248,2.0,8.0,14.0,"['1', '2', '3', '5', '6', '7']",25406871.02397154,19023.911111111112,1166.6666666666667,15,90,2000/06,20,PENINSULA HEIGHTS,星輝豪庭,True,0.0,0.0,POINT Z (22.3433467 114.183089 0),22.3433467,114.183089
87,"PENINSULA HEIGHTS(Block A),BROADCAST DR|星輝豪庭A座,廣播道",KKL,23037324.0,20438.0,1101,24977286.0,22165.0,1101,30210312.0,24489.0,1248,2.0,8.0,14.0,"['1', '2', '3', '5', '6', '7']",26307278.38888889,22555.388888888887,1166.6666666666667,15,90,2000/03,20,PENINSULA HEIGHTS,星輝豪庭,True,0.0,0.0,POINT Z (22.3434779 114.1828103 0),22.343477899999996,114.18281029999999
88,"DRAGON COURT(Block D),EASTBOURNE RD|龍圃別墅D座,義本道",KKL,21791386.0,19020.0,937,21791386.0,19020.0,937,22379958.0,20457.0,1094,2.0,2.0,3.0,"['1', '2', '3']",22006295.65325995,19564.0,1013.3333333333335,4,12,1968/02,52,DRAGON COURT,龍圃別墅,True,4.0,44.0,POINT Z (22.3431232 114.1767726 0),22.343123199999997,114.1767726
89,"THE BLOOMSVILLE,NGA TSIN WAI RD|陶源,衙前圍道",KKL,15789818.629871447,18136.0,710,18011329.089622773,19901.0,711,21899867.40366844,24259.0,789,10.0,19.0,28.0,"['A', 'B', 'C']",18800120.072657246,20915.0,758.888888888889,25,75,2002/05,18,blank,,False,,,POINT Z (22.328713 114.1858988 0),22.328713,114.18589879999999
90,"THE PALACE,BROADCAST DR|嘉皇臺,廣播道",KKL,19741870.0,24957.0,691,23126388.0,26559.0,691,56526410.0,37671.0,1790,13.0,26.0,37.0,"['A', 'B', 'C', 'D']",35174819.80555556,29729.25,1177.6666666666667,32,128,2002/09,18,blank,,False,,,POINT Z (22.3420412 114.1835975 0),22.342041199999997,114.1835975
91,"ONE BEACON HILL(Block 15),BEACON HILL RD|畢架山一號15座,筆架山道",KKL,52058643.4733591,12195.0,1502,54882801.34713989,12972.0,1502,56979107.15101129,24816.0,1508,3.0,7.0,10.0,"['A', 'B']",55206145.99324176,18107.0,1505.0,11,22,2004/02,16,ONE BEACON HILL,畢架山一號,True,12.0,494.0,POINT Z (22.3408868 114.174717 0),22.340886800000003,114.17471699999999
92,"ONE BEACON HILL(Block 12),BEACON HILL RD|畢架山一號12座,筆架山道",KKL,25179109.56014489,19044.0,1025,26568693.898924153,20095.0,1025,33881001.36234241,22960.0,1144,3.0,7.0,10.0,"['A', 'B', 'C', 'D']",29642081.6087458,20813.166666666668,1102.75,11,44,2004/02,16,ONE BEACON HILL,畢架山一號,True,12.0,494.0,POINT Z (22.3408868 114.174717 0),22.340886800000003,114.17471699999999
93,"ONE BEACON HILL(Block 8),BEACON HILL RD|畢架山一號8座,筆架山道",KKL,27532711.231367696,22783.0,1025,27174105.22182048,22730.0,1025,33832487.10305868,25827.0,1165,3.0,7.0,10.0,"['A', 'B', 'C', 'D']",29861494.22836244,23841.111111111117,1109.5,11,44,2004/02,16,ONE BEACON HILL,畢架山一號,True,12.0,494.0,POINT Z (22.3408868 114.174717 0),22.340886800000003,114.17471699999999
94,"ONE BEACON HILL(Block 6),BEACON HILL RD|畢架山一號6座,筆架山道",KKL,27086140.21438941,20354.0,1060,28310027.969177056,21980.0,1060,34934058.04857507,24487.0,1106,3.0,8.0,11.0,"['A', 'B', 'C', 'D', 'E']",30355067.37137855,22757.41666666667,1086.8,12,60,2003/09,17,ONE BEACON HILL,畢架山一號,True,12.0,494.0,POINT Z (22.3408868 114.174717 0),22.340886800000003,114.17471699999999
95,"ONE BEACON HILL(Block 7),BEACON HILL RD|畢架山一號7座,筆架山道",KKL,33331008.32478247,21954.0,1177,34820382.43276332,22935.0,1177,39171747.55356931,25370.0,1197,3.0,8.0,11.0,"['A', 'B', 'C']",36008428.2946921,23579.777777777777,1183.6666666666667,12,36,2003/09,17,ONE BEACON HILL,畢架山一號,True,12.0,494.0,POINT Z (22.3408868 114.174717 0),22.340886800000003,114.17471699999999
96,"ONE BEACON HILL(Block 1),BEACON HILL RD|畢架山一號1座,筆架山道",KKL,29773940.003167376,9579.0,1064,30545291.922905102,24538.0,1064,34090440.24888822,26030.0,1162,1.0,3.0,6.0,"['A', 'B', 'C', 'D', 'E', 'F']",33944474.12691199,24070.222222222223,1182.0555555555557,7,42,2003/09,17,ONE BEACON HILL,畢架山一號,True,12.0,494.0,POINT Z (22.3408868 114.174717 0),22.340886800000003,114.17471699999999
97,"ONE BEACON HILL(Block 17),BEACON HILL RD|畢架山一號17座,筆架山道",KKL,54389147.73505624,23688.0,1502,56281103.90415818,24512.0,1502,59260684.77997583,25707.0,1508,2.0,6.0,8.0,"['A', 'B']",56643645.47306342,24635.66666666667,1505.0,8,16,2004/02,16,ONE BEACON HILL,畢架山一號,True,12.0,494.0,POINT Z (22.3408868 114.174717 0),22.340886800000003,114.17471699999999
98,"ONE BEACON HILL(Block 19),BEACON HILL RD|畢架山一號19座,筆架山道",KKL,51299460.01298147,12635.0,1502,54085543.94445443,13949.0,1502,78296833.41074134,29703.0,2298,2.0,6.0,9.0,"['A', 'B']",61083485.16836171,21948.83333333333,1635.0,9,18,2003/09,17,ONE BEACON HILL,畢架山一號,True,12.0,494.0,POINT Z (22.3408868 114.174717 0),22.340886800000003,114.17471699999999
99,"DRAGON COURT(Block B),EASTBOURNE RD|龍圃別墅B座,義本道",KKL,15524691.643230367,18642.0,726,15524691.643230367,18642.0,726,15930255.683046546,20138.0,785,2.0,2.0,3.0,"['1', '2']",15660838.161584547,19377.83333333333,755.5,4,8,1968/02,52,DRAGON COURT,龍圃別墅,True,4.0,44.0,POINT Z (22.3433134 114.176629 0),22.3433134,114.176629
100,"ONE BEACON HILL(Block 5),BEACON HILL RD|畢架山一號5座,筆架山道",KKL,28852032.0,15907.0,1050,30795072.0,17004.0,1050,62384971.1479232,31952.0,2311,3.0,8.0,11.0,"['A', 'B', 'B & C', 'C', 'D', 'E', 'F']",36579955.44101746,27617.38095238095,1284.5714285714287,12,84,2004/02,16,ONE BEACON HILL,畢架山一號,True,12.0,494.0,POINT Z (22.3408868 114.174717 0),22.340886800000003,114.17471699999999
101,"ONE BEACON HILL(Block 10),BEACON HILL RD|畢架山一號10座,筆架山道",KKL,33283664.0,29299.0,1025,25981700.0,25348.0,1025,39314486.0,34547.0,1138,3.0,8.0,11.0,"['A', 'B', 'C', 'D']",33983379.277777776,30457.444444444438,1101.1666666666667,12,48,2004/02,16,ONE BEACON HILL,畢架山一號,True,12.0,494.0,POINT Z (22.3408868 114.174717 0),22.340886800000003,114.17471699999999
102,"YEE YUEN,DUMBARTON RD|怡苑,東寶庭道",KKL,20224317.84481412,6057.0,1121,20561963.905644827,11999.0,1121,20561963.905644827,11999.0,1121,1.0,2.0,2.0,['whole floor'],20449415.21870125,10018.333333333334,1121.0,4,4,1962/05,58,blank,,False,,,POINT Z (22.3319727 114.185878 0),22.331972699999998,114.185878
103,"ONE BEACON HILL(Block 18),BEACON HILL RD|畢架山一號18座,筆架山道",KKL,48567517.129232205,28077.0,1507,50565432.94232702,29232.0,1507,52004624.2466516,30064.0,1508,3.0,6.0,9.0,"['A', 'B']",50379191.4394036,29124.33333333333,1507.5,10,20,2004/02,16,ONE BEACON HILL,畢架山一號,True,12.0,494.0,POINT Z (22.3408868 114.174717 0),22.340886800000003,114.17471699999999
104,"ONE BEACON HILL(Block 11),BEACON HILL RD|畢架山一號11座,筆架山道",KKL,28885525.0,28181.0,1025,33315575.0,29704.0,1025,36875752.0,33181.0,2128,3.0,8.0,11.0,"['A', 'B', 'C', 'C & D', 'D']",33806655.333333336,30686.08333333333,1306.6,12,60,2004/02,16,ONE BEACON HILL,畢架山一號,True,12.0,494.0,POINT Z (22.3408868 114.174717 0),22.340886800000003,114.17471699999999
105,15 GRAMPIAN RD|15 嘉林邊道,KKL,10731183.485790148,12429.0,634,10601137.662887873,12641.0,610,13745881.404030075,13635.0,836,2.0,3.0,4.0,"['A', 'B', 'C']",11716159.178215055,13101.666666666664,696.0,5,15,1966/07,54,blank,,False,,,POINT Z (22.329014 114.1865434 0),22.329014,114.18654340000002
106,16 HEREFORD RD|16 禧福道,KKL,,,3742,,,3742,,,3742,6.0,12.0,20.0,['D'],,,3742.0,19,19,1988/07,32,blank,,False,,,POINT Z (22.3340127 114.18051 0),22.3340127,114.18051000000001
107,19 GRAMPIAN RD|19 嘉林邊道,KKL,15553174.796602836,12117.0,1119,15759831.654096693,12278.0,1119,15921563.107787535,12404.0,1119,1.0,2.0,3.0,"['B', 'C', 'D']",15744856.519495688,12266.333333333336,1119.0,3,9,1963/05,57,blank,,False,,,POINT Z (22.329014 114.1865434 0),22.329014,114.18654340000002
108,"CAMBRIDGE GARDEN,LANCASHIRE RD|劍穚花園,蘭開夏道",KKL,,,4517,,,4517,,,4568,2.0,6.0,10.0,"['2', '4']",,,4542.5,12,24,1990/05,30,blank,,False,,,POINT Z (22.3305343 114.179745 0),22.3305343,114.179745
109,"ONE LASALLE,LA SALLE RD|ONE LASALLE,喇沙利道",KKL,94988084.02460852,37408.0,2203,98960556.50556532,38981.0,2203,101918906.67710796,40214.0,2217,2.0,5.0,7.0,"['A', 'B']",98625363.55402967,38905.0,2210.0,7,14,2010/05,10,blank,,False,,,POINT Z (22.328079 114.181717 0),22.328079000000002,114.18171699999999
110,"LUNG CHEUNG COURT(Block 1),BROADCAST DR|龍翔苑1座,廣播道",KKL,,,803,,,803,,,809,2.0,3.0,4.0,"['3B', '4A', '6F']",,,805.0,3,9,1970/03,50,LUNG CHEUNG COURT,龍翔苑,True,2.0,15.0,POINT Z (22.342999 114.179868 0),22.342999,114.179868
111,"MERIDIAN HILL(Block 1),BROADCAST DR|尚御1座,廣播道",KKL,41497088.54562374,16819.0,1355,43071625.42686919,18155.0,1355,56947414.75115462,23225.0,1614,1.0,5.0,8.0,"['A', 'B', 'C', 'D']",46953972.30755187,19959.58333333333,1543.25,9,36,2011/04,9,MERIDIAN HILL,尚御,True,3.0,108.0,POINT Z (22.3429933 114.1838088 0),22.342993300000003,114.1838088
112,"MERIDIAN HILL(Block 2),BROADCAST DR|尚御2座,廣播道",KKL,20626340.89172079,16874.0,988,21640658.204802666,17710.0,988,32460980.42472161,19911.0,1542,1.0,5.0,8.0,"['A', 'B', 'C', 'D']",24839631.176609173,18606.666666666668,1127.75,9,36,2011/04,9,MERIDIAN HILL,尚御,True,3.0,108.0,POINT Z (22.3427607 114.1839017 0),22.3427607,114.18390169999999
113,"MERIDIAN HILL(Block 3),BROADCAST DR|尚御3座,廣播道",KKL,23454880.56289903,19779.0,990,24861900.850370314,20812.0,990,39364185.0,24465.0,1609,1.0,5.0,8.0,"['A', 'B', 'C', 'D']",29525654.925476413,21578.5,1297.75,9,36,2011/04,9,MERIDIAN HILL,尚御,True,3.0,108.0,POINT Z (22.3425138 114.1838088 0),22.3425138,114.1838088
114,"DRAGON COURT(Block A),EASTBOURNE RD|龍圃別墅A座,義本道",KKL,18685680.0,20670.0,904,18685680.0,20670.0,904,19437666.0,21018.0,926,2.0,2.0,3.0,"['1', '2']",19047433.0,20816.5,915.0,4,8,1968/02,52,DRAGON COURT,龍圃別墅,True,4.0,44.0,POINT Z (22.3433134 114.176629 0),22.3433134,114.176629
115,"ONE MAYFAIR(Block 5),BROADCAST DR|逸瓏5座,廣播道",KKL,48965083.38541941,21483.0,1489,53304771.45346571,23387.0,1489,59955672.56929524,31216.0,1491,2.0,6.0,8.0,"['A', 'B']",57828508.33263459,28712.33333333333,1490.0,10,20,2011/12,9,ONE MAYFAIR,逸瓏,True,3.0,71.0,POINT Z (22.3401951 114.1820059 0),22.3401951,114.18200590000001
116,"ONE MAYFAIR(Block 6),BROADCAST DR|逸瓏6座,廣播道",KKL,32782956.55369759,20581.0,1042,36949917.067981295,23197.0,1042,35860390.69498051,22513.0,1893,2.0,6.0,9.0,"['A', 'B', 'C']",37301883.34749175,23842.33333333333,1260.888888888889,9,27,2011/12,9,ONE MAYFAIR,逸瓏,True,3.0,71.0,POINT Z (22.3401951 114.1820059 0),22.3401951,114.18200590000001
117,"ONE MAYFAIR(Block 1),BROADCAST DR|逸瓏1座,廣播道",KKL,31727830.87057192,22973.0,1060,30510925.39416928,24352.0,1052,60731226.19709577,26574.0,1495,1.0,4.0,7.0,"['A', 'B', 'C']",46983842.78824637,25873.111111111117,1340.888888888889,8,24,2011/12,9,ONE MAYFAIR,逸瓏,True,3.0,71.0,POINT Z (22.3401951 114.1820059 0),22.3401951,114.18200590000001
118,"1 & 3 EDE RD(Block 2),EDE RD|1 & 3 EDE RD2座,義德道",KKL,70425879.72284563,31992.0,1409,71673614.13203543,32888.0,1409,155054184.92061904,46608.0,3156,6.0,8.0,11.0,"['A', 'AB', 'B']",98540377.89341004,40264.22222222222,2104.0,8,24,2014/04,6,1 & 3 EDE RD,1 & 3 EDE RD,True,1.0,24.0,POINT Z (22.3407675 114.1778873 0),22.3407675,114.1778873
119,"EDEN GATE(Block 1),EDE RD|雲門1座,義德道",KKL,63643085.50159786,29820.0,1464,64787856.0,31042.0,1464,126659983.97264564,44143.0,3039,3.0,6.0,9.0,"['A', 'AB', 'B']",85970011.21979152,37017.0,2026.0,10,30,2014/06,6,EDEN GATE,雲門,True,2.0,52.0,POINT Z (22.3412001 114.1780653 0),22.341200100000002,114.1780653
120,"EDEN GATE(Block 2),EDE RD|雲門2座,義德道",KKL,52610040.0,40291.0,1260,53455500.0,42263.0,1260,63618120.0,45807.0,1464,3.0,7.0,10.0,"['A', 'B']",58043256.0,42665.833333333336,1362.0,11,22,2014/06,6,EDEN GATE,雲門,True,2.0,52.0,POINT Z (22.3412001 114.1780653 0),22.341200100000002,114.1780653
121,6 MORAY RD|6 慕禮道,KKL,,,1177,,,1177,,,1177,0.0,0.0,0.0,['whole floor'],,,1177.0,1,1,1955/01,65,blank,,False,,,POINT Z (22.331049 114.179541 0),22.331049,114.17954099999999
122,"THE GRAMPIAN,GRAMPIAN RD|THE GRAMPIAN,嘉林邊道",KKL,80930666.50801617,33969.0,2077,82083789.72594662,34453.0,2077,86114956.01672831,36145.0,2134,2.0,5.0,7.0,"['A', 'B']",83352639.97347017,34824.833333333336,2086.5,7,14,2016/06,4,blank,,False,,,POINT Z (22.328817 114.186251 0),22.328817,114.186251
123,"PARC INVERNESS(Block 2),INVERNESS RD|賢文禮士2座,延文禮士道",KKL,34295128.0,22652.0,833,31958386.0,23704.0,1286,37848486.0,25809.0,1514,2.0,6.0,9.0,"['A', 'B', 'C']",34830948.333333336,24246.66666666667,1364.7777777777776,9,27,2016/03,4,PARC INVERNESS,賢文禮士,True,4.0,149.0,POINT Z (22.3337311 114.186206 0),22.3337311,114.186206
124,"PARC INVERNESS(Block 3),INVERNESS RD|賢文禮士3座,延文禮士道",KKL,23862324.0,22343.0,883,22863338.0839308,23899.0,834,30103568.46769042,29721.0,1514,2.0,6.0,9.0,"['A', 'B', 'C']",28146732.169885274,25567.5,1083.6666666666667,9,27,2016/03,4,PARC INVERNESS,賢文禮士,True,4.0,149.0,POINT Z (22.3337311 114.186206 0),22.3337311,114.186206
125,"PARC INVERNESS(Block 1),INVERNESS RD|賢文禮士1座,延文禮士道",KKL,45357484.0,27720.0,538,46894792.0,28939.0,538,62414496.0,36801.0,1696,2.0,6.0,9.0,"['A', 'B', 'C', 'D', 'E']",,,1479.9333333333334,9,45,2016/03,4,PARC INVERNESS,賢文禮士,True,4.0,149.0,POINT Z (22.3337311 114.186206 0),22.3337311,114.186206
126,"PARC INVERNESS(Block 5),INVERNESS RD|賢文禮士5座,延文禮士道",KKL,21129994.07056424,20513.0,898,23399595.87601814,23024.0,886,47082144.0,29425.0,1733,2.0,6.0,8.0,"['A', 'B', 'C', 'D', 'E']",36512663.49611025,24846.05,1425.4,10,50,2016/03,4,PARC INVERNESS,賢文禮士,True,4.0,149.0,POINT Z (22.3337311 114.186206 0),22.3337311,114.186206
127,"LUNG CHEUNG COURT(Block 2),BROADCAST DR|龍翔苑2座,廣播道",KKL,,,803,,,803,,,809,0.0,0.0,1.0,"['1F', '2A', '2G']",,,805.0,2,6,1970/03,50,LUNG CHEUNG COURT,龍翔苑,True,2.0,15.0,POINT Z (22.3424117 114.1792838 0),22.3424117,114.1792838
128,"AYTON(Block 2),INVERNESS RD|雋睿2座,延文禮士道",KKL,,,265,,,265,,,616,2.0,4.0,6.0,"['A', 'B', 'C', 'D', 'E']",,,369.0,6,30,2019/09,1,AYTON,雋睿,True,2.0,33.0,POINT Z (22.3305552 114.1856898 0),22.3305552,114.1856898
129,"AYTON(Block 1),INVERNESS RD|雋睿1座,延文禮士道",KKL,21403578.0,32878.0,651,21668535.0,33285.0,651,21936096.0,33696.0,651,4.0,5.0,6.0,['D'],21669403.0,33286.333333333336,651.0,3,3,2019/09,1,AYTON,雋睿,True,2.0,33.0,POINT Z (22.329282 114.185216 0),22.329282,114.185216
