,final_address,district,lowZone_value,lowZone_npsf_min,lowZone_nfa_min,midZone_value,midZone_npsf_min,midZone_nfa_min,highZone_value,highZone_npsf_max,highZone_nfa_max,oneSixth_floor,middle_floor,fifthSixth_floor,unit_list,value_avg,npsf_avg,unitSize_avg,noStorey,noFlat,op_date,bldgAge,est_name_en,est_name_ch,est_orNot,est_bldgNo,est_flatNo,final_coords,lat,long
0,"MERRY COURT(Block 2),FESSENDEN RD|真能閣2座,范信達道",KKL,9500145.880772926,12243.0,670,9885024.7794794,12739.0,670,13349080.0,19924.0,670,1.0,4.0,7.0,"['A', 'B', 'C', 'D', 'E', 'F', 'G', 'H']",10631453.02068097,14149.873015873016,668.3333333333334,9,72,1975/08,46,MERRY COURT,真能閣,True,2.0,144.0,POINT Z (22.3425775 114.1824387 0),22.3425775,114.1824387
1,"BEVERLY VILLAS(Block 6),LA SALLE RD|碧華花園6座,喇沙利道",KKL,21627751.55314713,13260.0,1175,23012257.309966683,13764.0,1145,29959950.93538817,15397.0,1601,3.0,6.0,10.0,"['A', 'B', 'C', 'D']",26558602.678689126,14268.416666666666,1366.5,12,48,1980/12,41,BEVERLY VILLAS,碧華花園,True,10.0,480.0,POINT Z (22.3273631 114.1821601 0),22.327363100000003,114.1821601
2,"CLIFFORD MANSION,BROADCAST DR|嘉翠園,廣播道",KKL,10933650.0,15499.0,525,11247600.0,17353.0,525,14842820.0,21913.0,820,2.0,4.0,5.0,"['A', 'B', 'C', 'D', 'E', 'F', 'G', 'H']",12597355.625,19583.666666666668,655.0,6,48,1978/08,43,blank,,False,,,POINT Z (22.3428823 114.1827174 0),22.3428823,114.18271740000002
3,"HAPPY GARDEN(Block B),BROADCAST DR|雅樂園B座,廣播道",KKL,13728266.192143558,14634.0,600,10409698.623865109,12732.0,600,14425280.117301593,15377.0,1210,2.0,4.0,6.0,"['1', '2', '3', '34', '4']",13436121.853394762,14595.166666666666,815.0,7,35,1976/02,45,HAPPY GARDEN,雅樂園,True,1.0,35.0,POINT Z (22.3415555 114.1832515 0),22.3415555,114.18325149999998
4,"TANG COURT(Block D3),NGA TSIN WAI RD|怡德花園D3座,衙前圍道",KKL,,,1007,,,1007,,,1010,1.0,2.0,3.0,"['A', 'B']",,,1008.5,3,6,1987/01,34,TANG COURT,怡德花園,True,3.0,24.0,POINT Z (22.3296829 114.1833444 0),22.329682899999998,114.18334440000001
5,"CHERMAIN HEIGHTS(Block 2),EASTBOURNE RD|霞明閣2座,義本道",KKL,10722592.698218973,12182.0,730,11157411.348105706,12676.0,730,13070965.487485781,14850.0,790,3.0,6.0,10.0,"['C1', 'C2', 'C3', 'D1', 'D2', 'D3']",12141532.387566261,13739.32222222222,765.0,12,72,1969/04,52,CHERMAIN HEIGHTS,霞明閣,True,2.0,144.0,POINT Z (22.3436927 114.177446 0),22.3436927,114.177446
6,"JUMBO COURT,BROADCAST DR|珍寶閣,廣播道",KKL,13691320.632729651,7778.0,889,12827357.98044189,8083.0,889,14958709.531619512,8670.0,1020,2.0,5.0,8.0,"['A', 'B', 'C', 'D']",13783055.325000674,8194.666666666666,954.75,9,36,1976/06,45,blank,,False,,,POINT Z (22.3428295 114.1815331 0),22.3428295,114.1815331
7,"FABER GARDEN(Block C),MARCONI RD|百美花園C座,馬可尼道",KKL,5858528.182116242,9934.0,440,6013631.152913159,10197.0,440,6435298.925231773,10912.0,490,2.0,4.0,6.0,"['1', '2', '3']",6136003.268655974,10404.5,456.6666666666667,7,21,1977/03,44,FABER GARDEN,百美花園,True,3.0,63.0,POINT Z (22.3416917 114.1819743 0),22.3416917,114.18197430000001
8,"KWONG FAI COURT,FESSENDEN RD|光輝園,范信達道",KKL,5579706.214436171,4661.0,410,5664700.666533353,4732.0,410,13457187.848886343,15702.0,760,2.0,5.0,8.0,"['A', 'B', 'C', 'D', 'E', 'F', 'G', 'H']",10173931.842882901,11191.857142857143,662.5,9,72,1976/00,45,blank,,False,,,POINT Z (22.3416651 114.1828335 0),22.3416651,114.1828335
9,"ALICE COURT(Block B),BROADCAST DR|雅麗園B座,廣播道",KKL,9547792.480113273,12683.0,440,9943013.72524924,13208.0,440,10906350.0,16779.0,650,2.0,5.0,8.0,"['E', 'F', 'G']",10251752.58528536,14728.166666666666,580.0,9,27,1971/10,50,ALICE COURT,雅麗園,True,2.0,63.0,POINT Z (22.3426482 114.1813009 0),22.3426482,114.18130090000001
10,"BEVERLY VILLAS(Block 3),LA SALLE RD|碧華花園3座,喇沙利道",KKL,26347220.430612437,9536.0,1175,27380553.111091577,9910.0,1175,28753725.149054494,11162.0,1601,3.0,6.0,10.0,"['A', 'B', 'C', 'D']",26749629.828489836,10034.888888888889,1385.5,12,48,1981/01,40,BEVERLY VILLAS,碧華花園,True,10.0,480.0,POINT Z (22.32743 114.183488 0),22.32743,114.18348799999998
11,"NGA YUEN BLDG,SAU CHUK YUEN RD|雅園大廈,秀竹園道",KKL,,,726,,,1089,,,1089,1.0,3.0,6.0,['whole floor'],,,968.0,7,7,1963/12,58,blank,,False,,,POINT Z (22.3278851 114.1856201 0),22.327885100000003,114.1856201
12,"BOLAND COURT(Phase 1),BROADCAST DR|寶能閣1期,廣播道",KKL,6751402.318186707,9143.0,480,6964280.2073745765,9352.0,480,16449334.06327045,13109.0,1310,2.0,4.0,7.0,"['A', 'B', 'C', 'D', 'E', 'F', 'G', 'H']",8545650.25998124,11037.613095238097,610.4166666666666,10,80,1974/09,47,BOLAND COURT,寶能閣,True,2.0,160.0,POINT Z (22.3402406 114.1821438 0),22.3402406,114.1821438
13,"CHERMAIN HEIGHTS(Block 1),EASTBOURNE RD|霞明閣1座,義本道",KKL,12195380.0,16706.0,730,12720980.0,17426.0,730,14256080.0,18758.0,803,3.0,6.0,10.0,"['A1', 'A2', 'A3', 'B1', 'B2', 'B3']",13746490.555555554,18184.38888888889,767.1666666666666,12,72,1969/04,52,CHERMAIN HEIGHTS,霞明閣,True,2.0,144.0,POINT Z (22.3436927 114.177446 0),22.3436927,114.177446
14,"INVERNESS VILLA(Block A),INVERNESS RD|賢文別墅A座,延文禮士道",KKL,8741668.647470709,3312.0,535,8841965.570358356,3350.0,535,12858817.928310646,4539.0,650,1.0,2.0,4.0,"['1', '2', '3', '4']",9433100.606946139,3913.3333333333335,590.8333333333334,6,24,1977/00,44,INVERNESS VILLA,賢文別墅,True,2.0,48.0,POINT Z (22.3312363 114.1856636 0),22.3312363,114.1856636
15,"ROCKFORD MANSION,BROADCAST DR|嘉柏園,廣播道",KKL,10086825.0,15555.0,525,10365075.0,15591.0,525,14418890.0,20014.0,890,2.0,4.0,5.0,"['A', 'B', 'C', 'D', 'E', 'G']",12145606.622222222,17225.855555555554,705.6666666666666,6,36,1978/08,43,blank,,False,,,POINT Z (22.3430135 114.1824387 0),22.3430135,114.1824387
16,"KOWLOON TONG GARDEN,CAMBRIDGE RD|九龍塘花園,劍橋道",KKL,58765837.817421444,23064.0,1560,59930249.362797864,23521.0,1560,60281865.9782507,23659.0,2200,0.0,1.0,2.0,"['A', 'B', 'C', 'D', 'E', 'F', 'G', 'H']",59659317.71949,23414.666666666668,1836.25,3,24,1987/12,34,blank,,False,,,POINT Z (22.3305497 114.1790948 0),22.3305497,114.17909479999999
17,"BOUNDARY CREST,BOUNDARY ST|新利大廈,界限街",KKL,8488460.564249493,12575.0,560,9317979.288399486,14000.0,560,10321360.615684457,14744.0,620,3.0,6.0,8.0,"['A', 'B', 'C']",9528318.705257295,13871.77777777778,593.3333333333334,10,30,1978/02,43,blank,,False,,,POINT Z (22.3275147 114.1854808 0),22.3275147,114.1854808
18,"FABER GARDEN(Block B),MARCONI RD|百美花園B座,馬可尼道",KKL,7236839.759506813,12555.0,390,7365327.004877164,12489.0,390,7599991.62360889,16826.0,940,2.0,4.0,6.0,"['1', '2', '3']",7369854.196469404,14419.166666666666,490.0,7,21,1977/03,44,FABER GARDEN,百美花園,True,3.0,63.0,POINT Z (22.3416917 114.1819743 0),22.3416917,114.18197430000001
19,"PHOENIX COURT(Block H),FESSENDEN RD|碧麗閣H座,范信達道",KKL,8932560.0,15315.0,560,9341920.0,15904.0,560,10572100.0,19222.0,620,2.0,5.0,8.0,"['1', '2', '3']",9959213.333333334,16607.55555555556,601.1111111111112,9,27,1977/10,44,PHOENIX COURT,碧麗閣,True,6.0,209.0,POINT Z (22.3419421 114.1821833 0),22.3419421,114.18218329999999
20,"BEVERLY VILLAS(Block 2),LA SALLE RD|碧華花園2座,喇沙利道",KKL,21731431.13364395,10717.0,1175,23682129.72005484,11218.0,1145,32525113.14064279,17569.0,1601,3.0,6.0,10.0,"['A', 'B', 'C', 'D']",27433280.458948065,11836.611111111111,1358.1666666666667,12,48,1980/12,41,BEVERLY VILLAS,碧華花園,True,10.0,480.0,POINT Z (22.3277223 114.1825084 0),22.3277223,114.1825084
21,"BEVERLY VILLAS(Block 1),LA SALLE RD|碧華花園1座,喇沙利道",KKL,20322349.324377913,12869.0,1145,20682851.14377294,13359.0,1145,29291293.87907714,14636.0,1535,3.0,6.0,10.0,"['A', 'B', 'C', 'D']",24935728.942454014,13635.666666666666,1366.5,12,48,1980/12,41,BEVERLY VILLAS,碧華花園,True,10.0,480.0,POINT Z (22.32773 114.1821833 0),22.32773,114.18218329999999
22,"SHEFFIELD GARDEN(Block A),COLLEGE RD|勝豐園A座,書院道",KKL,,,1104,,,1104,21495984.0,19471.0,1300,4.0,8.0,10.0,"['1', '2']",21495984.0,19471.0,1202.0,10,20,1974/05,47,SHEFFIELD GARDEN,勝豐園,True,1.0,20.0,POINT Z (22.3276421 114.1838869 0),22.3276421,114.18388689999999
23,"EASTBOURNE COURT,EASTBOURNE RD|雅景樓,義本道",KKL,19199351.239139955,17139.0,936,25524697.88700748,22806.0,926,,,2200,11.0,35.0,67.0,"['A', 'B', 'C', 'D', 'E', 'F']",25231167.869936224,21825.0,1088.6666666666667,61,366,1965/12,56,blank,,False,,,POINT Z (22.343585 114.176736 0),22.343585,114.176736
24,"MARCONI COURT,MARCONI RD|馬可尼大廈,馬可尼道",KKL,10460710.0,15613.0,625,10395000.0,16059.0,625,12305960.0,18097.0,700,2.0,5.0,8.0,"['A', 'B', 'C', 'D', 'E', 'F', 'G', 'H']",11069787.5,16575.375,664.375,9,72,1975/04,46,blank,,False,,,POINT Z (22.3413275 114.1826245 0),22.3413275,114.18262450000002
25,"TWILIGHT COURT(Block B),MARCONI RD|翠麗苑B座,馬可尼道",KKL,7057348.510946602,11128.0,480,7320296.588589591,11552.0,480,8988026.00888883,13669.0,635,2.0,5.0,8.0,"['1', '2', '3', '4']",8002647.274730895,12423.333333333334,560.0,9,36,1975/06,46,TWILIGHT COURT,翠麗苑,True,2.0,68.0,POINT Z (22.3414406 114.1823226 0),22.341440600000002,114.1823226
26,"TWILIGHT COURT(Block A),MARCONI RD|翠麗苑A座,馬可尼道",KKL,,,440,,,440,,,640,2.0,4.0,7.0,"['1', '2', '3', '4']",,,583.75,8,32,1975/06,46,TWILIGHT COURT,翠麗苑,True,2.0,68.0,POINT Z (22.3414406 114.1823226 0),22.341440600000002,114.1823226
27,"BROADWAY TOWERS(Block B),BROADCAST DR|百樂園B座,廣播道",KKL,7701763.201729343,10081.0,430,8712660.0,13923.0,430,9111270.0,21189.0,780,3.0,6.0,10.0,"['1', '2', '3', '4']",8593031.091391752,16011.5,635.0,12,48,1973/05,48,BROADWAY TOWERS,百樂園,True,2.0,96.0,POINT Z (22.3404599 114.1821833 0),22.3404599,114.18218329999999
28,"PHOENIX COURT(Block B),BROADCAST DR|碧麗閣B座,廣播道",KKL,13722925.0,14929.0,762,14243725.0,15508.0,762,24136200.0,21117.0,1518,3.0,6.0,8.0,"['1', '2', '3', '4', '45', '5', '6']",15641040.809523812,18122.761904761905,880.2380952380953,8,56,1977/10,44,PHOENIX COURT,碧麗閣,True,6.0,209.0,POINT Z (22.3422627 114.1815331 0),22.3422627,114.1815331
29,"KENT COURT(Block 1),BOUNDARY ST|根德閣1座,界限街",KKL,21880933.13140871,12814.0,1274,23079654.45638521,13516.0,1274,,,1274,2.0,6.0,9.0,"['A', 'B']",22480293.79389696,13165.0,1274.0,12,24,1980/01,41,KENT COURT,根德閣,True,2.0,78.0,POINT Z (22.327471 114.1802327 0),22.327471,114.1802327
30,"COLLEGE CREST,COLLEGE RD|博文閣,書院道",KKL,12864150.86386198,9206.0,750,13222055.396637425,9121.0,750,16445043.120425953,14872.0,1650,2.0,5.0,8.0,"['A1', 'A1A2', 'A2', 'A3', 'B1', 'B2', 'B3']",14507372.737269511,12480.077777777778,924.2857142857142,9,63,1978/11,43,COLLEGE CREST,博文閣,True,1.0,63.0,POINT Z (22.3282072 114.1838553 0),22.328207199999998,114.1838553
31,"MANHATTAN COURT,ALNWICK RD|新餘村,安域道",KKL,12157156.352714244,10093.0,783,12481445.140092414,10362.0,783,16903982.785346717,14310.0,2392,2.0,4.0,6.0,"['2A', '2B', '2C', '2E', '3C', '3E', '3F', '4A', '4C', '4F', '5C', '5D', '5E', '5F', '6B', '6C', '6D', '6E', '6F', '7B', '7C', '7F', '8C', '8D', '8E', '8F']",14842840.213330686,11218.543859649124,1016.0,7,182,1975/07,46,blank,,False,,,POINT Z (22.3429874 114.1777711 0),22.3429874,114.17777109999999
32,"PHOENIX COURT(Block C),MARCONI RD|碧麗閣C座,馬可尼道",KKL,8539238.82145606,12289.0,516,8884059.368728798,12760.0,516,10210258.567198321,15416.0,650,2.0,5.0,8.0,"['1', '2', '3', '4']",9500059.211987056,13601.5,607.0833333333334,9,36,1977/10,44,PHOENIX COURT,碧麗閣,True,6.0,209.0,POINT Z (22.341863 114.1815795 0),22.341863,114.1815795
33,"WAH HING BLDG,BOUNDARY ST|華興大廈,界限街",KKL,16181263.5127627,8014.0,800,16591145.780430635,8217.0,800,16999008.9236273,8419.0,1170,4.0,6.0,8.0,"['A', 'B1 & B2', 'B1-2', 'B1-B2', 'B1B2']",16590472.738940211,8216.666666666666,1096.0,7,35,1966/10,55,blank,,False,,,POINT Z (22.3275417 114.185655 0),22.327541699999998,114.18565500000001
34,"BEVERLY VILLAS(Block 10),LA SALLE RD|碧華花園10座,喇沙利道",KKL,21518884.74862616,12551.0,1175,22109487.163152423,13068.0,1145,29226723.488322377,17049.0,1601,3.0,6.0,10.0,"['A', 'B', 'C', 'D']",25275683.72627152,15369.02777777778,1363.5,12,48,1980/12,41,BEVERLY VILLAS,碧華花園,True,10.0,480.0,POINT Z (22.3274194 114.1834605 0),22.3274194,114.1834605
35,"BOLAND COURT(Phase 2),BROADCAST DR|寶能閣2期,廣播道",KKL,8931060.0,18989.0,405,9114525.0,19370.0,405,9808330.0,23531.0,1210,2.0,4.0,7.0,"['A', 'B', 'C', 'D', 'E', 'F', 'G', 'H']",9399007.351190476,21257.32142857143,477.5,10,80,1975/10,46,BOLAND COURT,寶能閣,True,2.0,160.0,POINT Z (22.3407369 114.1815331 0),22.340736899999996,114.1815331
36,"BELMONT HEIGHTS,MARCONI RD|碧滿閣,馬可尼道",KKL,8758797.686709968,13194.0,540,8514889.7182832,13615.0,540,16214000.0,17999.0,1000,2.0,5.0,8.0,"['A', 'B', 'C', 'D', 'E', 'F']",11820573.584261784,15027.22222222222,715.0,9,54,1977/02,44,blank,,False,,,POINT Z (22.34094 114.181975 0),22.34094,114.181975
37,"SAU CHUK YUEN,SAU CHUK YUEN RD|秀竹苑,秀竹園道",KKL,,,1066,,,1066,,,1109,2.0,5.0,8.0,"['A', 'B', 'C']",,,1094.6666666666667,9,27,1983/10,38,blank,,False,,,POINT Z (22.3278793 114.1845519 0),22.3278793,114.1845519
38,"PHOENIX COURT(Block E),FESSENDEN RD|碧麗閣E座,范信達道",KKL,8233804.894270016,11198.0,600,8537473.789433828,11631.0,600,9502543.266787376,12743.0,680,2.0,5.0,8.0,"['1', '2', '3']",8768054.582198404,12000.222222222224,631.6666666666666,9,27,1977/10,44,PHOENIX COURT,碧麗閣,True,6.0,209.0,POINT Z (22.3421605 114.1819046 0),22.342160500000002,114.18190459999998
39,"AVA COURT,BROADCAST DR|雅華閣,廣播道",KKL,11149860.161238933,12421.0,730,11600487.660931105,12602.0,730,18237780.0,18422.0,990,2.0,5.0,8.0,"['A', 'B', 'C', 'D', 'E', 'F']",13695597.83935682,13536.488888888887,879.1666666666666,9,54,1973/09,48,blank,,False,,,POINT Z (22.3425327 114.1832747 0),22.3425327,114.1832747
40,"LILAC COURT,BOUNDARY ST|昌蔚苑,界限街",KKL,,,846,,,846,,,1003,3.0,6.0,10.0,"['A', 'B', 'C', 'D']",,,924.5,12,48,1978/04,43,blank,,False,,,POINT Z (22.3275605 114.1852602 0),22.3275605,114.1852602
41,"BEVERLY VILLAS(Block 8),LA SALLE RD|碧華花園8座,喇沙利道",KKL,20403539.805332143,12556.0,1145,21531862.985345233,13011.0,1175,29027157.755252335,14368.0,1601,3.0,6.0,10.0,"['A', 'B', 'C', 'D']",24673412.874877866,13465.75,1372.0,12,48,1980/12,41,BEVERLY VILLAS,碧華花園,True,10.0,480.0,POINT Z (22.3274348 114.1828103 0),22.3274348,114.18281029999999
42,"WELCOME GARDEN,BROADCAST DR|偉錦園,廣播道",KKL,13024040.0,19153.0,680,16464159.999999998,23717.0,680,,,1395,10.0,29.0,58.0,"['A', 'A & D', 'B', 'C', 'D', 'E', 'F', 'G', 'H']",15157131.604166668,21876.708333333336,797.1481481481482,51,459,1971/11,50,blank,,False,,,POINT Z (22.3424538 114.1807442 0),22.3424538,114.1807442
43,"TANG COURT(Block D1),NGA TSIN WAI RD|怡德花園D1座,衙前圍道",KKL,18860228.0,18649.0,1009,18860228.0,18649.0,1009,20123175.0,19372.0,1065,2.0,2.0,3.0,"['A', 'B', 'whole floor']",19366410.555555556,18834.555555555555,1028.3333333333333,4,12,1987/01,34,TANG COURT,怡德花園,True,3.0,24.0,POINT Z (22.3296829 114.1833444 0),22.329682899999998,114.18334440000001
44,"KENT COURT(Block 5),BOUNDARY ST|根德閣5座,界限街",KKL,15668938.999999998,18031.0,869,16272025.000000002,18725.0,869,16870766.0,19414.0,1026,2.0,5.0,8.0,"['A', 'B', 'C', 'D', 'E', 'F']",16270576.666666666,18723.333333333332,921.3333333333334,9,54,1980/01,41,KENT COURT,根德閣,True,2.0,78.0,POINT Z (22.3274287 114.1808075 0),22.3274287,114.1808075
45,"AVON COURT,FESSENDEN RD|雅芳園,范信達道",KKL,12480829.92868906,12302.0,585,12962383.63891993,13414.0,585,14642370.0,18077.0,910,2.0,5.0,8.0,"['A', 'B', 'C', 'D', 'E', 'F', 'G', 'H']",13413256.232640488,14278.055555555555,787.5,9,72,1974/01,47,blank,,False,,,POINT Z (22.3421153 114.1830193 0),22.342115300000003,114.1830193
46,"LOCKOO GARDENS,CORNWALL ST|樂古花園,歌和老街",KKL,,,1155,25309296.807160277,18758.0,1155,,,1205,2.0,4.0,6.0,"['A', 'B', 'C', 'D']",25309296.807160277,18758.0,1170.0,7,28,1988/02,33,blank,,False,,,POINT Z (22.3405074 114.1767726 0),22.3405074,114.1767726
47,"JADE COURT(Block A),BROADCAST DR|金翠苑A座,廣播道",KKL,4638869.309617375,4181.0,380,4643307.35727068,2338.0,380,10363699.959230999,9099.0,740,1.0,2.0,4.0,"['1', '2', '3']",6888396.91674113,5496.777777777777,593.3333333333334,6,18,1977/05,44,JADE COURT,金翠苑,True,2.0,68.0,POINT Z (22.34269 114.182114 0),22.34269,114.18211399999998
48,"BEVERLEY HEIGHTS(Block B),BEACON HILL RD|碧華閣B座,筆架山道",KKL,,,949,,,949,,,1084,16.0,52.0,80.0,"['1', '2', '3']",,,1039.0,76,228,1970/03,51,BEVERLEY HEIGHTS,碧華閣,True,1.0,228.0,POINT Z (22.344213 114.176952 0),22.344213,114.176952
49,"PEARL COURT,RHONDDA RD|麗景樓,朗德道",KKL,19844287.45438214,12945.0,1160,20427350.263616577,13418.0,1160,29797018.121013626,15762.0,1850,3.0,6.0,9.0,"['A', 'B', 'C', 'D']",26001289.47615707,14030.888888888889,1505.0,11,44,1966/10,55,blank,,False,,,POINT Z (22.3441275 114.178282 0),22.3441275,114.17828200000001
50,"KALAM COURT,GRAMPIAN RD|嘉林閣,嘉林邊道",KKL,17645409.634557534,14792.0,1030,17898304.90514476,15004.0,1030,20152890.100474246,16894.0,1105,2.0,4.0,5.0,"['A', 'B', 'D', 'E', 'F']",18948070.826153133,15664.733333333332,1045.0,6,30,1965/01,56,blank,,False,,,POINT Z (22.3283747 114.1862471 0),22.3283747,114.18624709999999
51,"WESTLAND HEIGHTS,BROADCAST DR|慧園,廣播道",KKL,8993291.646511586,8225.0,640,9240341.245347463,8496.0,640,14801666.517187353,11069.0,980,2.0,4.0,6.0,"['A', 'B', 'C', 'D', 'E']",12584722.59987697,9273.333333333334,837.0,7,35,1976/11,45,blank,,False,,,POINT Z (22.3430108 114.1817653 0),22.343010800000002,114.1817653
52,"EVERGREEN MANSION,CORNWALL ST|翠亨園,歌和老街",KKL,25064523.0,23878.0,1023,25064523.0,23878.0,1023,28822560.0,24692.0,1192,2.0,2.0,3.0,"['A', 'B', 'C', 'D', 'E']",26803698.866666663,24306.333333333332,1103.2,4,20,1966/09,55,blank,,False,,,POINT Z (22.3404908 114.1756347 0),22.3404908,114.1756347
53,"FESSENDEN COURT,FESSENDEN RD|信達閣,范信達道",KKL,9209280.0,14310.0,480,9641760.0,14886.0,480,14905390.0,20882.0,965,1.0,4.0,7.0,"['A', 'B', 'B2', 'C', 'D', 'E', 'F', 'G']",10729348.375,17018.75,642.375,9,72,1976/03,45,blank,,False,,,POINT Z (22.3418472 114.1825084 0),22.341847199999997,114.1825084
54,"MERRY COURT(Block 1),FESSENDEN RD|真能閣1座,范信達道",KKL,8328894.257231609,12781.0,537,8752428.978645492,12983.0,537,9186644.228477381,15010.0,637,1.0,4.0,7.0,"['A', 'B', 'C', 'D', 'E', 'F', 'G', 'H']",8885504.10586161,13735.944444444443,568.0416666666666,9,72,1974/05,47,MERRY COURT,真能閣,True,2.0,144.0,POINT Z (22.3425775 114.1824387 0),22.3425775,114.1824387
55,"MOONBEAM TERR(Block B),ALNWICK RD|映月臺B座,安域道",KKL,18091161.29119616,13947.0,1120,18167692.338459413,14006.0,1120,18818854.808394197,14508.0,1120,3.0,4.0,6.0,"['1', '2']",18359236.146016587,14153.666666666666,1120.0,6,12,1968/02,53,MOONBEAM TERR,映月臺,True,1.0,12.0,POINT Z (22.3425943 114.1783285 0),22.3425943,114.17832849999999
56,"MARPLE COURT,BROADCAST DR|萬寶閣,廣播道",KKL,9917615.331385996,11986.0,666,9530408.536114765,12282.0,670,14248313.65208027,13896.0,905,2.0,5.0,8.0,"['A', 'B', 'C', 'D', 'E', 'F']",11713868.899025125,12903.0,784.7222222222223,9,54,1972/04,49,blank,,False,,,POINT Z (22.3425614 114.1810222 0),22.342561399999997,114.1810222
57,"PHOENIX COURT(Block F),FESSENDEN RD|碧麗閣F座,范信達道",KKL,9053595.095462816,14169.0,460,10247609.146408975,14747.0,600,12116412.08018596,18072.0,680,2.0,5.0,8.0,"['1', '2', '3']",10627868.611385109,15951.444444444443,607.2222222222222,9,27,1977/10,44,PHOENIX COURT,碧麗閣,True,6.0,209.0,POINT Z (22.3422766 114.1819975 0),22.3422766,114.18199750000001
58,"COMFORT COURT,MARCONI RD|康樂閣,馬可尼道",KKL,16134755.324504644,10860.0,1050,16803591.277811665,11268.0,1050,20585554.577420454,17603.0,1150,3.0,6.0,8.0,"['A', 'B', 'C', 'D']",17906467.574660316,14205.75,1100.0,10,40,1977/00,44,blank,,False,,,POINT Z (22.3409174 114.1823226 0),22.3409174,114.1823226
59,"CARLTON COURT,MARCONI RD|康泰閣,馬可尼道",KKL,,,721,,,721,,,938,2.0,4.0,5.0,"['A', 'B', 'C', 'D', 'E', 'F']",,,838.8333333333334,6,36,1977/00,44,blank,,False,,,POINT Z (22.3411435 114.1817189 0),22.3411435,114.1817189
60,"BROADWAY TOWERS(Block A),BROADCAST DR|百樂園A座,廣播道",KKL,10516533.316725666,13160.0,430,10947263.670655388,13699.0,430,11530627.6008385,14429.0,760,3.0,6.0,10.0,"['1', '2', '3', '4']",10998141.529406518,13762.666666666666,660.0,12,48,1973/05,48,BROADWAY TOWERS,百樂園,True,2.0,96.0,POINT Z (22.340392 114.182083 0),22.340392,114.182083
61,"EASTLAND HEIGHTS,BROADCAST DR|柏園,廣播道",KKL,11372793.897432992,11831.0,830,11666942.737988694,12135.0,830,15291998.8601879,13073.0,1060,2.0,4.0,5.0,"['A', 'B', 'C', 'D', 'E', 'F', 'G', 'H']",13294664.572757721,12376.166666666666,926.25,6,48,1976/11,45,blank,,False,,,POINT Z (22.3432612 114.1819743 0),22.3432612,114.18197430000001
62,"ALICE COURT(Block A),BROADCAST DR|雅麗園A座,廣播道",KKL,12195120.0,18352.0,540,12698980.0,19127.0,540,15496260.0,21606.0,780,2.0,5.0,8.0,"['A', 'B', 'C', 'D']",14148595.555555554,19817.666666666668,672.5,9,36,1971/10,50,ALICE COURT,雅麗園,True,2.0,63.0,POINT Z (22.3428881 114.1811615 0),22.342888100000003,114.1811615
63,"FAIRYLAND GARDEN,BROADCAST DR|翠華園,廣播道",KKL,17362054.406551402,9054.0,1100,18062535.28081528,9443.0,1100,19844680.117560357,10087.0,1140,3.0,6.0,9.0,"['A', 'B', 'C', 'D']",18449168.85460675,9544.583333333334,1120.0,11,44,1973/07,48,blank,,False,,,POINT Z (22.3405029 114.181769 0),22.340502899999997,114.18176899999999
64,"INVERNESS VILLA(Block B),INVERNESS RD|賢文別墅B座,延文禮士道",KKL,9506897.938968215,15488.0,530,9589764.107728591,15623.0,530,12538676.302827932,18044.0,600,1.0,2.0,4.0,"['1', '2', '3', '4']",11046268.76410725,16831.583333333332,565.0,6,24,1977/01,44,INVERNESS VILLA,賢文別墅,True,2.0,48.0,POINT Z (22.3312363 114.1856636 0),22.3312363,114.1856636
65,"VIOLET COURT,CORNWALL ST|紫蘭別墅,歌和老街",KKL,14130554.94684355,2828.0,1005,14290448.07212608,2860.0,1005,14700174.205662562,2942.0,1025,3.0,4.0,6.0,"['1', '2', '3', '4']",14534087.044769093,2898.8333333333335,1015.0,6,24,1964/07,57,blank,,False,,,POINT Z (22.340687 114.177616 0),22.340687,114.17761599999999
66,"PHOENIX COURT(Block D),MARCONI RD|碧麗閣D座,馬可尼道",KKL,9681100.0,12540.0,480,8166236.750472261,6760.0,670,10978638.157192336,16088.0,700,2.0,5.0,8.0,"['1', '2', '3', '4']",9956328.233836861,12863.22222222222,663.3333333333334,9,36,1978/00,43,PHOENIX COURT,碧麗閣,True,6.0,209.0,POINT Z (22.3420154 114.1817189 0),22.342015399999998,114.1817189
67,"BEVERLY VILLAS(Block 7),LA SALLE RD|碧華花園7座,喇沙利道",KKL,23045275.0,11557.0,1175,21075728.630810555,11895.0,1145,28278249.78921529,14279.0,1601,3.0,6.0,10.0,"['A', 'B', 'C', 'D']",24775309.032536473,13497.0,1372.0,12,48,1980/12,41,BEVERLY VILLAS,碧華花園,True,10.0,480.0,POINT Z (22.3273808 114.182462 0),22.3273808,114.18246200000002
68,"BEVERLY VILLAS(Block 5),LA SALLE RD|碧華花園5座,喇沙利道",KKL,22851188.59525132,16821.0,1145,23787408.369406816,17500.0,1145,36023594.78140075,19428.0,1601,3.0,6.0,10.0,"['A', 'B', 'C', 'D']",28935383.979069322,18094.75,1380.5,12,48,1980/12,41,BEVERLY VILLAS,碧華花園,True,10.0,480.0,POINT Z (22.32743 114.183488 0),22.32743,114.18348799999998
69,"BEVERLY VILLAS(Block 4),LA SALLE RD|碧華花園4座,喇沙利道",KKL,21150098.448311377,15542.0,1175,21963877.812105626,16140.0,1145,37432523.09326693,17444.0,1601,3.0,6.0,10.0,"['A', 'B', 'C', 'D']",28690129.618509952,16449.0,1374.5,12,48,1980/12,41,BEVERLY VILLAS,碧華花園,True,10.0,480.0,POINT Z (22.3277504 114.1831586 0),22.3277504,114.18315859999998
70,"JOY GARDEN(Block 2),ALNWICK RD|天樂園2座,安域道",KKL,12857702.36637417,13706.0,810,13262026.72942008,14137.0,810,15204847.508696377,16208.0,810,2.0,4.0,6.0,"['A', 'B', 'C', 'D']",14210088.663960965,15147.611111111111,810.0,7,28,1975/09,46,JOY GARDEN,天樂園,True,2.0,56.0,POINT Z (22.3432853 114.1778176 0),22.3432853,114.1778176
71,"TANG COURT(Block D2),NGA TSIN WAI RD|怡德花園D2座,衙前圍道",KKL,,,1007,19578835.551726036,6659.0,1007,,,1010,1.0,2.0,3.0,"['A', 'B']",19578835.551726036,6659.0,1008.5,3,6,1987/01,34,TANG COURT,怡德花園,True,3.0,24.0,POINT Z (22.3296829 114.1833444 0),22.329682899999998,114.18334440000001
72,"BEVERLY VILLAS(Block 9),LA SALLE RD|碧華花園9座,喇沙利道",KKL,19955007.31089496,14515.0,1145,20750661.509893958,15191.0,1145,30078997.042612877,16531.0,1601,3.0,6.0,10.0,"['A', 'B', 'C', 'D']",24665146.112239014,15548.25,1372.0,12,48,1980/12,41,BEVERLY VILLAS,碧華花園,True,10.0,480.0,POINT Z (22.32743 114.183488 0),22.32743,114.18348799999998
73,"DRAGON COURT(Block C),EASTBOURNE RD|龍圃別墅C座,義本道",KKL,13814711.06756319,17722.0,636,13814711.06756319,17722.0,636,16386406.733942337,23221.0,787,2.0,2.0,3.0,"['1', '2', '3', '4']",14981455.237084933,19899.583333333332,679.75,4,16,1968/02,53,DRAGON COURT,龍圃別墅,True,4.0,44.0,POINT Z (22.3431232 114.1767726 0),22.343123199999997,114.1767726
74,"FUNG WAH COURT,SAU CHUK YUEN RD|鳳華閣,秀竹園道",KKL,16306291.50650989,4693.0,1061,15419620.431382643,4442.0,1060,19175503.618162394,18019.0,1061,2.0,6.0,8.0,"['A', 'B', 'C', 'D']",17715195.71518972,10978.583333333334,1060.8333333333333,8,32,1972/03,49,blank,,False,,,POINT Z (22.3278353 114.1848306 0),22.3278353,114.18483059999998
75,"JOY GARDEN(Block 1),ALNWICK RD|天樂園1座,安域道",KKL,12116610.634827932,8668.0,810,11234563.875416717,8037.0,810,12836506.167469416,9183.0,810,2.0,4.0,6.0,"['A', 'B', 'C', 'D']",11930540.548936993,8534.88888888889,810.0,7,28,1975/09,46,JOY GARDEN,天樂園,True,2.0,56.0,POINT Z (22.3434411 114.178073 0),22.343441100000003,114.178073
76,"HAMBURG VILLA,EASTBOURNE RD|涵碧別墅,義本道",KKL,18759806.14851652,17780.0,845,18759806.14851652,17780.0,845,30165668.916901506,21089.0,1239,2.0,2.0,3.0,"['1', '3A', '3B', '4A', '4B', '5', '6A', '6B']",22608923.72140768,19541.85714285714,981.0,4,32,1970/06,51,blank,,False,,,POINT Z (22.343141 114.1770745 0),22.343141,114.17707450000002
77,"JADE COURT,BROADCAST DR|金翠苑,廣播道",KKL,5102469.417105763,4557.0,335,5169390.645754108,4616.0,335,12790160.0,17992.0,740,1.0,2.0,3.0,"['A3', 'B1', 'B2', 'B3', 'C1', 'C2', 'C3', 'D1', 'D2', 'D3']",9960463.324828789,13169.37037037037,567.1,5,50,1977/05,44,JADE COURT,金翠苑,True,2.0,68.0,POINT Z (22.34269 114.182114 0),22.34269,114.18211399999998
78,"LUSO APTS(Block D),WARWICK RD|和域臺D座,和域道",KKL,21466248.68531871,3329.0,1285,21977349.84449296,3414.0,1285,23491760.477610454,3515.0,1350,4.0,6.0,8.0,"['2', '85', '95']",22350956.39502961,3411.555555555555,1317.6666666666667,7,21,1965/03,56,LUSO APTS,和域臺,True,1.0,21.0,POINT Z (22.3422505 114.1773299 0),22.342250500000002,114.17732990000002
79,"HILLSEA COURT,CORNWALL ST|匯山園,歌和老街",KKL,22440419.94264575,10495.0,1239,22440419.94264575,10495.0,1239,23911157.569064308,15974.0,1289,2.0,2.0,3.0,"['A', 'B', 'C', 'D']",22851097.21826901,13717.333333333334,1254.5833333333333,4,16,1963/11,58,blank,,False,,,POINT Z (22.3404827 114.1762385 0),22.3404827,114.1762385
80,"FABER GARDEN(Block A),MARCONI RD|百美花園A座,馬可尼道",KKL,7805379.273755154,15317.0,440,8187520.0,14969.0,440,8502497.433087729,19124.0,490,2.0,4.0,6.0,"['1', '2', '3']",8224988.496352215,17081.666666666668,456.6666666666667,7,21,1977/03,44,FABER GARDEN,百美花園,True,3.0,63.0,POINT Z (22.3416917 114.1819743 0),22.3416917,114.18197430000001
81,"VISTA PANORAMA,RHONDDA RD|蟠龍閣,朗德道",KKL,,,1626,,,1626,,,1626,3.0,6.0,10.0,"['A1', 'A2', 'B1', 'B2']",,,1626.0,12,48,1966/07,55,VISTA PANORAMA,蟠龍閣,True,1.0,48.0,POINT Z (22.3440179 114.1787 0),22.344017899999997,114.1787
82,"ALBION GARDEN,LA SALLE RD|愛賓花園,喇沙利道",KKL,33906069.67408532,8457.0,1470,34774777.66287383,8548.0,1470,51649823.40307561,15959.0,1850,2.0,4.0,5.0,"['B', 'C', 'D', 'E', 'F', 'G', 'H']",40914548.7995572,10349.733333333334,1653.5714285714287,6,42,1981/10,40,blank,,False,,,POINT Z (22.329751 114.181702 0),22.329751,114.181702
83,"CRYSTAL MANSION,EASTBOURNE RD|晶苑,義本道",KKL,15771260.442775972,10385.0,880,16403022.055120198,10801.0,880,31319578.29011413,17909.0,1510,3.0,6.0,10.0,"['A', 'B', 'C']",24019277.460523646,14814.333333333334,1244.4444444444443,12,36,1971/01,50,blank,,False,,,POINT Z (22.343636 114.1764243 0),22.343636,114.17642430000001
84,"DEVON COURT,CORNWALL ST|達運閣,歌和老街",KKL,,,1245,,,1245,,,1300,2.0,4.0,6.0,"['A', 'B', 'C', 'D']",,,1272.5,7,28,1975/03,46,blank,,False,,,POINT Z (22.3405421 114.1753096 0),22.3405421,114.17530959999999
85,"MERLIN COURT,BROADCAST DR|美輪閣,廣播道",KKL,9453580.0,15256.0,470,11456760.0,15874.0,690,15187392.0,17664.0,918,1.0,4.0,7.0,"['A', 'B', 'C', 'D', 'E', 'F']",12852526.888888888,16848.0,770.2222222222222,9,54,1975/03,46,blank,,False,,,POINT Z (22.3426639 114.1829961 0),22.342663899999998,114.18299609999998
86,"PENINSULA HEIGHTS(Block B),BROADCAST DR|星輝豪庭B座,廣播道",KKL,16860714.0,15244.0,1101,18325044.0,16559.0,1101,21441789.0,18470.0,1248,2.0,8.0,14.0,"['1', '2', '3', '5', '6', '7']",19187107.966666665,16795.7,1166.6666666666667,15,90,2000/06,21,PENINSULA HEIGHTS,星輝豪庭,True,2.0,180.0,POINT Z (22.3433467 114.183089 0),22.3433467,114.183089
87,"PENINSULA HEIGHTS(Block A),BROADCAST DR|星輝豪庭A座,廣播道",KKL,23735358.0,20857.0,1101,25721562.0,22628.0,1101,30582240.0,25252.0,1248,2.0,8.0,14.0,"['1', '2', '3', '5', '6', '7']",26911503.944444444,23083.55555555556,1166.6666666666667,15,90,2000/03,21,PENINSULA HEIGHTS,星輝豪庭,True,2.0,180.0,POINT Z (22.3434779 114.1828103 0),22.343477899999996,114.18281029999999
88,"DRAGON COURT(Block D),EASTBOURNE RD|龍圃別墅D座,義本道",KKL,22976218.645771172,18134.0,937,22976218.645771172,18134.0,937,24378934.993614007,20862.0,1094,2.0,2.0,3.0,"['1', '2', '3']",23420886.266994566,19270.0,1013.3333333333334,4,12,1968/02,53,DRAGON COURT,龍圃別墅,True,4.0,44.0,POINT Z (22.3431232 114.1767726 0),22.343123199999997,114.1767726
89,"THE BLOOMSVILLE,NGA TSIN WAI RD|陶源,衙前圍道",KKL,14265965.1304601,16229.0,710,16496583.414590044,18053.0,711,20738675.7379792,22753.0,789,10.0,19.0,28.0,"['A', 'B', 'C']",17490663.77205969,19269.5,758.888888888889,25,75,2002/05,19,blank,,False,,,POINT Z (22.328713 114.1858988 0),22.328713,114.18589879999999
90,"THE PALACE,BROADCAST DR|嘉皇臺,廣播道",KKL,20156470.0,26019.0,691,23671587.0,27827.0,691,53821720.0,38591.0,1790,13.0,26.0,37.0,"['A', 'B', 'C', 'D']",34714180.44444445,30153.222222222223,1177.6666666666667,32,128,2002/09,19,blank,,False,,,POINT Z (22.3420412 114.1835975 0),22.342041199999997,114.1835975
91,"ONE BEACON HILL(Block 15),BEACON HILL RD|畢架山一號15座,筆架山道",KKL,57427758.73414801,22067.0,1502,,,1502,54909943.134757064,12471.0,1508,3.0,7.0,10.0,"['A', 'B']",56168850.93445253,17269.0,1505.0,11,22,2004/02,17,ONE BEACON HILL,畢架山一號,True,12.0,494.0,POINT Z (22.3408868 114.174717 0),22.340886800000003,114.17471699999999
92,"ONE BEACON HILL(Block 12),BEACON HILL RD|畢架山一號12座,筆架山道",KKL,24877460.33589988,18108.0,1025,26243055.40845811,19102.0,1025,31985417.202059243,20860.0,1144,3.0,7.0,10.0,"['A', 'B', 'C', 'D']",28828666.519949216,19490.083333333332,1102.75,11,44,2004/02,17,ONE BEACON HILL,畢架山一號,True,12.0,494.0,POINT Z (22.3408868 114.174717 0),22.340886800000003,114.17471699999999
93,"ONE BEACON HILL(Block 8),BEACON HILL RD|畢架山一號8座,筆架山道",KKL,27622895.91764259,22714.0,1025,27358170.068244927,22698.0,1025,30222078.1358483,23903.0,1165,3.0,7.0,10.0,"['A', 'B', 'C', 'D']",29723863.167190105,23691.94444444444,1109.5,11,44,2004/02,17,ONE BEACON HILL,畢架山一號,True,12.0,494.0,POINT Z (22.3408868 114.174717 0),22.340886800000003,114.17471699999999
94,"ONE BEACON HILL(Block 6),BEACON HILL RD|畢架山一號6座,筆架山道",KKL,29925925.321694337,20316.0,1060,28539916.915005058,20141.0,1060,33955964.79325993,26140.0,1106,3.0,8.0,11.0,"['A', 'B', 'C', 'D', 'E']",30978267.196823653,22369.13333333333,1086.8,12,60,2003/09,18,ONE BEACON HILL,畢架山一號,True,12.0,494.0,POINT Z (22.3408868 114.174717 0),22.340886800000003,114.17471699999999
95,"ONE BEACON HILL(Block 7),BEACON HILL RD|畢架山一號7座,筆架山道",KKL,32187124.78223725,20403.0,1177,33545411.036097284,21264.0,1177,38541896.68979292,24023.0,1197,3.0,8.0,11.0,"['A', 'B', 'C']",34897367.656680815,21991.0,1183.6666666666667,12,36,2003/09,18,ONE BEACON HILL,畢架山一號,True,12.0,494.0,POINT Z (22.3408868 114.174717 0),22.340886800000003,114.17471699999999
96,"ONE BEACON HILL(Block 1),BEACON HILL RD|畢架山一號1座,筆架山道",KKL,30842725.47210736,24255.0,1064,31630152.12026256,24758.0,1064,35275559.38596222,27262.0,1162,1.0,3.0,6.0,"['A', 'B', 'C', 'D', 'E', 'F']",33050713.98933929,25567.166666666668,1182.0555555555557,7,42,2003/09,18,ONE BEACON HILL,畢架山一號,True,12.0,494.0,POINT Z (22.3408868 114.174717 0),22.340886800000003,114.17471699999999
97,"ONE BEACON HILL(Block 17),BEACON HILL RD|畢架山一號17座,筆架山道",KKL,54049898.10201036,20852.0,1502,57474026.02224611,22173.0,1502,58455717.43718824,22462.0,1508,2.0,6.0,8.0,"['A', 'B']",56659880.520481564,21829.0,1505.0,8,16,2004/02,17,ONE BEACON HILL,畢架山一號,True,12.0,494.0,POINT Z (22.3408868 114.174717 0),22.340886800000003,114.17471699999999
98,"ONE BEACON HILL(Block 19),BEACON HILL RD|畢架山一號19座,筆架山道",KKL,58699808.08876074,13385.0,1502,64734244.84110551,14761.0,1502,65760449.928350195,14995.0,2298,2.0,6.0,9.0,"['A', 'B']",63064834.28607216,14380.333333333334,1635.0,9,18,2003/09,18,ONE BEACON HILL,畢架山一號,True,12.0,494.0,POINT Z (22.3408868 114.174717 0),22.340886800000003,114.17471699999999
99,"DRAGON COURT(Block B),EASTBOURNE RD|龍圃別墅B座,義本道",KKL,16341382.203170452,18084.0,726,16341382.203170452,18084.0,726,16770201.597233582,19945.0,785,2.0,2.0,3.0,"['1', '2']",16498791.24882783,18884.166666666668,755.5,4,8,1968/02,53,DRAGON COURT,龍圃別墅,True,4.0,44.0,POINT Z (22.3433134 114.176629 0),22.3433134,114.176629
100,"ONE BEACON HILL(Block 5),BEACON HILL RD|畢架山一號5座,筆架山道",KKL,28156800.0,14015.0,1050,30127650.0,14951.0,1050,61924816.609216146,32476.0,2311,3.0,8.0,11.0,"['A', 'B', 'B & C', 'C', 'D', 'E', 'F']",36194099.07108924,27017.857142857145,1284.5714285714287,12,84,2004/02,17,ONE BEACON HILL,畢架山一號,True,12.0,494.0,POINT Z (22.3408868 114.174717 0),22.340886800000003,114.17471699999999
101,"ONE BEACON HILL(Block 10),BEACON HILL RD|畢架山一號10座,筆架山道",KKL,29174575.0,28463.0,1025,28633375.0,27935.0,1025,40315912.0,36617.0,1138,3.0,8.0,11.0,"['A', 'B', 'C', 'D']",34412453.22222222,31608.77777777778,1101.1666666666667,12,48,2004/02,17,ONE BEACON HILL,畢架山一號,True,12.0,494.0,POINT Z (22.3408868 114.174717 0),22.340886800000003,114.17471699999999
102,"YEE YUEN,DUMBARTON RD|怡苑,東寶庭道",KKL,19553261.302123863,5974.0,1121,19828198.35424613,6058.0,1121,19828198.35424613,6058.0,1121,1.0,2.0,2.0,['whole floor'],19736552.670205373,6030.0,1121.0,4,4,1962/05,59,blank,,False,,,POINT Z (22.3319727 114.185878 0),22.331972699999998,114.185878
103,"ONE BEACON HILL(Block 18),BEACON HILL RD|畢架山一號18座,筆架山道",KKL,48285527.034506395,27647.0,1507,50278285.24864796,28788.0,1507,51944447.681856595,29742.0,1508,3.0,6.0,9.0,"['A', 'B']",50169419.98833698,28725.666666666668,1507.5,10,20,2004/02,17,ONE BEACON HILL,畢架山一號,True,12.0,494.0,POINT Z (22.3408868 114.174717 0),22.340886800000003,114.17471699999999
104,"ONE BEACON HILL(Block 11),BEACON HILL RD|畢架山一號11座,筆架山道",KKL,30041725.0,29309.0,1025,34887925.0,31387.0,1025,39230274.0,35005.0,2128,3.0,8.0,11.0,"['A', 'B', 'C', 'C & D', 'D']",35532325.166666664,32246.833333333332,1306.6,12,60,2004/02,17,ONE BEACON HILL,畢架山一號,True,12.0,494.0,POINT Z (22.3408868 114.174717 0),22.340886800000003,114.17471699999999
105,15 GRAMPIAN RD|15 嘉林邊道,KKL,9381057.178201934,10680.0,634,9160875.224215768,11059.0,610,12274129.619801944,13142.0,836,2.0,3.0,4.0,"['A', 'B', 'C']",10395911.722026763,11758.555555555555,696.0,5,15,1966/07,55,blank,,False,,,POINT Z (22.329014 114.1865434 0),22.329014,114.18654340000002
106,16 HEREFORD RD|16 禧福道,KKL,,,3742,,,3742,,,3742,6.0,12.0,20.0,['D'],,,3742.0,19,19,1988/07,33,blank,,False,,,POINT Z (22.3340127 114.18051 0),22.3340127,114.18051000000001
107,19 GRAMPIAN RD|19 嘉林邊道,KKL,16251237.0,14523.0,1119,16528749.000000002,14771.0,1119,17103915.0,15285.0,1119,1.0,2.0,3.0,"['B', 'C', 'D']",16653828.333333334,14882.77777777778,1119.0,3,9,1963/05,58,blank,,False,,,POINT Z (22.329014 114.1865434 0),22.329014,114.18654340000002
108,"CAMBRIDGE GARDEN,LANCASHIRE RD|劍穚花園,蘭開夏道",KKL,,,4517,,,4517,,,4568,2.0,6.0,10.0,"['2', '4']",,,4542.5,12,24,1990/05,31,blank,,False,,,POINT Z (22.3305343 114.179745 0),22.3305343,114.179745
109,"ONE LASALLE,LA SALLE RD|ONE LASALLE,喇沙利道",KKL,96466053.19420981,37570.0,2203,100581972.36563164,39173.0,2203,104401594.31434473,40919.0,2217,2.0,5.0,7.0,"['A', 'B']",100653054.08885513,39325.833333333336,2210.0,7,14,2010/05,11,blank,,False,,,POINT Z (22.328079 114.181717 0),22.328079000000002,114.18171699999999
110,"LUNG CHEUNG COURT(Block 1),BROADCAST DR|龍翔苑1座,廣播道",KKL,,,803,,,803,,,809,2.0,3.0,4.0,"['3B', '4A', '6F']",,,805.0,3,9,1970/03,51,LUNG CHEUNG COURT,龍翔苑,True,2.0,15.0,POINT Z (22.342999 114.179868 0),22.342999,114.179868
111,"MERIDIAN HILL(Block 1),BROADCAST DR|尚御1座,廣播道",KKL,43821386.29199429,16053.0,1355,45972703.01497373,17051.0,1355,54595213.575025626,21385.0,1614,1.0,5.0,8.0,"['A', 'B', 'C', 'D']",48595806.43482565,18313.0,1543.25,9,36,2011/04,10,MERIDIAN HILL,尚御,True,3.0,108.0,POINT Z (22.3429933 114.1838088 0),22.342993300000003,114.1838088
112,"MERIDIAN HILL(Block 2),BROADCAST DR|尚御2座,廣播道",KKL,21591034.48608619,17373.0,988,22619723.8709498,18236.0,988,33747752.76340979,20651.0,1542,1.0,5.0,8.0,"['A', 'B', 'C', 'D']",25925955.449006885,19248.111111111113,1127.75,9,36,2011/04,10,MERIDIAN HILL,尚御,True,3.0,108.0,POINT Z (22.3427607 114.1839017 0),22.3427607,114.18390169999999
113,"MERIDIAN HILL(Block 3),BROADCAST DR|尚御3座,廣播道",KKL,33713377.0,20953.0,990,35460751.0,22039.0,990,41457494.0,25766.0,1609,1.0,5.0,8.0,"['A', 'B', 'C', 'D']",36270732.666666664,22590.833333333332,1297.75,9,36,2011/04,10,MERIDIAN HILL,尚御,True,3.0,108.0,POINT Z (22.3425138 114.1838088 0),22.3425138,114.1838088
114,"DRAGON COURT(Block A),EASTBOURNE RD|龍圃別墅A座,義本道",KKL,19663808.0,18914.0,904,19663808.0,18914.0,904,20540708.402902786,19153.0,926,2.0,2.0,3.0,"['1', '2']",19983568.147664692,19846.0,915.0,4,8,1968/02,53,DRAGON COURT,龍圃別墅,True,4.0,44.0,POINT Z (22.3433134 114.176629 0),22.3433134,114.176629
115,"ONE MAYFAIR(Block 5),BROADCAST DR|逸瓏5座,廣播道",KKL,51181321.062686555,19891.0,1489,,,1489,63907943.44667178,32022.0,1491,2.0,6.0,8.0,"['A', 'B']",60895926.69874764,29074.25,1490.0,10,20,2011/12,10,ONE MAYFAIR,逸瓏,True,3.0,71.0,POINT Z (22.3401951 114.1820059 0),22.3401951,114.18200590000001
116,"ONE MAYFAIR(Block 6),BROADCAST DR|逸瓏6座,廣播道",KKL,34534984.15429378,19205.0,1042,39003582.72880147,20665.0,1042,66244978.47163203,21796.0,1893,2.0,6.0,9.0,"['A', 'B', 'C']",44414605.4456158,21966.0,1260.888888888889,9,27,2011/12,10,ONE MAYFAIR,逸瓏,True,3.0,71.0,POINT Z (22.3401951 114.1820059 0),22.3401951,114.18200590000001
117,"ONE MAYFAIR(Block 1),BROADCAST DR|逸瓏1座,廣播道",KKL,31023865.93694031,25271.0,1060,32072679.466435373,26324.0,1052,33381221.39573759,27398.0,1495,1.0,4.0,7.0,"['A', 'B', 'C']",34598865.77688104,27285.666666666668,1340.888888888889,8,24,2011/12,10,ONE MAYFAIR,逸瓏,True,3.0,71.0,POINT Z (22.3401951 114.1820059 0),22.3401951,114.18200590000001
118,"1 & 3 EDE RD(Block 2),EDE RD|1 & 3 EDE RD2座,義德道",KKL,69084111.94338198,29760.0,1409,69862501.48860446,30571.0,1409,156466466.91292244,45124.0,3156,6.0,8.0,11.0,"['A', 'AB', 'B']",96904465.10948478,38900.77777777778,2104.0,8,24,2014/04,7,1 & 3 EDE RD,1 & 3 EDE RD,True,1.0,24.0,POINT Z (22.3407675 114.1778873 0),22.3407675,114.1778873
119,"EDEN GATE(Block 1),EDE RD|雲門1座,義德道",KKL,65005406.68858641,29295.0,1464,66731469.02743147,30496.0,1464,129187591.18937996,44350.0,3039,3.0,6.0,9.0,"['A', 'AB', 'B']",88988906.72569805,37178.444444444445,2026.0,10,30,2014/06,7,EDEN GATE,雲門,True,2.0,52.0,POINT Z (22.3412001 114.1780653 0),22.341200100000002,114.1780653
120,"EDEN GATE(Block 2),EDE RD|雲門2座,義德道",KKL,52591140.0,40131.0,1260,55132560.0,42250.0,1260,64067568.0,46825.0,1464,3.0,7.0,10.0,"['A', 'B']",58566092.0,43077.166666666664,1362.0,11,22,2014/06,7,EDEN GATE,雲門,True,2.0,52.0,POINT Z (22.3412001 114.1780653 0),22.341200100000002,114.1780653
121,6 MORAY RD|6 慕禮道,KKL,,,1177,,,1177,,,1177,0.0,0.0,0.0,['whole floor'],,,1177.0,1,1,1955/01,66,blank,,False,,,POINT Z (22.331049 114.179541 0),22.331049,114.17954099999999
122,"THE GRAMPIAN,GRAMPIAN RD|THE GRAMPIAN,嘉林邊道",KKL,82417005.17175774,34262.0,2077,83708754.97554135,34799.0,2077,87716293.76859008,36431.0,2134,2.0,5.0,7.0,"['A', 'B']",84902679.26928164,35133.0,2086.5,7,14,2016/06,5,blank,,False,,,POINT Z (22.328817 114.186251 0),22.328817,114.186251
123,"PARC INVERNESS(Block 2),INVERNESS RD|賢文禮士2座,延文禮士道",KKL,36269384.0,23956.0,833,33937540.0,25065.0,1286,39803060.0,26290.0,1514,2.0,6.0,9.0,"['A', 'B', 'C']",36366458.0,25292.277777777777,1364.7777777777778,9,27,2016/03,5,PARC INVERNESS,賢文禮士,True,4.0,149.0,POINT Z (22.3337311 114.186206 0),22.3337311,114.186206
124,"PARC INVERNESS(Block 3),INVERNESS RD|賢文禮士3座,延文禮士道",KKL,25198392.0,23594.0,883,24137924.73523949,24990.0,834,31795306.537193354,31091.0,1514,2.0,6.0,9.0,"['A', 'B', 'C']",29786628.968271032,26908.0,1083.6666666666667,9,27,2016/03,5,PARC INVERNESS,賢文禮士,True,4.0,149.0,POINT Z (22.3337311 114.186206 0),22.3337311,114.186206
125,"PARC INVERNESS(Block 1),INVERNESS RD|賢文禮士1座,延文禮士道",KKL,52312800.0,28400.0,538,44254569.0,29721.0,538,63242144.00000001,37289.0,1696,2.0,6.0,9.0,"['A', 'B', 'C', 'D', 'E']",58720277.86111111,33019.63888888888,1479.9333333333334,9,45,2016/03,5,PARC INVERNESS,賢文禮士,True,4.0,149.0,POINT Z (22.3337311 114.186206 0),22.3337311,114.186206
126,"PARC INVERNESS(Block 5),INVERNESS RD|賢文禮士5座,延文禮士道",KKL,35051900.0,22850.0,898,39140593.0,26827.0,886,51387439.0,35221.0,1733,2.0,6.0,8.0,"['A', 'B', 'C', 'D', 'E']",44526508.11111111,27739.111111111113,1425.3999999999999,10,50,2016/03,5,PARC INVERNESS,賢文禮士,True,4.0,149.0,POINT Z (22.3337311 114.186206 0),22.3337311,114.186206
127,"LUNG CHEUNG COURT(Block 2),BROADCAST DR|龍翔苑2座,廣播道",KKL,,,803,,,803,,,809,0.0,0.0,1.0,"['1F', '2A', '2G']",,,805.0,2,6,1970/03,51,LUNG CHEUNG COURT,龍翔苑,True,2.0,15.0,POINT Z (22.3424117 114.1792838 0),22.3424117,114.1792838
128,"AYTON(Block 2),INVERNESS RD|雋睿2座,延文禮士道",KKL,,,265,,,265,,,616,2.0,4.0,6.0,"['A', 'B', 'C', 'D', 'E']",8642167.666666666,28899.666666666668,369.0,6,30,2019/09,2,AYTON,雋睿,True,2.0,36.0,POINT Z (22.3305552 114.1856898 0),22.3305552,114.1856898
129,"AYTON(Block 1),INVERNESS RD|雋睿1座,延文禮士道",KKL,22572123.0,29711.0,651,22852704.0,30078.0,651,36171036.0,35520.0,1188,4.0,5.0,6.0,"['A', 'D']",29291452.5,32588.833333333332,919.5,3,6,2019/09,2,AYTON,雋睿,True,2.0,36.0,POINT Z (22.329282 114.185216 0),22.329282,114.185216
