,final_address,district,lowZone_value,lowZone_npsf_min,lowZone_nfa_min,midZone_value,midZone_npsf_min,midZone_nfa_min,highZone_value,highZone_npsf_max,highZone_nfa_max,oneSixth_floor,middle_floor,fifthSixth_floor,unit_list,value_avg,npsf_avg,unitSize_avg,noStorey,noFlat,op_date,bldgAge,est_name_en,est_name_ch,est_orNot,est_bldgNo,est_flatNo,final_coords,lat,long
0,"BOLAND COURT(Phase 1),BROADCAST DR|寶能閣1期,廣播道",KKL,3426930.0,5048.0,480,3525910.0,5194.0,480,5022480.0,8950.0,1310,2,4,7,"['A', 'A-B', 'B', 'C', 'D', 'E', 'F', 'G', 'H']",4322109.365079365,7199.894179894179,671.4814814814814,10,90,1974/09,49,BOLAND COURT,寶能閣,True,2.0,160.0,POINT Z (22.3402406 114.1821438 0),22.3402406,114.1821438
1,"JADE COURT(Block A),BROADCAST DR|金翠苑A座,廣播道",KKL,1625980.1520787794,5033.0,380,1595612.1540069724,4939.0,380,1688331.4672687664,5226.0,740,1,2,4,"['1', '2', '3']",2254639.793976195,7068.166666666667,593.3333333333334,6,18,1977/05,46,JADE COURT,金翠苑,True,2.0,68.0,POINT Z (22.34269 114.182114 0),22.34269,114.18211399999998
2,"KENT COURT(Block 5),BOUNDARY ST|根德閣5座,界限街",KKL,5868357.0,6753.0,869,6096035.0,7015.0,869,8074620.0,7952.0,1026,2,5,8,"['A', 'B', 'C', 'D', 'E', 'F']",6887282.166666667,7469.722222222223,921.3333333333334,9,54,1980/01,43,KENT COURT,根德閣,True,2.0,78.0,POINT Z (22.3274287 114.1808075 0),22.3274287,114.1808075
3,"BEVERLY VILLAS(Block 7),LA SALLE RD|碧華花園7座,喇沙利道",KKL,7021500.510224872,7313.0,1175,7139931.705763864,7681.0,1145,9826900.642888173,15062.0,1601,3,6,10,"['A', 'B', 'C', 'D']",8583701.525809782,12110.944444444443,1366.5,12,48,1980/12,43,BEVERLY VILLAS,碧華花園,True,10.0,480.0,POINT Z (22.3273808 114.182462 0),22.3273808,114.18246200000002
4,"AVA COURT,BROADCAST DR|雅華閣,廣播道",KKL,4703390.0,6017.0,730,4891000.0,6259.0,730,6436980.0,6973.0,990,2,5,8,"['A', 'B', 'C', 'D', 'E', 'F']",5641715.277777777,6440.38888888889,879.1666666666666,9,54,1973/09,50,blank,,False,,,POINT Z (22.3425327 114.1832747 0),22.3425327,114.1832747
5,"LILAC COURT,BOUNDARY ST|昌蔚苑,界限街",KKL,5206284.0,6014.0,846,5410170.0,6252.0,846,6797331.0,6793.0,1003,3,6,10,"['A', 'B', 'C', 'D']",5929146.083333333,6417.083333333333,924.5,12,48,1978/04,45,blank,,False,,,POINT Z (22.3275605 114.1852602 0),22.3275605,114.1852602
6,"AVON COURT,FESSENDEN RD|雅芳園,范信達道",KKL,3924713.0284722983,6330.0,585,4074995.3723574528,6566.0,585,5510430.0,15322.0,910,2,5,8,"['A', 'B', 'C', 'D', 'E', 'F', 'G', 'H']",4617641.858340957,11610.916666666666,787.5,9,72,1974/01,49,blank,,False,,,POINT Z (22.3421153 114.1830193 0),22.342115300000003,114.1830193
7,"BEVERLY VILLAS(Block 9),LA SALLE RD|碧華花園9座,喇沙利道",KKL,7129034.071690963,13829.0,1145,7466365.380947601,14482.0,1145,10474500.875556657,15802.0,1601,3,6,10,"['A', 'B', 'C', 'D']",8759122.819379216,14847.083333333334,1366.5,12,48,1980/12,43,BEVERLY VILLAS,碧華花園,True,10.0,480.0,POINT Z (22.32743 114.183488 0),22.32743,114.18348799999998
8,"BEVERLY VILLAS(Block 6),LA SALLE RD|碧華花園6座,喇沙利道",KKL,7478105.052572388,13502.0,1175,7779954.204820348,14047.0,1145,10669127.25564205,15404.0,1601,3,6,10,"['A', 'B', 'C', 'D']",9027324.777666299,14493.444444444445,1372.0,12,48,1980/12,43,BEVERLY VILLAS,碧華花園,True,10.0,480.0,POINT Z (22.3273631 114.1821601 0),22.327363100000003,114.1821601
9,"BEVERLY VILLAS(Block 10),LA SALLE RD|碧華花園10座,喇沙利道",KKL,7760875.0,6605.0,1175,8052275.0,6853.0,1175,11291862.975604981,15119.0,1601,3,6,10,"['A', 'B', 'C', 'D']",9326434.28978344,10635.25,1366.0,12,48,1980/12,43,BEVERLY VILLAS,碧華花園,True,10.0,480.0,POINT Z (22.3274194 114.1834605 0),22.3274194,114.1834605
10,"INVERNESS VILLA(Block A),INVERNESS RD|賢文別墅A座,延文禮士道",KKL,4659212.239473074,15207.0,535,4720489.443911465,15407.0,535,4841205.536655096,15801.0,650,1,2,4,"['1', '2', '3', '4']",4740302.406679878,15471.666666666666,590.8333333333334,6,24,1977/00,46,INVERNESS VILLA,賢文別墅,True,2.0,48.0,POINT Z (22.3312363 114.1856636 0),22.3312363,114.1856636
11,"KENT COURT(Block 1),BOUNDARY ST|根德閣1座,界限街",KKL,9107434.80862388,15166.0,1274,9614270.8219747,16010.0,1274,10313272.148444317,17174.0,1274,2,6,9,"['A', 'B']",9607865.311537407,15999.333333333334,1274.0,12,24,1980/01,43,KENT COURT,根德閣,True,2.0,78.0,POINT Z (22.327471 114.1802327 0),22.327471,114.1802327
12,"VISTA PANORAMA,RHONDDA RD|蟠龍閣,朗德道",KKL,11711464.365460053,8472.0,1626,12152441.36411229,8791.0,1626,13100749.26717008,9477.0,1626,3,6,10,"['A1', 'A2', 'B1', 'B2']",12267578.896928633,8901.138888888889,1621.3333333333333,12,48,1966/07,57,VISTA PANORAMA,蟠龍閣,True,1.0,48.0,POINT Z (22.3440179 114.1787 0),22.344017899999997,114.1787
13,"BEVERLY VILLAS(Block 1),LA SALLE RD|碧華花園1座,喇沙利道",KKL,6839751.421755753,13137.0,1145,6972504.4186438285,13716.0,1145,9543318.59335704,15008.0,1601,3,6,10,"['A', 'B', 'C', 'D']",8371070.872322527,14462.63888888889,1372.0,12,48,1980/12,43,BEVERLY VILLAS,碧華花園,True,10.0,480.0,POINT Z (22.32773 114.1821833 0),22.32773,114.18218329999999
14,"BOLAND COURT(Phase 2),BROADCAST DR|寶能閣2期,廣播道",KKL,2862135.0,6378.0,405,2884005.0,7024.0,405,3646580.0,8100.0,490,2,4,7,"['A', 'B', 'C', 'D', 'E', 'F', 'G', 'H']",3230602.2916666665,7209.458333333333,449.5833333333333,10,80,1975/10,48,BOLAND COURT,寶能閣,True,2.0,160.0,POINT Z (22.3407369 114.1815331 0),22.340736899999996,114.1815331
15,"ALICE COURT(Block A),BROADCAST DR|雅麗園A座,廣播道",KKL,5069755.368316963,13854.0,540,5292219.902214987,14436.0,540,5512007.093642164,15293.0,780,2,5,8,"['A', 'B', 'C', 'D']",5292279.608209055,14583.333333333334,672.5,9,36,1971/10,52,ALICE COURT,雅麗園,True,2.0,63.0,POINT Z (22.3428881 114.1811615 0),22.342888100000003,114.1811615
16,"CARLTON COURT,MARCONI RD|康泰閣,馬可尼道",KKL,,,721,,,721,,,938,2,4,5,"['A', 'B', 'C', 'D', 'E', 'F']",,,838.8333333333334,6,36,1977/00,46,blank,,False,,,POINT Z (22.3411435 114.1817189 0),22.3411435,114.1817189
17,"FESSENDEN COURT,FESSENDEN RD|信達閣,范信達道",KKL,3251500.4491721345,5744.0,480,3393135.63678481,5972.0,480,5251875.933538972,15596.0,965,1,4,7,"['A', 'B', 'B2', 'C', 'D', 'E', 'F', 'G']",3869880.2709833533,10323.333333333334,642.375,9,72,1976/03,47,blank,,False,,,POINT Z (22.3418472 114.1825084 0),22.341847199999997,114.1825084
18,"ROCKFORD MANSION,BROADCAST DR|嘉柏園,廣播道",KKL,3698100.0,5797.0,525,3806775.0,6222.0,525,5850236.050802086,11439.0,1085,2,4,5,"['A', 'B', 'C', 'D', 'E', 'F', 'G']",4785940.036528725,7289.619047619049,759.8571428571428,6,42,1978/08,45,blank,,False,,,POINT Z (22.3430135 114.1824387 0),22.3430135,114.1824387
19,"CHERMAIN HEIGHTS(Block 2),EASTBOURNE RD|霞明閣2座,義本道",KKL,4018650.0,5308.0,730,4188010.0,5531.0,730,5289600.0,6960.0,790,3,6,10,"['C1', 'C2', 'C3', 'D1', 'D2', 'D3']",4739193.888888889,6196.055555555556,765.0,12,72,1969/04,54,CHERMAIN HEIGHTS,霞明閣,True,2.0,144.0,POINT Z (22.3436927 114.177446 0),22.3436927,114.177446
20,"PHOENIX COURT(Block D),MARCONI RD|碧麗閣D座,馬可尼道",KKL,3065066.911483885,6187.0,480,3684593.5892493515,6445.0,670,3946911.874187883,11962.0,700,2,5,8,"['1', '2', '3', '4']",3814524.0293062017,10732.888888888889,663.3333333333334,9,36,1977/10,46,PHOENIX COURT,碧麗閣,True,6.0,209.0,POINT Z (22.3420154 114.1817189 0),22.342015399999998,114.1817189
21,"BEVERLY VILLAS(Block 5),LA SALLE RD|碧華花園5座,喇沙利道",KKL,8251637.84280042,15084.0,1145,8602449.838210208,15707.0,1145,12534775.3809262,17001.0,1601,3,6,10,"['A', 'B', 'C', 'D']",10407285.285264585,16006.5,1380.5,12,48,1980/12,43,BEVERLY VILLAS,碧華花園,True,10.0,480.0,POINT Z (22.32743 114.183488 0),22.32743,114.18348799999998
22,"TWILIGHT COURT(Block B),MARCONI RD|翠麗苑B座,馬可尼道",KKL,2469865.0511426963,10522.0,480,2557703.702280527,10913.0,480,3108916.7626011544,12791.0,635,2,5,8,"['1', '2', '3', '4']",2744307.960479845,11868.88888888889,560.0,9,36,1975/06,48,TWILIGHT COURT,翠麗苑,True,2.0,68.0,POINT Z (22.3414406 114.1823226 0),22.341440600000002,114.1823226
23,"KWONG FAI COURT,FESSENDEN RD|光輝園,范信達道",KKL,1774082.4302623102,6562.0,410,1865463.0857680494,6900.0,410,5072376.147214482,14542.0,760,2,5,8,"['A', 'B', 'C', 'D', 'E', 'F', 'G', 'H']",4178047.4181635655,12065.031746031746,662.5,9,72,1976/02,47,blank,,False,,,POINT Z (22.3416651 114.1828335 0),22.3416651,114.1828335
24,"MARCONI COURT,MARCONI RD|馬可尼大廈,馬可尼道",KKL,3242389.0002352567,10746.0,625,3364943.4091120395,11147.0,625,4344421.813010837,13554.0,700,2,5,8,"['A', 'B', 'C', 'D', 'E', 'F', 'G', 'H']",3604785.726105939,11508.5,664.375,9,72,1975/04,48,blank,,False,,,POINT Z (22.3413275 114.1826245 0),22.3413275,114.18262450000002
25,"BOUNDARY CREST,BOUNDARY ST|新利大廈,界限街",KKL,3184717.7235965095,11452.0,560,3315907.5046679946,11929.0,560,3579418.338277519,12248.0,620,3,6,8,"['A', 'B', 'C']",3415407.54378261,12084.0,568.8888888888889,10,30,1978/02,45,blank,,False,,,POINT Z (22.3275147 114.1854808 0),22.3275147,114.1854808
26,"ALICE COURT(Block B),BROADCAST DR|雅麗園B座,廣播道",KKL,3615048.675842888,5648.0,440,3762113.9664950273,5879.0,440,3970200.0,15627.0,650,2,5,8,"['E', 'F', 'G']",3711980.754613088,9760.611111111111,580.0,9,27,1971/10,52,ALICE COURT,雅麗園,True,2.0,63.0,POINT Z (22.3426482 114.1813009 0),22.3426482,114.18130090000001
27,"EASTBOURNE COURT,EASTBOURNE RD|雅景樓,義本道",KKL,7216640.877591106,14555.0,936,7516654.070521469,15252.0,936,9059221.904171754,17979.0,1100,3,6,10,"['A', 'B', 'C', 'D', 'E', 'F']",7919018.578025278,16369.277777777776,1028.6666666666667,12,72,1965/12,58,blank,,False,,,POINT Z (22.343585 114.176736 0),22.343585,114.176736
28,"WELCOME GARDEN,BROADCAST DR|偉錦園,廣播道",KKL,3861906.2507385025,11874.0,680,3931507.7277182937,12088.0,680,4903770.976476027,14819.0,1395,2,5,8,"['A', 'A & D', 'B', 'C', 'D', 'E', 'F', 'G', 'H']",4504477.7335230075,13796.041666666666,770.6296296296296,9,81,1971/11,52,blank,,False,,,POINT Z (22.3424538 114.1807442 0),22.3424538,114.1807442
29,"MERLIN COURT,BROADCAST DR|美輪閣,廣播道",KKL,3769390.0,5309.0,690,3825804.5500620687,5583.0,690,5316842.968410777,13397.0,918,1,4,7,"['A', 'B', 'C', 'D', 'E', 'F']",4599666.35894541,9866.333333333334,784.6666666666666,9,54,1975/03,48,blank,,False,,,POINT Z (22.3426639 114.1829961 0),22.342663899999998,114.18299609999998
30,"JOY GARDEN(Block 2),ALNWICK RD|天樂園2座,安域道",KKL,4869911.550118927,12755.0,810,5031414.692862973,13178.0,810,5329603.710553517,13959.0,810,2,4,6,"['A', 'B', 'C', 'D']",5082746.135657902,13312.444444444445,810.0,7,28,1975/09,48,JOY GARDEN,天樂園,True,2.0,56.0,POINT Z (22.3432853 114.1778176 0),22.3432853,114.1778176
31,"TWILIGHT COURT(Block A),MARCONI RD|翠麗苑A座,馬可尼道",KKL,3499248.9003476608,6571.0,440,3635717.9482630687,6805.0,440,4488583.506898819,18302.0,640,2,5,8,"['1', '2', '3', '4', '4-A4']",3978332.502021181,14080.75,555.0,9,45,1975/06,48,TWILIGHT COURT,翠麗苑,True,2.0,68.0,POINT Z (22.3414406 114.1823226 0),22.341440600000002,114.1823226
32,"EVERGREEN MANSION,CORNWALL ST|翠亨園,歌和老街",KKL,8886546.041606145,17961.0,1023,8886546.041606145,17961.0,1023,10386550.257690411,18573.0,1216,2,2,3,"['A', 'B', 'C', 'D', 'E']",9559887.86867136,18261.2,1111.1333333333334,4,20,1966/09,57,blank,,False,,,POINT Z (22.3404908 114.1756347 0),22.3404908,114.1756347
33,"CLIFFORD MANSION,BROADCAST DR|嘉翠園,廣播道",KKL,3649800.0,6173.0,525,3746400.0,6337.0,525,5613720.0,7404.0,820,2,4,5,"['A', 'B', 'C', 'D', 'E', 'F', 'G', 'H']",4411684.226190477,6868.791666666667,656.875,6,48,1978/08,45,blank,,False,,,POINT Z (22.3428823 114.1827174 0),22.3428823,114.18271740000002
34,"COLLEGE CREST,COLLEGE RD|博文閣,書院道",KKL,5264972.757579901,3532.0,750,5648791.954841985,3673.0,750,7485272.073710964,17344.0,1650,2,5,8,"['A1', 'A1A2', 'A2', 'A3', 'B1', 'B2', 'B3']",5992582.019151665,13655.666666666666,924.2857142857142,9,63,1978/11,45,COLLEGE CREST,博文閣,True,1.0,63.0,POINT Z (22.3282072 114.1838553 0),22.328207199999998,114.1838553
35,"MERRY COURT(Block 1),FESSENDEN RD|真能閣1座,范信達道",KKL,3418542.0,5466.0,537,3507959.0,5507.0,537,3947820.0,7042.0,637,1,4,7,"['A', 'B', 'C', 'D', 'E', 'F', 'G', 'H']",3636350.7083333335,6429.708333333333,568.0416666666666,9,72,1974/05,49,MERRY COURT,真能閣,True,2.0,144.0,POINT Z (22.3425775 114.1824387 0),22.3425775,114.1824387
36,"FABER GARDEN(Block C),MARCONI RD|百美花園C座,馬可尼道",KKL,2994200.0,6321.0,440,3072520.0,6486.0,440,3318480.0,7542.0,940,2,4,6,"['1', '2', '3']",3138512.2222222225,6971.277777777778,506.6666666666667,7,21,1977/03,46,FABER GARDEN,百美花園,True,3.0,63.0,POINT Z (22.3416917 114.1819743 0),22.3416917,114.18197430000001
37,"COMFORT COURT,MARCONI RD|康樂閣,馬可尼道",KKL,6111906.211462904,5796.0,1050,6348483.3569062,6015.0,1050,7337000.0,13594.0,1150,3,6,8,"['A', 'B', 'C', 'D']",6705968.192965318,11237.583333333334,1100.0,10,40,1977/00,46,blank,,False,,,POINT Z (22.3409174 114.1823226 0),22.3409174,114.1823226
38,"BROADWAY TOWERS(Block B),BROADCAST DR|百樂園B座,廣播道",KKL,2994079.6269575637,10408.0,430,3103935.513622267,10800.0,430,4164521.368041942,16050.0,780,3,6,10,"['1', '2', '3', '4']",3681843.1854962893,12723.666666666666,635.0,12,48,1973/05,50,BROADWAY TOWERS,百樂園,True,2.0,96.0,POINT Z (22.3404599 114.1821833 0),22.3404599,114.18218329999999
39,"MANHATTAN COURT,ALNWICK RD|新餘村,安域道",KKL,4786563.710731161,5473.0,783,4913895.384738582,5619.0,783,7037639.793438122,13663.0,2392,2,4,6,"['2A', '2B', '2C', '2E', '3B', '3C', '3E', '3F', '4A', '4C', '4D', '4F', '5C', '5D', '5E', '5F', '6B', '6C', '6D', '6E', '6F', '7B', '7C', '7D', '7F', '8C', '8D', '8E', '8F']",5743712.876604202,11919.702380952382,1018.6206896551724,7,203,1975/07,48,blank,,False,,,POINT Z (22.3429874 114.1777711 0),22.3429874,114.17777109999999
40,"PHOENIX COURT(Block C),MARCONI RD|碧麗閣C座,馬可尼道",KKL,,,516,,,516,2842141.0365501344,14931.0,669,2,5,8,"['1', '2', '3', '4']",2842141.0365501344,14931.0,602.3333333333334,9,36,1977/10,46,PHOENIX COURT,碧麗閣,True,6.0,209.0,POINT Z (22.341863 114.1815795 0),22.341863,114.1815795
41,"BEVERLY VILLAS(Block 2),LA SALLE RD|碧華花園2座,喇沙利道",KKL,7638787.791106383,9859.0,1175,7991187.447486808,10476.0,1145,11596985.262444822,15283.0,1601,3,6,10,"['A', 'B', 'C', 'D']",9100529.606541364,11909.333333333334,1358.1666666666667,12,48,1980/12,43,BEVERLY VILLAS,碧華花園,True,10.0,480.0,POINT Z (22.3277223 114.1825084 0),22.3277223,114.1825084
42,"MARPLE COURT,BROADCAST DR|萬寶閣,廣播道",KKL,3780318.9525705623,11401.0,666,3947350.241881173,11855.0,670,5292622.9176749475,13107.0,905,2,5,8,"['A', 'B', 'C', 'D', 'E', 'F']",4494262.358726726,12183.055555555555,784.7222222222223,9,54,1972/04,51,blank,,False,,,POINT Z (22.3425614 114.1810222 0),22.342561399999997,114.1810222
43,"CHERMAIN HEIGHTS(Block 1),EASTBOURNE RD|霞明閣1座,義本道",KKL,4479024.263006429,12503.0,730,4655634.593460094,12996.0,730,5617304.8990228735,15085.0,803,3,6,10,"['A1', 'A2', 'A3', 'B1', 'B2', 'B3']",5059419.501325417,13988.611111111111,767.1666666666666,12,72,1969/04,54,CHERMAIN HEIGHTS,霞明閣,True,2.0,144.0,POINT Z (22.3436927 114.177446 0),22.3436927,114.177446
44,"MERRY COURT(Block 2),FESSENDEN RD|真能閣2座,范信達道",KKL,3913558.2204489554,12392.0,670,4073675.5556464717,12899.0,670,4640560.40116825,14740.0,670,1,4,7,"['A', 'B', 'C', 'D', 'E', 'F', 'G', 'H']",4353907.210015826,13828.238095238097,668.3333333333334,9,72,1975/08,48,MERRY COURT,真能閣,True,2.0,144.0,POINT Z (22.3425775 114.1824387 0),22.3425775,114.1824387
45,"CRYSTAL MANSION,EASTBOURNE RD|晶苑,義本道",KKL,6113715.4786629975,14510.0,880,6361172.671584782,15086.0,880,10056720.519806549,17564.0,1510,3,6,10,"['A', 'B', 'C']",7985317.1095272675,15955.333333333334,1244.4444444444443,12,36,1971/01,52,blank,,False,,,POINT Z (22.343636 114.1764243 0),22.343636,114.17642430000001
46,"BROADWAY TOWERS(Block A),BROADCAST DR|百樂園A座,廣播道",KKL,3762967.3217494693,11792.0,430,3916399.433710379,12276.0,430,4252560.512710281,13812.0,760,3,6,10,"['1', '2', '3', '4']",4014894.8951960653,12615.77777777778,660.0,12,48,1973/05,50,BROADWAY TOWERS,百樂園,True,2.0,96.0,POINT Z (22.340392 114.182083 0),22.340392,114.182083
47,"WESTLAND HEIGHTS,BROADCAST DR|慧園,廣播道",KKL,3212630.2054524287,5870.0,640,3294542.953531703,6030.0,640,6079920.0,10864.0,980,2,4,6,"['A', 'B', 'C', 'D', 'E']",5215424.65850155,7217.333333333333,837.3333333333334,7,35,1976/11,47,blank,,False,,,POINT Z (22.3430108 114.1817653 0),22.343010800000002,114.1817653
48,"FABER GARDEN(Block A),MARCONI RD|百美花園A座,馬可尼道",KKL,2846561.827718803,13725.0,440,2960424.3008275554,13212.0,440,3056657.7935824934,14738.0,490,1,4,6,"['1', '2', '3']",2964914.82006563,14128.833333333334,506.6666666666667,8,24,1977/03,46,FABER GARDEN,百美花園,True,3.0,63.0,POINT Z (22.3416917 114.1819743 0),22.3416917,114.18197430000001
49,"LOCKOO GARDENS,CORNWALL ST|樂古花園,歌和老街",KKL,,,1155,8379997.237618458,16627.0,1155,,,1205,2,4,6,"['A', 'B', 'C', 'D']",8379997.237618458,16627.0,1170.0,7,28,1988/02,35,blank,,False,,,POINT Z (22.3405074 114.1767726 0),22.3405074,114.1767726
50,"VIOLET COURT,CORNWALL ST|紫蘭別墅,歌和老街",KKL,5281593.987232993,2837.0,1005,5348614.566556359,2873.0,1005,5868024.056312441,3152.0,1025,3,4,6,"['1', '2', '3', '4']",5467141.70221157,2936.6666666666665,1015.0,6,24,1964/07,59,blank,,False,,,POINT Z (22.340687 114.177616 0),22.340687,114.17761599999999
51,"BEVERLY VILLAS(Block 3),LA SALLE RD|碧華花園3座,喇沙利道",KKL,,,1175,,,1175,,,1601,3,6,10,"['A', 'B', 'C', 'D']",,,1385.5,12,48,1981/01,42,BEVERLY VILLAS,碧華花園,True,10.0,480.0,POINT Z (22.32743 114.183488 0),22.32743,114.18348799999998
52,"FUNG WAH COURT,SAU CHUK YUEN RD|鳳華閣,秀竹園道",KKL,5851456.688264653,6487.0,1061,6193166.560488498,4901.0,1061,6728585.604010344,14659.0,1061,2,5,8,"['A', 'B', 'C', 'D']",6376309.040640512,11069.916666666666,1060.8333333333333,9,36,1972/03,51,blank,,False,,,POINT Z (22.3278353 114.1848306 0),22.3278353,114.18483059999998
53,"BELMONT HEIGHTS,MARCONI RD|碧滿閣,馬可尼道",KKL,5940000.0,5940.0,540,6177000.0,6177.0,540,6412000.0,6412.0,1000,2,5,8,"['A', 'B', 'C', 'D', 'E', 'F']",6176333.333333333,6176.333333333333,715.0,9,54,1977/02,46,blank,,False,,,POINT Z (22.34094 114.181975 0),22.34094,114.181975
54,"FABER GARDEN(Block B),MARCONI RD|百美花園B座,馬可尼道",KKL,2984670.0,6401.0,390,3066960.0,6570.0,390,3252920.0,7927.0,940,2,4,6,"['1', '2', '3']",3131748.3333333335,7299.88888888889,490.0,7,21,1977/03,46,FABER GARDEN,百美花園,True,3.0,63.0,POINT Z (22.3416917 114.1819743 0),22.3416917,114.18197430000001
55,"HAPPY GARDEN(Block B),BROADCAST DR|雅樂園B座,廣播道",KKL,4851216.567894138,13844.0,600,3982023.7123310813,13849.0,600,5044998.911295284,14397.0,1210,2,4,6,"['1', '2', '3', '34', '4']",4786538.903145314,14073.666666666666,815.0,7,35,1976/02,47,HAPPY GARDEN,雅樂園,True,1.0,35.0,POINT Z (22.3415555 114.1832515 0),22.3415555,114.18325149999998
56,"KALAM COURT,GRAMPIAN RD|嘉林閣,嘉林邊道",KKL,6356426.857937314,14265.0,1030,6247701.43534098,14021.0,1030,7311339.073609214,16408.0,1105,2,4,5,"['A', 'B', 'D', 'E', 'F']",6720268.269903799,14361.6,1045.0,6,30,1965/01,58,blank,,False,,,POINT Z (22.3283747 114.1862471 0),22.3283747,114.18624709999999
57,"BEVERLY VILLAS(Block 4),LA SALLE RD|碧華花園4座,喇沙利道",KKL,8465875.0,6931.0,1175,8627575.0,7170.0,1145,12326099.0,7960.0,1601,3,6,10,"['A', 'B', 'C', 'D']",10245131.666666666,7481.333333333333,1374.5,12,48,1980/12,43,BEVERLY VILLAS,碧華花園,True,10.0,480.0,POINT Z (22.3277504 114.1831586 0),22.3277504,114.18315859999998
58,"BEVERLY VILLAS(Block 8),LA SALLE RD|碧華花園8座,喇沙利道",KKL,8214230.0,6740.0,1145,8722025.0,7000.0,1175,11746537.0,7862.0,1601,3,6,10,"['A', 'B', 'C', 'D']",9919593.5,7277.0,1369.0,12,48,1980/12,43,BEVERLY VILLAS,碧華花園,True,10.0,480.0,POINT Z (22.3274348 114.1828103 0),22.3274348,114.18281029999999
59,"ALBION GARDEN,LA SALLE RD|愛賓花園,喇沙利道",KKL,11890949.741398185,18101.0,1470,12181577.83166554,18545.0,1470,15235316.399037307,19383.0,1850,2,4,5,"['B', 'C', 'D', 'E', 'F', 'G', 'H']",13431098.424338428,18790.333333333332,1653.5714285714287,6,42,1981/10,42,blank,,False,,,POINT Z (22.329751 114.181702 0),22.329751,114.181702
60,"JUMBO COURT,BROADCAST DR|珍寶閣,廣播道",KKL,4438675.690725268,7324.0,889,4668625.482004248,7621.0,889,5337044.389282737,11136.0,1020,2,5,8,"['A', 'B', 'C', 'D']",4961036.231210679,8697.555555555555,954.75,9,36,1976/06,47,blank,,False,,,POINT Z (22.3428295 114.1815331 0),22.3428295,114.1815331
61,"FAIRYLAND GARDEN,BROADCAST DR|翠華園,廣播道",KKL,5958733.536423817,8055.0,1100,5512644.537653197,7600.0,1100,7182725.257810404,9555.0,1140,3,6,9,"['A', 'B', 'C', 'D']",6329518.228232716,8567.166666666666,1120.0,11,44,1973/07,50,blank,,False,,,POINT Z (22.3405029 114.181769 0),22.340502899999997,114.18176899999999
62,"PEARL COURT,RHONDDA RD|麗景樓,朗德道",KKL,6067084.293231776,10079.0,1160,6303293.7754484415,10469.0,1160,9583519.09260885,12469.0,1850,3,6,10,"['A', 'B', 'C', 'D']",7799804.091032461,11138.333333333334,1505.0,12,48,1966/10,57,blank,,False,,,POINT Z (22.3441275 114.178282 0),22.3441275,114.17828200000001
63,"LUSO APTS(Block D),WARWICK RD|和域臺D座,和域道",KKL,7362938.251734111,4769.0,1285,7563425.657881933,4896.0,1285,8174326.571152506,5129.0,1350,2,4,7,"['1', '11', '2', '85', '95']",7803757.893928594,4930.533333333334,1329.0,10,50,1964/12,59,LUSO APTS,和域臺,True,1.0,21.0,POINT Z (22.3422505 114.1773299 0),22.342250500000002,114.17732990000002
64,"JOY GARDEN(Block 1),ALNWICK RD|天樂園1座,安域道",KKL,3633120.7396690757,9392.0,810,3729828.595814441,9642.0,810,3895392.445535306,10070.0,810,2,4,6,"['A', 'B', 'C', 'D']",3764933.547595208,9732.75,810.0,7,28,1975/09,48,JOY GARDEN,天樂園,True,2.0,56.0,POINT Z (22.3434411 114.178073 0),22.343441100000003,114.178073
65,"SAU CHUK YUEN,SAU CHUK YUEN RD|秀竹苑,秀竹園道",KKL,6894433.081213158,13721.0,1066,7180340.261681803,14290.0,1066,8847403.106137123,16925.0,1109,2,5,8,"['A', 'B', 'C']",8013193.290707924,14572.555555555555,1094.6666666666667,9,27,1983/10,40,blank,,False,,,POINT Z (22.3278793 114.1845519 0),22.3278793,114.1845519
66,"SHEFFIELD GARDEN(Block A),COLLEGE RD|勝豐園A座,書院道",KKL,7090764.30150754,13626.0,1104,7402995.226276697,14226.0,1104,9002234.10404405,14703.0,1300,4,8,10,"['1', '2']",7836091.508774654,14199.666666666666,1202.0,10,20,1974/05,49,SHEFFIELD GARDEN,勝豐園,True,1.0,20.0,POINT Z (22.3276421 114.1838869 0),22.3276421,114.18388689999999
67,"NGA YUEN BLDG,SAU CHUK YUEN RD|雅園大廈,秀竹園道",KKL,3847071.5253978316,8036.0,726,,,726,,,1089,1,4,7,"['5A', 'whole floor']",3847071.5253978316,8036.0,847.0,8,16,1963/12,60,blank,,False,,,POINT Z (22.3278851 114.1856201 0),22.327885100000003,114.1856201
68,"EASTLAND HEIGHTS,BROADCAST DR|柏園,廣播道",KKL,5536772.511497496,11630.0,830,5528630.0,6661.0,830,5754339.5826715585,12087.0,1060,2,4,5,"['A', 'B', 'C', 'D', 'E', 'F', 'G', 'H']",5632376.38940426,11005.5,926.25,6,48,1976/11,47,blank,,False,,,POINT Z (22.3432612 114.1819743 0),22.3432612,114.18197430000001
69,"KOWLOON TONG GARDEN,CAMBRIDGE RD|九龍塘花園,劍橋道",KKL,22332033.945708588,26956.0,1560,18598982.122019507,22450.0,1560,18882316.28174025,22792.0,2200,0,1,2,"['A', 'B', 'C', 'D', 'E', 'F', 'G', 'H']",20000056.339795448,24072.666666666668,1836.25,3,24,1987/12,36,blank,,False,,,POINT Z (22.3305497 114.1790948 0),22.3305497,114.17909479999999
70,"PHOENIX COURT(Block H),FESSENDEN RD|碧麗閣H座,范信達道",KKL,3215865.397975655,5469.0,560,3264962.5796241383,11172.0,560,3537203.058050578,13644.0,620,2,5,8,"['1', '2', '3']",3436948.4874354093,11484.11111111111,601.1111111111112,9,27,1977/10,46,PHOENIX COURT,碧麗閣,True,6.0,209.0,POINT Z (22.3419421 114.1821833 0),22.3419421,114.18218329999999
71,"PHOENIX COURT(Block F),FESSENDEN RD|碧麗閣F座,范信達道",KKL,3249586.7149412124,12686.0,460,3792587.59162535,13124.0,600,4369000.0,13933.0,680,2,5,8,"['1', '2', '3']",3866323.330999601,12746.22222222222,607.2222222222222,9,27,1977/10,46,PHOENIX COURT,碧麗閣,True,6.0,209.0,POINT Z (22.3422766 114.1819975 0),22.3422766,114.18199750000001
72,"DRAGON COURT(Block B),EASTBOURNE RD|龍圃別墅B座,義本道",KKL,5779391.293441323,17138.0,726,5779391.293441323,17138.0,726,5922925.982920301,18858.0,785,2,2,3,"['1', '2']",5836878.872829244,17884.5,755.5,4,8,1968/02,55,DRAGON COURT,龍圃別墅,True,4.0,44.0,POINT Z (22.3433134 114.176629 0),22.3433134,114.176629
73,"PHOENIX COURT(Block E),FESSENDEN RD|碧麗閣E座,范信達道",KKL,,,600,,,600,,,680,2,5,8,"['1', '2', '3']",,,631.6666666666666,9,27,1977/10,46,PHOENIX COURT,碧麗閣,True,6.0,209.0,POINT Z (22.3421605 114.1819046 0),22.342160500000002,114.18190459999998
74,"DRAGON COURT(Block A),EASTBOURNE RD|龍圃別墅A座,義本道",KKL,6802553.241202979,17394.0,904,6802553.241202979,17394.0,904,7276166.40805165,18163.0,926,2,2,3,"['1', '2']",7025501.645000401,17744.833333333332,915.0,4,8,1968/02,55,DRAGON COURT,龍圃別墅,True,4.0,44.0,POINT Z (22.3433134 114.176629 0),22.3433134,114.176629
75,"BEVERLEY HEIGHTS(Block B),BEACON HILL RD|碧華閣B座,筆架山道",KKL,4926653.298702655,9642.0,919,5114685.700063636,10010.0,919,5370164.50626062,10510.0,1084,3,6,10,"['1', '2', '3']",5137167.83500897,10054.0,1029.0,12,36,1970/03,53,BEVERLEY HEIGHTS,碧華閣,True,1.0,228.0,POINT Z (22.344213 114.176952 0),22.344213,114.176952
76,"PHOENIX COURT(Block B),BROADCAST DR|碧麗閣B座,廣播道",KKL,3696655.771261493,9840.0,762,4707036.740721683,12995.0,762,5004760.994384717,13549.0,1518,3,6,8,"['1', '2', '3', '4', '45', '5', '6']",4717939.463753228,12873.266666666668,888.4761904761905,8,56,1977/10,46,PHOENIX COURT,碧麗閣,True,6.0,209.0,POINT Z (22.3422627 114.1815331 0),22.3422627,114.1815331
77,"INVERNESS VILLA(Block B),INVERNESS RD|賢文別墅B座,延文禮士道",KKL,3400559.3408359927,14831.0,530,3461091.177258399,15095.0,530,4499135.165992974,17333.0,600,1,2,4,"['1', '2', '3', '4']",3933231.4979299665,16041.0,565.0,6,24,1977/01,46,INVERNESS VILLA,賢文別墅,True,2.0,48.0,POINT Z (22.3312363 114.1856636 0),22.3312363,114.1856636
78,"HAMBURG VILLA,EASTBOURNE RD|涵碧別墅,義本道",KKL,6663094.240910218,17132.0,845,6663094.240910218,17132.0,845,10945386.389256075,20883.0,1239,2,2,3,"['1', '3A', '3B', '4A', '4B', '5', '6A', '6B']",7871650.025249765,18571.208333333332,981.0,4,32,1970/06,53,blank,,False,,,POINT Z (22.343141 114.1770745 0),22.343141,114.17707450000002
79,"DRAGON COURT(Block D),EASTBOURNE RD|龍圃別墅D座,義本道",KKL,8142964.606181377,15791.0,937,8142964.606181377,15791.0,937,8647932.60752305,18763.0,1094,2,2,3,"['1', '2', '3']",8357616.453634542,17569.333333333332,1013.3333333333334,4,12,1968/02,55,DRAGON COURT,龍圃別墅,True,4.0,44.0,POINT Z (22.3431232 114.1767726 0),22.343123199999997,114.1767726
80,"TANG COURT(Block D2),NGA TSIN WAI RD|怡德花園D2座,衙前圍道",KKL,,,1007,6999629.717265978,8176.0,1007,,,1010,1,2,3,"['A', 'B']",6999629.717265978,8176.0,1008.5,3,6,1987/01,36,TANG COURT,怡德花園,True,3.0,24.0,POINT Z (22.3296829 114.1833444 0),22.329682899999998,114.18334440000001
81,"TANG COURT(Block D3),NGA TSIN WAI RD|怡德花園D3座,衙前圍道",KKL,7041951.0,6993.0,1007,7093308.0,7044.0,1007,7093308.0,7044.0,1010,1,2,2,"['A', 'B']",7076189.0,7027.0,1008.5,4,8,1987/01,36,TANG COURT,怡德花園,True,3.0,24.0,POINT Z (22.3296829 114.1833444 0),22.329682899999998,114.18334440000001
82,"WAH HING BLDG,BOUNDARY ST|華興大廈,界限街",KKL,4646400.0,4913.0,800,4876000.0,5104.0,800,6195150.0,6194.0,1170,3,6,8,"['A', 'B1', 'B1 & B2', 'B1-2', 'B1-B2', 'B1B2']",5802096.111111112,5277.0,1108.3333333333333,8,48,1966/10,57,blank,,False,,,POINT Z (22.3275417 114.185655 0),22.327541699999998,114.18565500000001
83,"TANG COURT(Block D1),NGA TSIN WAI RD|怡德花園D1座,衙前圍道",KKL,6700328.580255443,14067.0,1009,6700328.580255443,14067.0,1009,7154026.416006625,14555.0,1065,2,2,3,"['A', 'B', 'whole floor']",6879251.837121422,14193.333333333334,1028.3333333333333,4,12,1987/01,36,TANG COURT,怡德花園,True,3.0,24.0,POINT Z (22.3296829 114.1833444 0),22.329682899999998,114.18334440000001
84,"MOONBEAM TERR(Block B),ALNWICK RD|映月臺B座,安域道",KKL,6692526.578041103,12677.0,1120,6770131.80064677,12824.0,1120,6973120.0,13155.0,1120,3,4,6,"['1', '2']",6807922.617338584,11731.833333333334,1120.0,6,12,1968/02,55,MOONBEAM TERR,映月臺,True,1.0,12.0,POINT Z (22.3425943 114.1783285 0),22.3425943,114.17832849999999
85,"DRAGON COURT(Block C),EASTBOURNE RD|龍圃別墅C座,義本道",KKL,4896226.089487814,16797.0,636,4896226.089487814,16797.0,636,5799905.5812580325,19966.0,787,2,2,3,"['1', '2', '3', '4']",5292466.739396543,18071.083333333332,679.75,4,16,1968/02,55,DRAGON COURT,龍圃別墅,True,4.0,44.0,POINT Z (22.3431232 114.1767726 0),22.343123199999997,114.1767726
86,"JADE COURT,BROADCAST DR|金翠苑,廣播道",KKL,2158389.309763228,5535.0,335,2198449.2221132712,5601.0,335,4352680.0,6852.0,740,1,2,3,"['A3', 'B1', 'B2', 'B3', 'C1', 'C2', 'C3', 'D1', 'D2', 'D3']",3730773.6965240263,5908.345238095238,567.1,5,50,1977/05,46,JADE COURT,金翠苑,True,2.0,68.0,POINT Z (22.34269 114.182114 0),22.34269,114.18211399999998
87,"PENINSULA HEIGHTS(Block B),BROADCAST DR|星輝豪庭B座,廣播道",KKL,6996161.0,6241.0,1101,7589170.0,6770.0,1101,10403328.0,8336.0,1248,2,8,14,"['1', '2', '3', '5', '6', '7']",8630049.333333334,7259.333333333333,1166.6666666666667,15,90,2000/06,23,PENINSULA HEIGHTS,星輝豪庭,True,2.0,180.0,POINT Z (22.3433467 114.183089 0),22.3433467,114.183089
88,"PENINSULA HEIGHTS(Block A),BROADCAST DR|星輝豪庭A座,廣播道",KKL,7011855.0,5882.0,1101,7584686.0,6346.0,1101,9292440.0,8440.0,1248,2,8,14,"['1', '2', '3', '5', '6', '7']",8024637.333333333,6894.777777777777,1166.6666666666667,15,90,2000/03,23,PENINSULA HEIGHTS,星輝豪庭,True,2.0,180.0,POINT Z (22.3434779 114.1828103 0),22.343477899999996,114.18281029999999
89,"THE BLOOMSVILLE,NGA TSIN WAI RD|陶源,衙前圍道",KKL,6162238.364462376,18413.0,710,6925315.849523884,20664.0,711,8610416.817513421,23211.0,789,10,19,28,"['A', 'B', 'C']",7178831.035560693,20799.0,758.888888888889,25,75,2002/05,21,blank,,False,,,POINT Z (22.328713 114.1858988 0),22.328713,114.18589879999999
90,"THE PALACE,BROADCAST DR|嘉皇臺,廣播道",KKL,7108011.006378281,18773.0,691,8626479.929612279,21058.0,691,20598223.858449653,29072.0,1790,13,26,37,"['A', 'B', 'C', 'D']",12094343.221957065,23136.88888888889,1177.6666666666667,32,128,2002/09,21,blank,,False,,,POINT Z (22.3420412 114.1835975 0),22.342041199999997,114.1835975
91,"ONE BEACON HILL(Block 15),BEACON HILL RD|畢架山一號15座,筆架山道",KKL,19301034.588227227,19410.0,1502,19238388.262670383,19347.0,1502,,,1508,3,7,10,"['A', 'B']",19269711.425448805,19378.5,1505.0,11,22,2004/02,19,ONE BEACON HILL,畢架山一號,True,12.0,494.0,POINT Z (22.3408868 114.174717 0),22.340886800000003,114.17471699999999
92,"ONE BEACON HILL(Block 8),BEACON HILL RD|畢架山一號8座,筆架山道",KKL,11036045.0,9473.0,1025,11698930.0,10042.0,1025,12150950.0,10430.0,1165,3,8,11,"['A', 'B', 'C', 'D']",11628641.666666666,9981.666666666666,1109.5,12,48,2004/02,19,ONE BEACON HILL,畢架山一號,True,12.0,494.0,POINT Z (22.3408868 114.174717 0),22.340886800000003,114.17471699999999
93,"ONE BEACON HILL(Block 6),BEACON HILL RD|畢架山一號6座,筆架山道",KKL,13348547.025856478,25768.0,1060,10634880.842308102,21027.0,1060,15003128.64649392,28962.0,1106,3,8,11,"['A', 'B', 'C', 'D', 'E']",13135980.268837208,25532.066666666666,1086.8,12,60,2003/09,20,ONE BEACON HILL,畢架山一號,True,12.0,494.0,POINT Z (22.3408868 114.174717 0),22.340886800000003,114.17471699999999
94,"ONE BEACON HILL(Block 7),BEACON HILL RD|畢架山一號7座,筆架山道",KKL,,,1177,14447675.0,12275.0,1177,,,1197,3,8,11,"['A', 'B', 'C']",14447675.0,12275.0,1183.6666666666667,12,36,2003/09,20,ONE BEACON HILL,畢架山一號,True,12.0,494.0,POINT Z (22.3408868 114.174717 0),22.340886800000003,114.17471699999999
95,"ONE BEACON HILL(Block 1),BEACON HILL RD|畢架山一號1座,筆架山道",KKL,10966964.167225964,21387.0,1064,11251331.875773873,21475.0,1064,12537948.597389886,23446.0,1162,1,3,6,"['A', 'B', 'C', 'D', 'E', 'F']",11729211.000501052,22290.044444444444,1182.0555555555557,7,42,2003/09,20,ONE BEACON HILL,畢架山一號,True,12.0,494.0,POINT Z (22.3408868 114.174717 0),22.340886800000003,114.17471699999999
96,"ONE BEACON HILL(Block 17),BEACON HILL RD|畢架山一號17座,筆架山道",KKL,18768043.62793409,18874.0,1502,19490962.337137654,19601.0,1502,20564038.463171046,20135.0,1508,2,6,8,"['A', 'B']",19648948.22986565,19023.333333333332,1505.0,8,16,2004/02,19,ONE BEACON HILL,畢架山一號,True,12.0,494.0,POINT Z (22.3408868 114.174717 0),22.340886800000003,114.17471699999999
97,"ONE BEACON HILL(Block 19),BEACON HILL RD|畢架山一號19座,筆架山道",KKL,20684071.971339084,16198.0,1502,20334947.114671115,15914.0,1502,30471638.64215824,18101.0,2298,2,6,9,"['A', 'B']",22963938.657786366,16604.0,1635.0,9,18,2003/09,20,ONE BEACON HILL,畢架山一號,True,12.0,494.0,POINT Z (22.3408868 114.174717 0),22.340886800000003,114.17471699999999
98,"ONE BEACON HILL(Block 5),BEACON HILL RD|畢架山一號5座,筆架山道",KKL,10281600.0,9518.0,1050,10989792.0,10184.0,1050,22837004.815213412,20692.0,2311,3,8,11,"['A', 'B', 'B & C', 'C', 'D', 'E', 'F']",11905477.768978417,10703.84126984127,1284.5714285714287,12,84,2004/02,19,ONE BEACON HILL,畢架山一號,True,12.0,494.0,POINT Z (22.3408868 114.174717 0),22.340886800000003,114.17471699999999
99,"ONE BEACON HILL(Block 10),BEACON HILL RD|畢架山一號10座,筆架山道",KKL,10534541.30549268,21804.0,1025,10314709.334569953,21349.0,1025,14905794.992237756,27788.0,1138,3,8,11,"['A', 'B', 'C', 'D']",12742306.267299995,24528.75,1101.1666666666667,12,48,2004/02,19,ONE BEACON HILL,畢架山一號,True,12.0,494.0,POINT Z (22.3408868 114.174717 0),22.340886800000003,114.17471699999999
100,"YEE YUEN,DUMBARTON RD|怡苑,東寶庭道",KKL,6957179.132727304,7300.0,1121,7058577.9970749365,9549.0,1121,7058577.9970749365,9549.0,1121,1,2,2,['whole floor'],7024778.375625726,8799.333333333334,1121.0,4,4,1962/05,61,blank,,False,,,POINT Z (22.3319727 114.185878 0),22.331972699999998,114.185878
101,"ONE BEACON HILL(Block 18),BEACON HILL RD|畢架山一號18座,筆架山道",KKL,17384160.252165224,15243.0,1507,18097871.78876855,15861.0,1507,21097570.692676682,28516.0,1508,3,6,9,"['A', 'B']",19172269.05933254,21745.833333333332,1507.5,10,20,2004/02,19,ONE BEACON HILL,畢架山一號,True,12.0,494.0,POINT Z (22.3408868 114.174717 0),22.340886800000003,114.17471699999999
102,"ONE BEACON HILL(Block 11),BEACON HILL RD|畢架山一號11座,筆架山道",KKL,10514732.270750193,20038.0,1025,12490804.273110542,21336.0,1025,22197733.29864276,26409.0,2128,3,8,11,"['A', 'B', 'C', 'C & D', 'D']",14353925.827133635,23693.2,1306.6,12,60,2004/02,19,ONE BEACON HILL,畢架山一號,True,12.0,494.0,POINT Z (22.3408868 114.174717 0),22.340886800000003,114.17471699999999
103,15 GRAMPIAN RD|15 嘉林邊道,KKL,,,610,,,610,,,836,2,3,4,"['A', 'B', 'C']",,,690.6666666666666,5,15,1966/07,57,blank,,False,,,POINT Z (22.329014 114.1865434 0),22.329014,114.18654340000002
104,19 GRAMPIAN RD|19 嘉林邊道,KKL,5829436.21080014,11052.0,1119,5914356.517526418,11213.0,1119,6095801.148047161,11557.0,1119,1,2,3,"['B', 'C', 'D']",5959717.675156604,11299.0,1119.0,3,9,1963/05,60,blank,,False,,,POINT Z (22.329014 114.1865434 0),22.329014,114.18654340000002
105,"CAMBRIDGE GARDEN,LANCASHIRE RD|劍穚花園,蘭開夏道",KKL,,,4517,,,4517,,,4568,2,6,10,"['1', '2', '4']",,,4551.0,12,36,1990/05,33,blank,,False,,,POINT Z (22.3305343 114.179745 0),22.3305343,114.179745
106,"ONE LASALLE,LA SALLE RD|ONE LASALLE,喇沙利道",KKL,33835585.99064796,35278.0,2203,35256991.35484492,36760.0,2203,36330505.64995652,38120.0,2217,2,5,7,"['A', 'B']",35158724.67589802,36774.166666666664,2210.0,7,14,2010/05,13,blank,,False,,,POINT Z (22.328079 114.181717 0),22.328079000000002,114.18171699999999
107,"LUNG CHEUNG COURT(Block 1),BROADCAST DR|龍翔苑1座,廣播道",KKL,,,803,,,803,,,809,2,3,4,"['3B', '4A', '6F']",,,805.0,3,9,1970/03,53,LUNG CHEUNG COURT,龍翔苑,True,2.0,15.0,POINT Z (22.342999 114.179868 0),22.342999,114.179868
108,"MERIDIAN HILL(Block 1),BROADCAST DR|尚御1座,廣播道",KKL,14209416.635094987,18596.0,1355,12264666.3429812,17565.0,1355,18714676.998092905,24534.0,1614,1,5,8,"['A', 'B', 'C', 'D']",16079065.661622092,22020.75,1543.25,9,36,2011/04,12,MERIDIAN HILL,尚御,True,3.0,108.0,POINT Z (22.3429933 114.1838088 0),22.342993300000003,114.1838088
109,"MERIDIAN HILL(Block 2),BROADCAST DR|尚御2座,廣播道",KKL,7610736.319996366,16198.0,988,8002194.564029944,17029.0,988,11782919.102458902,20555.0,1542,1,5,8,"['A', 'B', 'C', 'D']",8951037.300801562,18539.333333333332,1127.75,9,36,2011/04,12,MERIDIAN HILL,尚御,True,3.0,108.0,POINT Z (22.3427607 114.1839017 0),22.3427607,114.18390169999999
110,"MERIDIAN HILL(Block 3),BROADCAST DR|尚御3座,廣播道",KKL,7608719.770648374,6992.0,990,8839274.449286815,7329.0,990,12304023.0,20312.0,1609,1,5,8,"['A', 'B', 'C', 'D']",10642673.181375729,14488.0,1297.75,9,36,2011/04,12,MERIDIAN HILL,尚御,True,3.0,108.0,POINT Z (22.3425138 114.1838088 0),22.3425138,114.1838088
111,"ONE MAYFAIR(Block 5),BROADCAST DR|逸瓏5座,廣播道",KKL,21164451.278218035,29723.0,1489,22230399.653667767,31220.0,1489,22764441.925937172,31970.0,1491,2,6,8,"['A', 'B']",22412109.01926325,31496.666666666668,1490.0,10,20,2011/12,12,ONE MAYFAIR,逸瓏,True,3.0,71.0,POINT Z (22.3401951 114.1820059 0),22.3401951,114.18200590000001
112,"ONE MAYFAIR(Block 6),BROADCAST DR|逸瓏6座,廣播道",KKL,12562899.732310977,18103.0,1042,13224001.57919856,25495.0,1042,23095267.811375998,31284.0,1893,2,6,9,"['A', 'B', 'C']",16382644.542479277,25854.111111111113,1260.888888888889,9,27,2011/12,12,ONE MAYFAIR,逸瓏,True,3.0,71.0,POINT Z (22.3401951 114.1820059 0),22.3401951,114.18200590000001
113,"ONE MAYFAIR(Block 1),BROADCAST DR|逸瓏1座,廣播道",KKL,19584177.46358882,19866.0,1060,20836474.900217425,21452.0,1052,22478526.856173977,22802.0,1495,1,4,7,"['A', 'B', 'C']",20990229.546089333,21400.333333333332,1340.888888888889,8,24,2011/12,12,ONE MAYFAIR,逸瓏,True,3.0,71.0,POINT Z (22.3401951 114.1820059 0),22.3401951,114.18200590000001
114,"1 & 3 EDE RD(Block 2),EDE RD|1 & 3 EDE RD2座,義德道",KKL,23897721.9949904,34203.0,1409,25077216.75485028,35512.0,1409,36524148.257914804,44394.0,3156,6,9,12,"['A', 'AB', 'B', 'whole floor']",30043315.276489746,38729.55555555556,2151.25,9,36,2014/04,9,1 & 3 EDE RD,1 & 3 EDE RD,True,1.0,24.0,POINT Z (22.3407675 114.1778873 0),22.3407675,114.1778873
115,"EDEN GATE(Block 1),EDE RD|雲門1座,義德道",KKL,23674423.42389066,33820.0,1464,21511036.43482437,31172.0,1464,48483095.08280019,37159.0,3039,3,7,10,"['A', 'AB', 'B']",35087557.41255524,34815.666666666664,2026.0,11,33,2014/06,9,EDEN GATE,雲門,True,2.0,52.0,POINT Z (22.3412001 114.1780653 0),22.341200100000002,114.1780653
116,"EDEN GATE(Block 2),EDE RD|雲門2座,義德道",KKL,19769138.56876711,30356.0,1260,18733346.413989432,31542.0,1260,24468700.43327353,35961.0,1464,3,7,10,"['A', 'B']",21229673.194746386,33105.0,1362.0,11,22,2014/06,9,EDEN GATE,雲門,True,2.0,52.0,POINT Z (22.3412001 114.1780653 0),22.341200100000002,114.1780653
117,6 MORAY RD|6 慕禮道,KKL,,,1177,,,1177,,,1346,0,0,1,['whole floor'],,,1233.3333333333333,2,2,1955/01,68,blank,,False,,,POINT Z (22.331049 114.179541 0),22.331049,114.17954099999999
118,"THE GRAMPIAN,GRAMPIAN RD|THE GRAMPIAN,嘉林邊道",KKL,28143921.909785587,28747.0,2077,,,2077,30468374.145265743,30290.0,2134,2,5,7,"['A', 'B']",29306148.027525663,29518.5,2086.5,7,14,2016/06,7,blank,,False,,,POINT Z (22.328817 114.186251 0),22.328817,114.186251
119,"PARC INVERNESS(Block 2),INVERNESS RD|賢文禮士2座,延文禮士道",KKL,12971188.802757755,18176.0,833,12498680.279333321,19012.0,1286,14041654.427985342,20948.0,1514,2,6,9,"['A', 'B', 'C']",13143601.487586355,19431.888888888887,1364.7777777777778,9,27,2016/03,7,PARC INVERNESS,賢文禮士,True,4.0,149.0,POINT Z (22.3337311 114.186206 0),22.3337311,114.186206
120,"PARC INVERNESS(Block 3),INVERNESS RD|賢文禮士3座,延文禮士道",KKL,9667093.65765304,17902.0,883,8558546.606682546,21206.0,834,13836125.027941646,20789.0,1514,2,6,9,"['A', 'B', 'C']",10954712.287748458,20021.333333333332,1083.6666666666667,9,27,2016/03,7,PARC INVERNESS,賢文禮士,True,4.0,149.0,POINT Z (22.3337311 114.186206 0),22.3337311,114.186206
121,"PARC INVERNESS(Block 1),INVERNESS RD|賢文禮士1座,延文禮士道",KKL,15079763.803817015,22155.0,538,16064164.18132155,22888.0,538,22526390.28510629,28178.0,1696,2,6,9,"['A', 'B', 'C', 'D', 'E']",20161156.45958176,24916.583333333332,1479.9333333333334,9,45,2016/03,7,PARC INVERNESS,賢文禮士,True,4.0,149.0,POINT Z (22.3337311 114.186206 0),22.3337311,114.186206
122,"PARC INVERNESS(Block 5),INVERNESS RD|賢文禮士5座,延文禮士道",KKL,7949274.904761399,18780.0,898,8253994.186992631,19764.0,886,18948986.08140235,23197.0,1733,2,6,8,"['A', 'B', 'C', 'D', 'E']",14090528.523948096,21182.0,1425.3999999999999,10,50,2016/03,7,PARC INVERNESS,賢文禮士,True,4.0,149.0,POINT Z (22.3337311 114.186206 0),22.3337311,114.186206
123,"LUNG CHEUNG COURT(Block 2),BROADCAST DR|龍翔苑2座,廣播道",KKL,4204193.64428469,11025.0,803,4264444.219867182,11183.0,803,4310585.48344618,11304.0,809,0,1,2,"['1F', '2A', '2G', '3H']",4259741.1158660175,11170.666666666666,806.0,3,12,1970/03,53,LUNG CHEUNG COURT,龍翔苑,True,2.0,15.0,POINT Z (22.3424117 114.1792838 0),22.3424117,114.1792838
124,"AYTON(Block 2),INVERNESS RD|雋睿2座,延文禮士道",KKL,,,265,,,265,,,616,2,4,6,"['A', 'B', 'C', 'D', 'E']",3124951.5921383644,12590.25,369.0,6,30,2019/09,4,AYTON,雋睿,True,2.0,36.0,POINT Z (22.3305552 114.1856898 0),22.3305552,114.1856898
125,"AYTON(Block 1),INVERNESS RD|雋睿1座,延文禮士道",KKL,7583652.0,11868.0,639,8105601.0,12451.0,639,17115516.0,14407.0,1196,1,3,6,"['A', 'B', 'C', 'D']",10111638.5,12986.277777777776,945.0833333333334,7,28,2019/09,4,AYTON,雋睿,True,2.0,36.0,POINT Z (22.329282 114.185216 0),22.329282,114.185216
