,final_address,district,lowZone_value,lowZone_npsf_min,lowZone_nfa_min,midZone_value,midZone_npsf_min,midZone_nfa_min,highZone_value,highZone_npsf_max,highZone_nfa_max,oneSixth_floor,middle_floor,fifthSixth_floor,unit_list,value_avg,npsf_avg,unitSize_avg,noStorey,noFlat,op_date,bldgAge,est_name_en,est_name_ch,est_orNot,est_bldgNo,est_flatNo,final_coords,lat,long
0,"FLORA PLAZA(Block 9),PAK WO RD|花都廣場9座,百和路",NSS,4710030.0,11178.0,390.0,4448340.0,11406.0,390.0,6361784.0,13107.0,536.0,9.0,20.0,30.0,"['A', 'B', 'C', 'D', 'E', 'F', 'G', 'H']",5278262.708333333,12063.791666666666,438.75,34,272,1995/11,26,FLORA PLAZA,花都廣場,True,10.0,2720.0,POINT Z (22.4854804 114.141195 0),22.485480399999997,114.141195
1,"FLORA PLAZA(Block 6),PAK WO RD|花都廣場6座,百和路",NSS,4886310.0,11313.0,390.0,4918290.0,11342.0,390.0,6458264.0,13193.0,536.0,9.0,20.0,30.0,"['A', 'B', 'C', 'D', 'E', 'F', 'G', 'H']",5498976.541666667,12188.291666666666,453.75,34,272,1995/11,26,FLORA PLAZA,花都廣場,True,10.0,2720.0,POINT Z (22.4854804 114.141195 0),22.485480399999997,114.141195
2,"FLORA PLAZA(Block 1),PAK WO RD|花都廣場1座,百和路",NSS,4647240.0,11346.0,390.0,4767750.0,11771.0,390.0,6533304.0,13326.0,536.0,9.0,20.0,30.0,"['A', 'B', 'C', 'D', 'E', 'F', 'G', 'H']",5504183.416666667,12173.458333333334,453.75,34,272,1995/11,26,FLORA PLAZA,花都廣場,True,10.0,2720.0,POINT Z (22.4854804 114.141195 0),22.485480399999997,114.141195
3,"FLORA PLAZA(Block 7),PAK WO RD|花都廣場7座,百和路",NSS,4501380.0,11139.0,390.0,4834440.0,11500.0,390.0,6388048.0,13036.0,536.0,9.0,20.0,30.0,"['A', 'B', 'C', 'D', 'E', 'F', 'G', 'H']",5292926.666666667,12107.083333333334,438.75,34,272,1995/11,26,FLORA PLAZA,花都廣場,True,10.0,2720.0,POINT Z (22.4854804 114.141195 0),22.485480399999997,114.141195
4,"FLORA PLAZA(Block 10),PAK WO RD|花都廣場10座,百和路",NSS,4398030.0,11247.0,390.0,4992000.0,11648.0,390.0,6778256.0,13302.0,536.0,9.0,20.0,30.0,"['A', 'B', 'C', 'D', 'E', 'F', 'G', 'H']",5576609.541666667,12339.083333333334,453.75,34,272,1995/11,26,FLORA PLAZA,花都廣場,True,10.0,2720.0,POINT Z (22.4854804 114.141195 0),22.485480399999997,114.141195
5,"SHEUNG SHUI CTR(Block 1),CHI CHEONG RD|上水中心1座,智昌路",NSS,4308824.0,12748.0,338.0,4452474.0,13173.0,338.0,5217100.0,14957.0,355.0,5.0,12.0,20.0,"['1A', '1B', '1C', '1D', '1E', '1F', '1H', 'A', 'B', 'C', 'D', 'E', 'F', 'G', 'H']",4965644.733333333,14201.77777777778,349.68888888888887,24,360,1993/11,28,SHEUNG SHUI CTR,上水中心,True,6.0,2117.0,POINT Z (22.5011544 114.1290951 0),22.5011544,114.12909509999999
6,"SHEUNG SHUI CTR(Block 3),CHI CHEONG RD|上水中心3座,智昌路",NSS,4219930.0,11955.0,323.0,3926546.0000000005,11617.0,338.0,5188325.0,14767.0,355.0,5.0,12.0,20.0,"['3A', '3B', '3C', '3D', '3E', '3F', '3G', '3H', 'A', 'B', 'C', 'D', 'E', 'F', 'G', 'H']",4748131.5625,13597.958333333334,349.1875,24,384,1993/11,28,SHEUNG SHUI CTR,上水中心,True,6.0,2117.0,POINT Z (22.5008858 114.1299577 0),22.500885800000002,114.1299577
7,"SHEUNG SHUI CTR(Block 2),CHI CHEONG RD|上水中心2座,智昌路",NSS,4670822.0,13334.0,323.0,4731085.0,13327.0,338.0,5287370.0,15239.0,355.0,5.0,12.0,20.0,"['2A', '2B', '2C', '2D', '2E', '2F', '2G', '2H', 'A', 'B', 'C', 'D', 'E', 'F', 'G', 'H']",5038678.791666667,14457.5625,348.5625,24,384,1993/11,28,SHEUNG SHUI CTR,上水中心,True,6.0,2117.0,POINT Z (22.5009432 114.1293274 0),22.500943200000002,114.1293274
8,"WOODLAND CREST(Block 1),TIN PING RD|奕翠園1座,天平路",NSS,8562440.0,9114.0,920.0,8658120.0,9217.0,920.0,9828984.0,9822.0,1030.0,2.0,6.0,9.0,"['A', 'B', 'C', 'D', 'E', 'F', 'G', 'H']",9163088.708333334,9377.75,977.5,9,72,1996/04,25,WOODLAND CREST,奕翠園,True,8.0,558.0,POINT Z (22.5070388 114.1322769 0),22.5070388,114.13227690000001
9,"FLORA PLAZA(Block 8),PAK WO RD|花都廣場8座,百和路",NSS,4820192.0,11010.0,390.0,4900480.0,11234.0,390.0,6355352.0,13368.0,536.0,9.0,20.0,30.0,"['A', 'B', 'C', 'D', 'E', 'F', 'G', 'H']",5333904.666666667,12207.125,439.125,34,272,1995/11,26,FLORA PLAZA,花都廣場,True,10.0,2720.0,POINT Z (22.4854804 114.141195 0),22.485480399999997,114.141195
10,"UNION PLAZA(Block 2),WO MUK RD|海聯廣場2座,和睦路",NSS,4523428.0,9528.0,442.0,4611386.0,9605.0,442.0,6847524.0,11072.0,684.0,7.0,14.0,21.0,"['A', 'B', 'C', 'D', 'E', 'F', 'G', 'H']",5501274.666666667,10176.166666666666,543.375,20,160,1994/05,27,UNION PLAZA,海聯廣場,True,1.0,160.0,POINT Z (22.4999531 114.1413575 0),22.499953100000003,114.1413575
11,"FLORA PLAZA(Block 5),PAK WO RD|花都廣場5座,百和路",NSS,4777110.0,11103.0,390.0,4947930.0,11380.0,390.0,6460408.0,13788.0,536.0,9.0,20.0,30.0,"['A', 'B', 'C', 'D', 'E', 'F', 'G', 'H']",5536093.125,12281.083333333334,453.75,34,272,1995/11,26,FLORA PLAZA,花都廣場,True,10.0,2720.0,POINT Z (22.4854804 114.141195 0),22.485480399999997,114.141195
12,"LUNG FUNG GARDEN(Block B),LUNG SUM AVE|龍豐花園B座,龍琛路",NSS,4229580.0,11421.0,314.0,4336340.0,11727.0,314.0,6164535.0,14969.0,505.0,5.0,13.0,21.0,"['1', '2', '3', '4', '5', '6', '7', '8']",5317841.5,13042.541666666666,415.75,25,200,1991/07,30,LUNG FUNG GARDEN,龍豐花園,True,3.0,600.0,POINT Z (22.5027962 114.1294667 0),22.5027962,114.12946670000001
13,"FLORA PLAZA(Block 4),PAK WO RD|花都廣場4座,百和路",NSS,4780475.0,11076.0,390.0,4822601.0,11488.0,390.0,6339808.000000001,13717.0,540.0,9.0,20.0,30.0,"['A', 'B', 'C', 'D', 'E', 'F', 'G', 'H']",5316862.708333333,12160.666666666666,439.25,34,272,1995/11,26,FLORA PLAZA,花都廣場,True,10.0,2720.0,POINT Z (22.4848953 114.1414485 0),22.4848953,114.14144850000001
14,"AVON PARK(Block 7),YAT MING RD|碧湖花園7座,一鳴路",NSS,4698098.0,11720.0,397.0,4771543.0,11866.0,397.0,5967925.0,13315.0,485.0,5.0,12.0,20.0,"['A', 'B', 'C', 'D', 'E', 'F', 'G', 'H']",5277989.458333333,12314.541666666666,429.25,20,160,1994/03,27,AVON PARK,碧湖花園,True,7.0,1328.0,POINT Z (22.4869506 114.1432201 0),22.486950600000004,114.1432201
15,"VENICE GARDEN(Block 2),PO WING RD|威尼斯花園2座,保榮路",NSS,4646400.0,10323.0,439.0,4746280.0,10664.0,439.0,5391022.0,11248.0,494.0,4.0,10.0,15.0,"['A', 'B', 'C', 'D', 'E', 'F', 'G', 'H']",4910886.5,10834.416666666666,453.5,18,144,1993/03,28,VENICE GARDEN,威尼斯花園,True,2.0,288.0,POINT Z (22.4975126 114.1274462 0),22.4975126,114.12744620000001
16,"AVON PARK(Block 3),YAT MING RD|碧湖花園3座,一鳴路",NSS,4764397.0,11321.0,397.0,4331667.0,10911.0,397.0,6013515.0,12887.0,488.0,6.0,16.0,25.0,"['A', 'B', 'C', 'D', 'E', 'F', 'G', 'H']",5208832.166666667,12137.333333333334,429.625,25,200,1994/03,27,AVON PARK,碧湖花園,True,7.0,1328.0,POINT Z (22.4871342 114.1432932 0),22.4871342,114.1432932
17,"FOO HOO COURT,LUEN ON ST|富好閣,聯安街",NSS,3513364.0,11749.0,284.0,3541763.9999999995,12109.0,284.0,3860425.9999999995,12584.0,317.0,3.0,6.0,9.0,"['A', 'B', 'C', 'D']",3676707.1666666665,12216.166666666666,301.25,11,44,1991/12,30,blank,,False,,,POINT Z (22.4995899 114.1437714 0),22.499589899999997,114.14377140000002
18,"SHEUNG SHUI CTR(Block 6),CHI CHEONG RD|上水中心6座,智昌路",NSS,6079504.0,12405.0,488.0,6178080.0,12650.0,480.0,8426234.0,13547.0,622.0,6.0,13.0,20.0,"['6A', '6B', '6C', '6D', '6E', '6G', '6H', 'A', 'B', 'C', 'D', 'E', 'F', 'G', 'H']",7240782.311111111,12884.4,562.0888888888888,23,345,1993/11,28,SHEUNG SHUI CTR,上水中心,True,6.0,2117.0,POINT Z (22.5010553 114.13077 0),22.5010553,114.13077
19,"PARKFORD GARDEN,CHI FUK CIRT|百褔花園,置福圍",NSS,8096004.0,10187.0,756.0,8165556.0,10274.0,756.0,13559308.0,10915.0,1484.0,3.0,6.0,8.0,"['A', 'B', 'C', 'D', 'E', 'F', 'G', 'H']",9182361.75,10446.083333333334,883.7083333333334,8,64,1995/08,26,blank,,False,,,POINT Z (22.4922175 114.1354122 0),22.4922175,114.13541219999999
20,"GALAXY COURT(Block 7,FANLING TOWN CTR),FANLING STATION RD|粉嶺名都,7座(嘉麗閣),粉嶺車站路",NSS,4506375.0,11508.0,375.0,4595625.0,11736.0,375.0,5606976.0,12920.0,456.0,4.0,10.0,17.0,"['A', 'B', 'C', 'D', 'E', 'F', 'G', 'H']",4975911.0,12263.666666666666,406.25,20,160,1993/05,28,FANLING TOWN CTR,粉嶺名都,True,7.0,1688.0,POINT Z (22.4927378 114.1388726 0),22.4927378,114.1388726
21,"AVON PARK(Block 2),YAT MING RD|碧湖花園2座,一鳴路",NSS,4770749.0,11354.0,397.0,4895407.0,11845.0,397.0,6065840.0,12806.0,488.0,6.0,16.0,25.0,"['A', 'B', 'C', 'D', 'E', 'F', 'G', 'H']",5288363.333333333,12296.958333333334,430.8333333333333,25,200,1994/03,27,AVON PARK,碧湖花園,True,7.0,1328.0,POINT Z (22.4873464 114.1432845 0),22.487346399999996,114.1432845
22,"AVON PARK(Block 5),YAT MING RD|碧湖花園5座,一鳴路",NSS,4717551.0,11418.0,397.0,4845782.0,11547.0,397.0,5874544.0,13413.0,488.0,6.0,16.0,25.0,"['A', 'B', 'C', 'D', 'E', 'F', 'G', 'H']",5235630.25,12216.291666666666,429.625,25,200,1994/03,27,AVON PARK,碧湖花園,True,7.0,1328.0,POINT Z (22.4872337 114.143256 0),22.4872337,114.14325600000001
23,"ROME COURT(Block 4,SHEUNG SHUI TOWN CTR),CHI CHEONG RD|上水名都,4座(羅馬閣),智昌路",NSS,4551898.0,11647.0,377.0,4709204.0,12044.0,377.0,5830728.000000001,13317.0,461.0,5.0,13.0,21.0,"['A', 'B', 'C', 'D', 'E', 'F', 'G', 'H']",5100726.583333333,12582.083333333334,405.9166666666667,25,200,1992/08,29,SHEUNG SHUI TOWN CTR,上水名都,True,4.0,784.0,POINT Z (22.5009022 114.1313868 0),22.5009022,114.1313868
24,"GREENPARK VILLA(Block 2),KAT CHEUNG CRES|蔚翠花園2座,吉祥街",NSS,6736015.0,9344.0,715.0,6813235.0,9452.0,715.0,7160370.0,9787.0,742.0,4.0,8.0,11.0,"['A', 'B', 'C', 'D', 'E', 'F', 'G', 'H']",6902155.166666667,9557.541666666666,722.1666666666666,11,88,1994/01,27,GREENPARK VILLA,蔚翠花園,True,6.0,544.0,POINT Z (22.495581 114.133057 0),22.495581,114.13305700000001
25,"SAN FUNG BLDG,SAN FUNG AVE|新豐大廈,新豐路",NSS,4154304.0,11256.0,352.0,4186335.9999999995,11547.0,352.0,4658115.0,12165.0,385.0,6.0,12.0,17.0,"['A', 'B', 'C', 'D']",4416424.0,11796.333333333334,374.6666666666667,18,72,1993/10,28,blank,,False,,,POINT Z (22.5055529 114.1271392 0),22.505552899999998,114.1271392
26,"WING HAY COURT,WO FUNG ST|榮熙閣,和豐街",NSS,5384340.0,10140.0,402.0,5433192.0,10232.0,402.0,5482044.0,10324.0,531.0,3.0,6.0,9.0,"['A', 'B', 'C', 'D']",5433192.0,10232.0,466.5,10,40,1993/09,28,blank,,False,,,POINT Z (22.4983675 114.1420078 0),22.4983675,114.1420078
27,"CHEERFUL PARK(Block 1),KAT CHEUNG CRES|欣翠花園1座,吉祥街",NSS,5581369.112992204,8516.0,614.0,5655510.906905644,8768.0,614.0,7434918.054119959,10698.0,793.0,3.0,6.0,10.0,"['A', 'B', 'C', 'D', 'E', 'F', 'G', 'H']",6535200.617593835,9475.125,681.0,12,96,1992/04,29,CHEERFUL PARK,欣翠花園,True,4.0,384.0,POINT Z (22.496055 114.1315569 0),22.496055,114.1315569
28,"LUNG FUNG GARDEN(Block A),LUNG SUM AVE|龍豐花園A座,龍琛路",NSS,4448080.0,11430.0,328.0,4546780.0,11643.0,328.0,6308965.0,14765.0,505.0,5.0,13.0,21.0,"['1', '2', '3', '4', '5', '6', '7', '8']",5383580.5,12836.619047619048,418.5,25,200,1991/07,30,LUNG FUNG GARDEN,龍豐花園,True,3.0,600.0,POINT Z (22.5030936 114.1297919 0),22.503093600000003,114.1297919
29,"FLORA PLAZA(Block 2),PAK WO RD|花都廣場2座,百和路",NSS,4634656.0,11091.0,390.0,4776512.0,11482.0,390.0,6524192.0,13004.0,536.0,9.0,20.0,30.0,"['A', 'B', 'C', 'D', 'E', 'F', 'G', 'H']",5304251.666666667,12145.375,438.375,34,272,1995/11,26,FLORA PLAZA,花都廣場,True,10.0,2720.0,POINT Z (22.4854804 114.141195 0),22.485480399999997,114.141195
30,"FORUM COURT(Block 6,FANLING TOWN CTR),FANLING STATION RD|粉嶺名都,6座(富臨閣),粉嶺車站路",NSS,4689835.0,11873.0,375.0,5071800.0,12840.0,375.0,,,912.0,13.0,39.0,76.0,"['A', 'B', 'C', 'D', 'E', 'F', 'G', 'H']",5312557.4375,13082.5625,425.25,73,584,1993/05,28,FANLING TOWN CTR,粉嶺名都,True,7.0,1688.0,POINT Z (22.49297 114.1390583 0),22.49297,114.13905829999999
31,"FLORA PLAZA(Block 3),PAK WO RD|花都廣場3座,百和路",NSS,4623948.0,11196.0,390.0,4816406.0,11662.0,390.0,6489888.000000001,13189.0,536.0,9.0,20.0,30.0,"['A', 'B', 'C', 'D', 'E', 'F', 'G', 'H']",5391089.708333333,12331.083333333334,438.75,34,272,1995/11,26,FLORA PLAZA,花都廣場,True,10.0,2720.0,POINT Z (22.4854804 114.141195 0),22.485480399999997,114.141195
32,"WOODLAND CREST(Block 2),TIN PING RD|奕翠園2座,天平路",NSS,9068960.735299636,7295.0,935.0,9209439.496518122,7408.0,935.0,10735406.743338857,7839.0,1030.0,2.0,6.0,9.0,"['A', 'B', 'C', 'D', 'E', 'F', 'G', 'H']",9876633.693920916,7521.095238095238,981.25,9,72,1996/04,25,WOODLAND CREST,奕翠園,True,8.0,558.0,POINT Z (22.5071872 114.1325788 0),22.5071872,114.13257879999999
33,"VENICE GARDEN(Block 1),PO WING RD|威尼斯花園1座,保榮路",NSS,4213440.0,9576.0,439.0,4284280.0,9737.0,439.0,5463639.999999999,11353.0,494.0,4.0,10.0,15.0,"['A', 'B', 'C', 'D', 'E', 'F', 'G', 'H']",4859553.416666667,10716.541666666666,453.5,18,144,1993/03,28,VENICE GARDEN,威尼斯花園,True,2.0,288.0,POINT Z (22.4976429 114.1277249 0),22.4976429,114.1277249
34,"LUNG FUNG GARDEN(Block C),LUNG SUM AVE|龍豐花園C座,龍琛路",NSS,4534607.0,11570.0,328.0,4638900.0,11659.0,328.0,6448345.0,14814.0,505.0,5.0,13.0,21.0,"['1', '2', '3', '4', '5', '6', '7', '8']",5464627.333333333,13255.333333333334,418.5,25,200,1991/07,30,LUNG FUNG GARDEN,龍豐花園,True,3.0,600.0,POINT Z (22.5026247 114.1298615 0),22.502624700000002,114.1298615
35,"WOODLAND CREST(Block 6),TIN PING RD|奕翠園6座,天平路",NSS,8988400.0,9324.0,920.0,9093280.0,9563.0,920.0,9970158.0,10023.0,1030.0,2.0,6.0,9.0,"['A', 'B', 'C', 'D', 'E', 'F', 'G', 'H']",9516652.375,9744.041666666666,977.5,9,72,1996/04,25,WOODLAND CREST,奕翠園,True,8.0,558.0,POINT Z (22.506152 114.1323698 0),22.506152,114.13236979999999
36,"NEW YORK COURT(Block 2,SHEUNG SHUI TOWN CTR),CHI CHEONG RD|上水名都,2座(紐約閣),智昌路",NSS,4488729.0,11459.0,371.0,4535310.0,11796.0,371.0,5845480.0,13119.0,461.0,5.0,12.0,20.0,"['A', 'B', 'C', 'D', 'E', 'F', 'G', 'H']",5053587.5,12388.916666666666,407.7916666666667,24,192,1992/08,29,SHEUNG SHUI TOWN CTR,上水名都,True,4.0,784.0,POINT Z (22.5007424 114.1316963 0),22.5007424,114.1316963
37,"METROPOLIS PLAZA(Block 3),LUNG WAN ST|新都廣場3座,龍運街",NSS,5330664.0,12027.0,414.0,5464728.0,12165.0,414.0,7905939.999999999,13723.0,596.0,8.0,16.0,24.0,"['A', 'B', 'C', 'D', 'E', 'F', 'G', 'H']",6162380.041666667,12757.083333333334,483.25,25,200,1991/03,30,METROPOLIS PLAZA,新都廣場,True,3.0,592.0,POINT Z (22.5016194 114.1292912 0),22.5016194,114.1292912
38,"BERLIN COURT(Block 1,SHEUNG SHUI TOWN CTR),CHI CHEONG RD|上水名都,1座(柏林閣),智昌路",NSS,4493552.0,11573.0,371.0,4573688.0,11580.0,371.0,5919550.0,13066.0,455.0,5.0,12.0,20.0,"['A', 'B', 'C', 'D', 'E', 'F', 'G', 'H']",5061903.208333333,12477.041666666666,405.75,24,192,1992/08,29,SHEUNG SHUI TOWN CTR,上水名都,True,4.0,784.0,POINT Z (22.500728 114.131714 0),22.500728,114.13171399999999
39,"VIENNA GARDEN(Block 3),KAT CHEUNG CRES|維也納花園3座,吉祥街",NSS,4700174.0,8893.0,478.0,4763748.0,9016.0,478.0,6823704.0,10189.0,736.0,3.0,6.0,10.0,"['A', 'B', 'C', 'D', 'E', 'F', 'G', 'H']",5980463.291666667,9422.833333333334,638.25,12,96,1993/03,28,VIENNA GARDEN,維也納花園,True,3.0,288.0,POINT Z (22.4960815 114.1309763 0),22.4960815,114.1309763
40,"GREENPARK VILLA(Block 3),KAT CHEUNG CRES|蔚翠花園3座,吉祥街",NSS,6680960.0,9344.0,715.0,5492356.0,9356.0,554.0,7546674.0,10438.0,730.0,3.0,8.0,11.0,"['A', 'B', 'C', 'D', 'E', 'F', 'G', 'H']",6826150.041666667,9665.916666666666,706.5416666666666,12,96,1994/01,27,GREENPARK VILLA,蔚翠花園,True,6.0,544.0,POINT Z (22.4953512 114.1328343 0),22.495351199999998,114.13283429999998
41,"AVON PARK(Block 6),YAT MING RD|碧湖花園6座,一鳴路",NSS,4716757.0,11462.0,397.0,4860868.0,11765.0,397.0,6040675.000000001,13000.0,488.0,6.0,16.0,25.0,"['A', 'B', 'C', 'D', 'E', 'F', 'G', 'H']",5249723.0,12234.5,429.625,25,200,1994/03,27,AVON PARK,碧湖花園,True,7.0,1328.0,POINT Z (22.4873999 114.1433122 0),22.4873999,114.1433122
42,"WOODLAND CREST(Block 7),TIN PING RD|奕翠園7座,天平路",NSS,,,935.0,10431531.000000002,10187.0,935.0,,,1030.0,2.0,6.0,9.0,"['A', 'B', 'C', 'D', 'E', 'F', 'G', 'H']",10462070.500000002,10192.0,981.25,9,72,1996/04,25,WOODLAND CREST,奕翠園,True,8.0,558.0,POINT Z (22.5063694 114.1326485 0),22.5063694,114.13264850000002
43,"SHEUNG SHUI CTR(Block 4),CHI CHEONG RD|上水中心4座,智昌路",NSS,4978359.0,12381.0,353.0,5091319.0,12589.0,353.0,7156695.0,14760.0,535.0,6.0,13.0,20.0,"['4B', '4E', '4F', '4G', '4H', 'A', 'B', 'C', 'D', 'E', 'F', 'G', 'H']",5902081.35897436,13567.435897435897,440.3846153846154,23,299,1993/11,28,SHEUNG SHUI CTR,上水中心,True,6.0,2117.0,POINT Z (22.5008858 114.1299577 0),22.500885800000002,114.1299577
44,"GREENPARK VILLA(Block 5),KAT CHEUNG CRES|蔚翠花園5座,吉祥街",NSS,5893452.0,9926.0,554.0,5975444.0,9228.0,554.0,7486880.0,10849.0,730.0,3.0,8.0,11.0,"['A', 'B', 'C', 'D', 'E', 'F', 'G', 'H']",7123916.75,10198.083333333334,699.6666666666666,12,96,1994/01,27,GREENPARK VILLA,蔚翠花園,True,6.0,544.0,POINT Z (22.4948766 114.1333337 0),22.4948766,114.13333370000001
45,"METROPOLIS PLAZA(Block 1),LUNG WAN ST|新都廣場1座,龍運街",NSS,5407920.0,12059.0,435.0,5676750.0,12492.0,435.0,6547640.0,13343.0,506.0,8.0,16.0,23.0,"['A', 'B', 'C', 'D', 'E', 'F', 'G', 'H']",6059747.833333333,12698.083333333334,477.5,24,192,1991/03,30,METROPOLIS PLAZA,新都廣場,True,3.0,592.0,POINT Z (22.5024264 114.1290487 0),22.5024264,114.1290487
46,"CHEERFUL PARK(Block 4),KAT CHEUNG CRES|欣翠花園4座,吉祥街",NSS,5591084.0,9106.0,614.0,5916504.0,9224.0,614.0,7412171.0,10110.0,793.0,3.0,6.0,10.0,"['A', 'B', 'C', 'D', 'E', 'F', 'G', 'H']",6493619.916666667,9554.625,681.0,12,96,1992/04,29,CHEERFUL PARK,欣翠花園,True,4.0,384.0,POINT Z (22.4957045 114.132393 0),22.495704500000002,114.132393
47,"PARIS COURT(Block 3,SHEUNG SHUI TOWN CTR),CHI CHEONG RD|上水名都,3座(巴黎閣),智昌路",NSS,4028622.0,10512.0,377.0,4218108.0,10788.0,377.0,5616362.999999999,12519.0,461.0,5.0,13.0,21.0,"['A', 'B', 'C', 'D', 'E', 'F', 'G', 'H']",4785693.291666667,11764.583333333334,406.8333333333333,25,200,1992/08,29,SHEUNG SHUI TOWN CTR,上水名都,True,4.0,784.0,POINT Z (22.5009463 114.1315105 0),22.500946300000003,114.1315105
48,"WOODLAND CREST(Block 9),TIN PING RD|奕翠園9座,天平路",NSS,9330604.364098452,9517.0,937.0,9691133.3170222,9783.0,937.0,14717858.324586457,10324.0,1478.0,2.0,6.0,9.0,"['A', 'B', 'C', 'D', 'E', 'F', 'G']",10779011.565251023,9934.666666666666,1062.4285714285713,9,63,1996/04,25,WOODLAND CREST,奕翠園,True,8.0,558.0,POINT Z (22.5065026 114.133322 0),22.5065026,114.13332199999999
49,"WOODLAND CREST(Block 8),TIN PING RD|奕翠園8座,天平路",NSS,8768178.911006976,9008.0,935.0,8861945.992333762,9105.0,935.0,9860368.418797402,9711.0,1030.0,2.0,6.0,9.0,"['A', 'B', 'C', 'D', 'E', 'F', 'G', 'H']",9309276.192809109,9301.791666666666,981.25,9,72,1996/04,25,WOODLAND CREST,奕翠園,True,8.0,558.0,POINT Z (22.5063978 114.1330201 0),22.506397800000002,114.13302009999998
50,"AMBER COURT(Block 1,FANLING TOWN CTR),FANLING STATION RD|粉嶺名都,1座(雅碧閣),粉嶺車站路",NSS,4524408.0,11022.0,376.0,4638336.0,11460.0,376.0,5702736.0,13084.0,456.0,5.0,12.0,18.0,"['A', 'B', 'C', 'D', 'E', 'F', 'G', 'H']",5024827.25,12354.125,407.5,22,176,1993/05,28,FANLING TOWN CTR,粉嶺名都,True,7.0,1688.0,POINT Z (22.4918335 114.1401071 0),22.4918335,114.1401071
51,"GREENPARK VILLA(Block 6),KAT CHEUNG CRES|蔚翠花園6座,吉祥街",NSS,6901895.0,9633.0,715.0,7026305.0,9769.0,715.0,7370189.999999999,10218.0,729.0,3.0,8.0,11.0,"['A', 'B', 'C', 'D', 'E', 'F', 'G', 'H']",7116640.333333333,9857.166666666666,722.0,12,96,1994/01,27,GREENPARK VILLA,蔚翠花園,True,6.0,544.0,POINT Z (22.4951099 114.1336136 0),22.4951099,114.13361359999999
52,"EDEN GARDEN,WAI HON RD|海裕苑,維翰路",NSS,9962482.745375555,7133.0,1077.0,10077160.407732917,7214.0,1077.0,12021102.191003917,9392.0,1193.0,2.0,6.0,10.0,"['10A', '10B', '11B', '12A', '15B', '16B', '18B', '1A', '2A', '3A', '3B', '4A', '5A', '7B', '8A', '9A', 'A', 'B']",11245844.594539328,7615.0,1164.111111111111,12,216,1992/12,29,blank,,False,,,POINT Z (22.4951548 114.1300125 0),22.4951548,114.1300125
53,"ELEGANT COURT(Block 5,FANLING TOWN CTR),FANLING STATION RD|粉嶺名都,5座(怡景閣),粉嶺車站路",NSS,4641720.0,11486.0,376.0,4740608.0,11725.0,376.0,5513040.0,12939.0,456.0,5.0,12.0,19.0,"['A', 'B', 'C', 'D', 'E', 'F', 'G', 'H']",5014801.75,12329.875,407.5,23,184,1993/05,28,FANLING TOWN CTR,粉嶺名都,True,7.0,1688.0,POINT Z (22.4918335 114.1401071 0),22.4918335,114.1401071
54,"COMFORT COURT,LUEN WO RD|錦福大廈,聯和道",NSS,3699169.8935141405,7799.0,342.0,3758738.5789536424,7918.0,342.0,4549700.949913303,8433.0,428.0,3.0,8.0,11.0,"['A', 'B', 'C', 'D']",4014326.469886605,8165.555555555555,385.0,12,48,1994/02,27,blank,,False,,,POINT Z (22.4990197 114.1438773 0),22.499019699999998,114.1438773
55,"SHEUNG SHUI CTR(Block 5),CHI CHEONG RD|上水中心5座,智昌路",NSS,4596413.0,12881.0,353.0,4688193.0,13145.0,353.0,7292585.0,15085.0,535.0,6.0,13.0,20.0,"['5A', '5B', '5C', '5D', '5E', '5F', '5G', 'A', 'B', 'C', 'D', 'E', 'F', 'G', 'H']",5883869.555555556,13366.911111111112,440.8666666666666,23,345,1993/11,28,SHEUNG SHUI CTR,上水中心,True,6.0,2117.0,POINT Z (22.5009195 114.1303028 0),22.500919500000002,114.1303028
56,"DRAGON COURT(Block 4,FANLING TOWN CTR),FANLING STATION RD|粉嶺名都,4座(龍騰閣),粉嶺車站路",NSS,4611264.0,11495.0,376.0,4698872.0,11214.0,376.0,5612904.0,12930.0,456.0,5.0,13.0,21.0,"['A', 'B', 'C', 'D', 'E', 'F', 'G', 'H']",5034932.166666667,12367.666666666666,407.75,25,200,1993/05,28,FANLING TOWN CTR,粉嶺名都,True,7.0,1688.0,POINT Z (22.4918335 114.1401071 0),22.4918335,114.1401071
57,"GREENPARK VILLA(Block 4),KAT CHEUNG CRES|蔚翠花園4座,吉祥街",NSS,6954090.000000001,9726.0,715.0,7050615.0,9861.0,715.0,7732485.0,10695.0,730.0,3.0,8.0,11.0,"['A', 'B', 'C', 'D', 'E', 'F', 'G', 'H']",7370420.083333333,10241.708333333334,719.625,12,96,1994/01,27,GREENPARK VILLA,蔚翠花園,True,6.0,544.0,POINT Z (22.4951326 114.133113 0),22.4951326,114.133113
58,"GREENPARK VILLA(Block 1),KAT CHEUNG CRES|蔚翠花園1座,吉祥街",NSS,5550008.0,9094.0,538.0,5646848.0,9367.0,538.0,8242395.58255883,10596.0,845.0,3.0,8.0,11.0,"['A', 'B', 'C', 'D', 'E', 'F']",7242780.67441208,9746.0,732.3333333333334,12,72,1994/01,27,GREENPARK VILLA,蔚翠花園,True,6.0,544.0,POINT Z (22.4959617 114.1328343 0),22.4959617,114.13283429999998
59,"METROPOLIS PLAZA(Block 2),LUNG WAN ST|新都廣場2座,龍運街",NSS,5316588.000000001,11583.0,414.0,5480946.0,12160.0,414.0,7733292.0,13695.0,602.0,8.0,16.0,24.0,"['A', 'B', 'C', 'D', 'E', 'F', 'G', 'H']",6194606.708333333,12918.208333333334,480.75,25,200,1991/03,30,METROPOLIS PLAZA,新都廣場,True,3.0,592.0,POINT Z (22.5020588 114.1297509 0),22.5020588,114.1297509
60,"CANARY COURT(Block 3,FANLING TOWN CTR),FANLING STATION RD|粉嶺名都,3座(嘉蘭閣),粉嶺車站路",NSS,4568024.0,11135.0,376.0,4672176.0,11405.0,376.0,5548608.0,13139.0,456.0,5.0,13.0,21.0,"['A', 'B', 'C', 'D', 'E', 'F', 'G', 'H']",5010301.708333333,12322.083333333334,407.5,25,200,1993/05,28,FANLING TOWN CTR,粉嶺名都,True,7.0,1688.0,POINT Z (22.492305 114.13987 0),22.492304999999998,114.13987
61,"GRAND TOWER(Block B),LUEN WO RD|嘉宏中心B座,聯和道",NSS,3703045.5233986476,12184.0,297.0,3653809.363287799,12022.0,297.0,3662901.0,12333.0,297.0,4.0,10.0,15.0,"['A', 'B']",3678201.5039578914,12244.0,297.0,18,36,1992/11,29,GRAND TOWER,嘉宏中心,True,2.0,64.0,POINT Z (22.4978627 114.1427858 0),22.4978627,114.1427858
62,"AVON PARK(Block 8),YAT MING RD|碧湖花園8座,一鳴路",NSS,4877145.0,11281.0,397.0,4965278.999999999,11457.0,397.0,5824850.0,13264.0,485.0,5.0,12.0,21.0,"['A', 'B', 'C', 'D', 'E', 'F', 'G', 'H']",5256436.666666667,12280.541666666666,429.25,21,168,1994/03,27,AVON PARK,碧湖花園,True,7.0,1328.0,POINT Z (22.4868427 114.1433249 0),22.4868427,114.14332490000001
63,"VIENNA GARDEN(Block 2),KAT CHEUNG CRES|維也納花園2座,吉祥街",NSS,4660500.0,8610.0,478.0,4716426.0,8686.0,478.0,6462096.0,9979.0,732.0,3.0,6.0,10.0,"['A', 'B', 'C', 'D', 'E', 'F', 'G', 'H']",5772055.666666667,9118.666666666666,637.75,12,96,1993/03,28,VIENNA GARDEN,維也納花園,True,3.0,288.0,POINT Z (22.4958096 114.1306279 0),22.4958096,114.13062790000001
64,"VIENNA GARDEN(Block 1),KAT CHEUNG CRES|維也納花園1座,吉祥街",NSS,4756578.0,8727.0,476.0,4818718.0,8962.0,476.0,6786372.0,10447.0,732.0,3.0,6.0,10.0,"['A', 'B', 'C', 'D', 'E', 'F', 'G', 'H']",5925270.208333333,9364.583333333334,637.5,12,96,1993/03,28,VIENNA GARDEN,維也納花園,True,3.0,288.0,POINT Z (22.4959228 114.130326 0),22.4959228,114.130326
65,"GRAND TOWER(Block A),LUEN WO RD|嘉宏中心A座,聯和道",NSS,3643299.0000000005,12267.0,297.0,3689631.0,12423.0,297.0,3916836.0,13188.0,297.0,4.0,8.0,13.0,"['A', 'B']",3835210.5,12913.166666666666,297.0,14,28,1992/11,29,GRAND TOWER,嘉宏中心,True,2.0,64.0,POINT Z (22.4977503 114.1426697 0),22.4977503,114.1426697
66,"BRILLIANT COURT(Block 2,FANLING TOWN CTR),FANLING STATION RD|粉嶺名都,2座(百利閣),粉嶺車站路",NSS,4713912.0,11492.0,376.0,4795128.0,11729.0,376.0,5601048.0,13087.0,456.0,5.0,12.0,19.0,"['A', 'B', 'C', 'D', 'E', 'F', 'G', 'H']",5026356.625,12354.916666666666,407.5,23,184,1993/05,28,FANLING TOWN CTR,粉嶺名都,True,7.0,1688.0,POINT Z (22.4918335 114.1401071 0),22.4918335,114.1401071
67,"WOODLAND CREST(Block 5),TIN PING RD|奕翠園5座,天平路",NSS,8965930.953252912,8975.0,865.0,9059759.43395632,9072.0,865.0,13772387.743842067,10312.0,1472.0,2.0,6.0,9.0,"['A', 'B', 'C', 'D', 'E', 'F', 'G']",10365396.51638375,9865.904761904761,1033.2857142857142,9,63,1996/04,25,WOODLAND CREST,奕翠園,True,8.0,558.0,POINT Z (22.507535 114.1331362 0),22.507535,114.1331362
68,"AVON PARK(Block 1),YAT MING RD|碧湖花園1座,一鳴路",NSS,4839827.0,10940.0,397.0,4981556.0,12116.0,397.0,6199270.0,13141.0,488.0,6.0,16.0,25.0,"['A', 'B', 'C', 'D', 'E', 'F', 'G', 'H']",5320023.333333333,12406.166666666666,429.625,25,200,1994/03,27,AVON PARK,碧湖花園,True,7.0,1328.0,POINT Z (22.4872208 114.142796 0),22.487220800000003,114.14279599999999
69,"CHEERFUL PARK(Block 2),KAT CHEUNG CRES|欣翠花園2座,吉祥街",NSS,4307050.0,9977.0,382.0,4347924.0,10062.0,382.0,6954688.0,11827.0,676.0,3.0,6.0,10.0,"['A', 'B', 'C', 'D', 'E', 'F', 'G', 'H']",5569707.291666667,10814.541666666666,524.75,12,96,1992/04,29,CHEERFUL PARK,欣翠花園,True,4.0,384.0,POINT Z (22.4957894 114.1317195 0),22.495789399999996,114.1317195
70,"OTB BLDG FANLING,LUEN HING ST|粉嶺海外大廈,聯興街",NSS,,,315.0,,,315.0,,,396.0,2.0,2.0,4.0,"['A', 'D']",,,355.5,4,8,1984/01,37,blank,,False,,,POINT Z (22.498096 114.142534 0),22.498096,114.14253400000001
71,"FORTUNE HSE,CHI FUK CIRT|廣福苑,置福圍",NSS,8509830.800652716,7257.0,908.0,8588913.197738104,7332.0,908.0,15016095.286434768,9552.0,1816.0,3.0,6.0,9.0,"['A', 'B', 'C', 'D', 'E']",9354394.743174875,8506.333333333334,982.5333333333333,9,45,1996/09,25,blank,,False,,,POINT Z (22.4919322 114.1363876 0),22.491932199999997,114.13638759999999
72,"WO FUNG COURT,WO FUNG ST|和豐閣,和豐街",NSS,4466104.696145382,7498.0,428.0,4490193.718238939,7548.0,428.0,5585915.736830848,10337.0,537.0,4.0,6.0,9.0,"['A', 'B', 'C', 'D']",5010749.456169184,9001.083333333334,482.5,10,40,1991/03,30,blank,,False,,,POINT Z (22.4981563 114.14224 0),22.498156299999998,114.14223999999999
73,"CHEERFUL PARK(Block 3),KAT CHEUNG CRES|欣翠花園3座,吉祥街",NSS,4402932.0,9733.0,382.0,4500724.0,9821.0,382.0,6727552.0,12088.0,676.0,3.0,6.0,10.0,"['A', 'B', 'C', 'D', 'E', 'F', 'G', 'H']",5549162.583333333,10853.291666666666,524.75,12,96,1992/04,29,CHEERFUL PARK,欣翠花園,True,4.0,384.0,POINT Z (22.4956433 114.1320911 0),22.4956433,114.13209109999998
74,"WOODLAND CREST(Block 3),TIN PING RD|奕翠園3座,天平路",NSS,8956669.880612865,9198.0,935.0,9060961.838415109,9306.0,935.0,9895164.468850384,9823.0,1030.0,2.0,6.0,9.0,"['A', 'B', 'C', 'D', 'E', 'F', 'G', 'H']",9447274.80644702,9420.833333333334,981.25,9,72,1996/04,25,WOODLAND CREST,奕翠園,True,8.0,558.0,POINT Z (22.5073866 114.1328343 0),22.5073866,114.13283429999998
75,"CHOW WU HSE(Block F,YUK PO COURT),CHOI YUEN RD|旭埔苑,F座(周湖閣),彩園路",NSS,,,546.0,,,546.0,,,546.0,4.0,10.0,16.0,"['1', '2', '3', '4', '5', '6', '7', '8']",,,546.0,18,144,1982/12,39,YUK PO COURT,旭埔苑,True,8.0,954.0,POINT Z (22.499941 114.128293 0),22.499941,114.128293
76,"HON WU HSE(Block D,YUK PO COURT),CHOI YUEN RD|旭埔苑,D座(漢湖閣),彩園路",NSS,4919460.0,9010.0,546.0,5043402.0,9237.0,546.0,5199558.0,9523.0,546.0,4.0,10.0,16.0,"['1', '2', '3', '4', '5', '6', '7', '8']",5090813.0,9323.833333333334,546.0,19,152,1982/12,39,YUK PO COURT,旭埔苑,True,8.0,954.0,POINT Z (22.499941 114.128293 0),22.499941,114.128293
77,"TONG WU HSE(Block C,YUK PO COURT),CHOI YUEN RD|旭埔苑,C座(唐湖閣),彩園路",NSS,3465461.9999999995,6347.0,546.0,3490578.0,6393.0,546.0,3586128.0000000005,6568.0,546.0,4.0,10.0,15.0,"['2', '3', '4', '5', '6', '7']",3514056.0,6436.0,546.0,16,96,1982/12,39,YUK PO COURT,旭埔苑,True,8.0,954.0,POINT Z (22.499941 114.128293 0),22.499941,114.128293
78,"GOOD VIEW NEW VILLAGE(Block 9C),LING SHAN RD|美景新村9C座,靈山路",NSS,,,350.0,,,350.0,,,453.0,0.0,1.0,2.0,"['2', '3', '4', '5', '6']",,,405.6000000000001,3,15,1983/06,38,GOOD VIEW NEW VILLAGE,美景新村,True,3.0,40.0,POINT Z (22.5028465 114.1381642 0),22.5028465,114.1381642
79,"SEUNG WU HSE(Block G,YUK PO COURT),CHOI YUEN RD|旭埔苑,G座(商湖閣),彩園路",NSS,4904569.924457631,8778.0,546.0,4968824.37208951,8893.0,546.0,5095098.330044331,9119.0,546.0,4.0,8.0,15.0,"['1', '2', '3', '4', '5', '6', '7', '8']",4989497.542197158,8930.0,546.0,16,128,1982/12,39,YUK PO COURT,旭埔苑,True,8.0,954.0,POINT Z (22.499941 114.128293 0),22.499941,114.128293
80,"GOOD VIEW NEW VILLAGE(Block 4B),LING SHAN RD|美景新村4B座,靈山路",NSS,2977067.4444086784,6361.0,350.0,3082371.6693720412,6400.0,350.0,3337177.313010979,8416.0,367.0,0.0,1.0,2.0,"['1', '3', '4', '5', '6']",3176888.0348611395,7176.599999999999,359.0,3,15,1983/06,38,GOOD VIEW NEW VILLAGE,美景新村,True,3.0,40.0,POINT Z (22.502541 114.1383036 0),22.502541,114.13830359999999
81,"GOOD VIEW NEW VILLAGE(Block 13B),LING SHAN RD|美景新村13B座,靈山路",NSS,2198622.3702945034,2842.0,350.0,2191749.2889007386,2851.0,350.0,2282991.0808509244,2886.0,367.0,1.0,2.0,2.0,"['1', '2', '4', '5', '6']",2382182.772895095,3481.3333333333335,358.6000000000001,2,10,1983/06,38,GOOD VIEW NEW VILLAGE,美景新村,True,3.0,40.0,POINT Z (22.5029623 114.1375023 0),22.502962300000004,114.13750230000001
82,"TSUN WU HSE(Block H,YUK PO COURT),CHOI YUEN RD|旭埔苑,H座(秦湖閣),彩園路",NSS,4308400.397299248,7711.0,546.0,4393328.015038773,7863.0,546.0,4935840.0,9040.0,546.0,3.0,9.0,15.0,"['1', '2', '4', '5', '6', '7']",4492659.04045779,8076.833333333333,546.0,19,114,1982/12,39,YUK PO COURT,旭埔苑,True,8.0,954.0,POINT Z (22.499941 114.128293 0),22.499941,114.128293
83,6-20 SAN LOK ST|6-20 新樂街,NSS,6103935.467222941,7287.0,630.0,6095558.994782673,7277.0,630.0,6277328.446736478,7494.0,630.0,1.0,2.0,2.0,"['A', 'C', 'E', 'F']",6204871.960128166,7407.5,630.0,2,8,1974/04,47,blank,,False,,,POINT Z (22.5039286 114.1286449 0),22.503928600000002,114.1286449
84,"MING WU HSE(Block B,YUK PO COURT),CHOI YUEN RD|旭埔苑,B座(明湖閣),彩園路",NSS,4745889.375523253,8494.0,546.0,4840874.211152987,8664.0,546.0,5050399.583865633,9039.0,546.0,3.0,10.0,16.0,"['1', '2', '3', '4', '5', '6', '8']",4877564.431974667,8729.666666666666,546.0,18,126,1982/12,39,YUK PO COURT,旭埔苑,True,8.0,954.0,POINT Z (22.499941 114.128293 0),22.499941,114.128293
85,"YAN HEI HSE(Block C,Phase 1,YAN SHING COURT),15 WAH MING RD|欣盛苑,1期,C座(欣喜閣),15 華明路",NSS,2809807.0,6351.0,401.0,2906448.0,6579.0,401.0,4378260.0,7480.0,645.0,6.0,18.0,29.0,"['1', '10', '2', '3', '4', '5', '6', '7', '8', '9']",3605540.5428571426,6883.8190476190475,511.0,32,320,1993/09,28,YAN SHING COURT,欣盛苑,True,7.0,2135.0,POINT Z (22.487455 114.139492 0),22.487454999999997,114.13949199999999
86,"YAN YIU HSE(Block E,Phase 2,YAN SHING COURT),15 WAH MING RD|欣盛苑,2期,E座(欣耀閣),15 華明路",NSS,2691512.0,6127.0,401.0,2776925.0,6337.0,401.0,4229265.0,7171.0,645.0,7.0,18.0,30.0,"['1', '10', '2', '3', '4', '5', '6', '7', '8', '9']",3394384.6999999997,6685.366666666666,511.0,33,330,1993/09,28,YAN SHING COURT,欣盛苑,True,7.0,2135.0,POINT Z (22.4871847 114.1392441 0),22.487184699999997,114.13924409999998
87,"YAN CHOI HSE(Block F,Phase 2,YAN SHING COURT),15 WAH MING RD|欣盛苑,2期,F座(欣彩閣),15 華明路",NSS,2643392.0,6381.0,401.0,2732012.9999999995,6493.0,401.0,4649805.0,7209.0,645.0,6.0,18.0,30.0,"['1', '10', '2', '3', '4', '5', '6', '7', '8', '9']",3442117.4333333336,6741.433333333333,511.0,33,330,1993/09,28,YAN SHING COURT,欣盛苑,True,7.0,2135.0,POINT Z (22.487063 114.138537 0),22.487063,114.13853700000001
88,"SUNNINGDALE GARDEN(Block 4),CHI CHEONG RD|順欣花園4座,智昌路",NSS,3314346.0,6497.0,428.0,3371340.0,6604.0,428.0,4462547.625593249,8620.0,583.0,6.0,12.0,18.0,"['A', 'B', 'C', 'D', 'E', 'F', 'G', 'H', 'J', 'K']",4041435.3145939824,7329.533333333333,530.1,19,190,1992/05,29,SUNNINGDALE GARDEN,順欣花園,True,4.0,659.0,POINT Z (22.5019123 114.1316496 0),22.5019123,114.1316496
89,"SUNNINGDALE GARDEN(Block 3),CHI CHEONG RD|順欣花園3座,智昌路",NSS,4389996.0,9765.0,428.0,4464468.0,9924.0,428.0,6006240.0,10716.0,583.0,4.0,10.0,18.0,"['A', 'B', 'C', 'D', 'E', 'F', 'G', 'H', 'J']",5335115.0,10164.333333333334,526.2222222222222,20,180,1992/05,29,SUNNINGDALE GARDEN,順欣花園,True,4.0,659.0,POINT Z (22.5015557 114.1320679 0),22.5015557,114.1320679
90,"WING FOK CTR(Block 4),LUEN CHIT ST|榮福中心4座,聯捷街",NSS,3937616.0,8558.0,431.0,4041487.0,8789.0,431.0,5314976.0,9621.0,592.0,5.0,15.0,24.0,"['A', 'B', 'C', 'E', 'F', 'H', 'J', 'K']",4671254.291666667,9026.42857142857,522.625,27,216,1993/09,28,WING FOK CTR,榮福中心,True,6.0,1303.0,POINT Z (22.5017465 114.1403589 0),22.5017465,114.14035890000001
91,"YAN YUET HSE(Block D,Phase 1,YAN SHING COURT),15 WAH MING RD|欣盛苑,1期,D座(欣悅閣),15 華明路",NSS,2669858.0,6296.0,401.0,2761286.0,6573.0,401.0,4562085.0,7363.0,645.0,10.0,20.0,30.0,"['1', '10', '3', '4', '5', '6', '7', '8', '9']",3413875.851851852,6774.0,506.22222222222223,27,243,1993/09,28,YAN SHING COURT,欣盛苑,True,7.0,2135.0,POINT Z (22.4874713 114.1394996 0),22.487471300000003,114.13949960000001
92,"YAN FAI HSE(Block G,Phase 2,YAN SHING COURT),15 WAH MING RD|欣盛苑,2期,G座(欣輝閣),15 華明路",NSS,2638156.2250989573,6429.0,401.0,2734999.415194362,6553.0,401.0,4442091.399949655,6956.0,645.0,7.0,19.0,30.0,"['1', '10', '2', '3', '4', '5', '6', '7', '8', '9']",3392323.4842199613,6716.111111111112,511.0,31,310,1993/09,28,YAN SHING COURT,欣盛苑,True,7.0,2135.0,POINT Z (22.486115 114.139083 0),22.486114999999998,114.13908300000001
93,"LUEN WO CTR,WO FUNG ST|聯和中心,和豐街",NSS,2845023.0048039975,8661.0,321.0,2852906.684761889,8685.0,321.0,3073321.2369179307,9356.0,321.0,3.0,4.0,5.0,"['A', 'C']",2973023.3085647593,9050.666666666666,321.0,3,6,1991/04,30,blank,,False,,,POINT Z (22.4989831 114.1430761 0),22.4989831,114.14307609999999
94,"SUNNINGDALE GARDEN(Block 1),CHI CHEONG RD|順欣花園1座,智昌路",NSS,2957052.0,6412.0,428.0,3014832.0,6547.0,428.0,3936999.0,7839.0,583.0,6.0,11.0,17.0,"['A', 'B', 'C', 'E', 'F', 'G', 'J', 'K']",3556389.5833333335,6885.791666666667,519.0,17,136,1992/05,29,SUNNINGDALE GARDEN,順欣花園,True,4.0,659.0,POINT Z (22.5015399 114.1327181 0),22.501539899999997,114.13271809999999
95,"SUNNINGDALE GARDEN(Block 2),CHI CHEONG RD|順欣花園2座,智昌路",NSS,3107280.0,6946.0,428.0,3144516.0,7032.0,428.0,4187689.0,7569.0,583.0,7.0,12.0,18.0,"['A', 'B', 'C', 'D', 'E', 'F', 'G', 'H', 'J', 'K']",3809650.5666666664,7183.299999999999,531.8,17,170,1992/05,29,SUNNINGDALE GARDEN,順欣花園,True,4.0,659.0,POINT Z (22.5012935 114.1323466 0),22.5012935,114.1323466
96,"WING FOK CTR(Block 3),LUEN CHIT ST|榮福中心3座,聯捷街",NSS,2748056.0000000005,5980.0,431.0,2823050.0,6142.0,431.0,3846170.0,6803.0,592.0,5.0,14.0,23.0,"['A', 'B', 'C', 'D', 'E', 'F', 'G', 'H', 'J', 'K']",3382167.1999999997,6334.5,535.6,27,270,1993/09,28,WING FOK CTR,榮福中心,True,6.0,1303.0,POINT Z (22.501383 114.1404518 0),22.501382999999997,114.1404518
97,"YAN LAI HSE(Block B,Phase 1,YAN SHING COURT),15 WAH MING RD|欣盛苑,1期,B座(欣麗閣),15 華明路",NSS,2727602.0,6802.0,401.0,2830658.9999999995,7059.0,401.0,4937475.0,7655.0,645.0,6.0,18.0,30.0,"['1', '10', '2', '3', '4', '5', '6', '7', '8', '9']",3370564.2222222225,7195.11111111111,511.0,33,330,1993/09,28,YAN SHING COURT,欣盛苑,True,7.0,2135.0,POINT Z (22.487046 114.140489 0),22.487046,114.14048899999999
98,"FANLING CTR(Phase 2),Block K,SAN WAN RD|粉嶺中心2期,K座,新運路",NSS,4657261.0,11387.0,361.0,4754370.0,12311.0,361.0,6695936.0,13804.0,512.0,7.0,15.0,23.0,"['1', '2', '3', '4', '5', '6', '7', '8']",5844798.666666667,12871.208333333334,454.4166666666667,25,200,1991/12,30,FANLING CTR,粉嶺中心,True,11.0,2200.0,POINT Z (22.4910725 114.1412646 0),22.4910725,114.1412646
99,"FANLING CTR(Phase 1),Block A,SAN WAN RD|粉嶺中心1期,A座,新運路",NSS,4749000.0,11153.0,375.0,4754625.0,11274.0,375.0,6377856.0,13319.0,544.0,7.0,15.0,23.0,"['1', '2', '3', '4', '5', '6', '7', '8']",5716888.25,12004.75,479.3333333333333,25,200,1990/12,31,FANLING CTR,粉嶺中心,True,11.0,2200.0,POINT Z (22.4900018 114.1425187 0),22.4900018,114.1425187
100,"FANLING CTR(Phase 1),Block D,SAN WAN RD|粉嶺中心1期,D座,新運路",NSS,4822875.0,10865.0,375.0,4915875.0,10455.0,375.0,6106943.999999999,13589.0,544.0,7.0,15.0,23.0,"['1', '2', '3', '4', '5', '6', '7', '8']",5555533.291666667,11680.708333333334,479.6666666666667,25,200,1990/12,31,FANLING CTR,粉嶺中心,True,11.0,2200.0,POINT Z (22.4906428 114.1417756 0),22.4906428,114.1417756
101,"FANLING CTR(Phase 1),Block G,SAN WAN RD|粉嶺中心1期,G座,新運路",NSS,4607250.0,11367.0,375.0,4718250.0,11703.0,375.0,6577504.0,13459.0,544.0,7.0,15.0,23.0,"['1', '2', '3', '4', '5', '6', '7', '8']",5568203.208333333,12363.333333333334,454.0,25,200,1990/12,31,FANLING CTR,粉嶺中心,True,11.0,2200.0,POINT Z (22.4904219 114.1413807 0),22.490421899999998,114.1413807
102,"SIN HUA BANK BLDG,LUEN SHING ST|新華銀行大廈,聯盛街",NSS,4545005.009741617,2995.0,492.0,4585978.343719255,3022.0,492.0,5196867.796790474,10322.0,492.0,4.0,7.0,10.0,"['A', 'B']",4871785.180871001,6633.666666666667,492.0,11,22,1989/02,32,blank,,False,,,POINT Z (22.4988738 114.1432154 0),22.498873800000002,114.14321540000002
103,"DAWNING VIEWS(Block 5),YAT MING RD|牽晴間5座,一鳴路",NSS,4970253.0,11825.0,389.0,5189187.0,11772.0,389.0,7191151.0,13752.0,577.0,8.0,17.0,26.0,"['A', 'B', 'C', 'D', 'E', 'F', 'G', 'H']",5764612.916666667,12939.25,448.5,29,232,1999/06,22,DAWNING VIEWS,牽晴間,True,12.0,2784.0,POINT Z (22.4868693 114.1445392 0),22.4868693,114.1445392
104,"DAWNING VIEWS(Block 4),YAT MING RD|牽晴間4座,一鳴路",NSS,5013043.000000001,11775.0,388.0,5153472.0,12036.0,388.0,7175292.0,14285.0,578.0,8.0,17.0,26.0,"['A', 'B', 'C', 'D', 'E', 'F', 'G', 'H']",5658177.041666667,13149.791666666666,432.625,29,232,1999/06,22,DAWNING VIEWS,牽晴間,True,12.0,2784.0,POINT Z (22.4866087 114.1439818 0),22.4866087,114.14398179999999
105,"DAWNING VIEWS(Block 7),YAT MING RD|牽晴間7座,一鳴路",NSS,4951192.0,11627.0,389.0,5255822.0,12141.0,389.0,8815424.0,13999.0,724.0,8.0,17.0,26.0,"['A', 'B', 'C', 'D', 'E', 'F', 'G', 'H']",6059464.458333333,13132.833333333334,466.125,29,232,1999/06,22,DAWNING VIEWS,牽晴間,True,12.0,2784.0,POINT Z (22.4864469 114.1450037 0),22.486446899999997,114.1450037
106,"DAWNING VIEWS(Block 6),YAT MING RD|牽晴間6座,一鳴路",NSS,4816801.0,11835.0,389.0,5098273.999999999,12197.0,389.0,7521772.000000001,13981.0,577.0,8.0,17.0,26.0,"['A', 'B', 'C', 'D', 'E', 'F', 'G', 'H']",5847476.541666667,13099.625,448.5,29,232,1999/06,22,DAWNING VIEWS,牽晴間,True,12.0,2784.0,POINT Z (22.48664 114.1447482 0),22.486639999999998,114.14474820000001
107,"DAWNING VIEWS(Block 3),YAT MING RD|牽晴間3座,一鳴路",NSS,4994724.0,11480.0,388.0,5166996.0,11737.0,388.0,7248697.999999999,13934.0,578.0,8.0,17.0,26.0,"['A', 'B', 'C', 'D', 'E', 'F', 'G', 'H']",5778754.666666667,12904.5,451.5,29,232,1999/06,22,DAWNING VIEWS,牽晴間,True,12.0,2784.0,POINT Z (22.4867509 114.1437728 0),22.4867509,114.1437728
108,"DAWNING VIEWS(Block 1),YAT MING RD|牽晴間1座,一鳴路",NSS,5152640.0,11668.0,388.0,5212392.0,12293.0,388.0,7354250.0,13991.0,575.0,8.0,17.0,26.0,"['A', 'B', 'C', 'D', 'E', 'F', 'G', 'H']",5873274.916666667,13207.791666666666,447.5,29,232,1999/06,22,DAWNING VIEWS,牽晴間,True,12.0,2784.0,POINT Z (22.4870983 114.1432881 0),22.4870983,114.1432881
109,"DAWNING VIEWS(Block 11),YAT MING RD|牽晴間11座,一鳴路",NSS,5057389.0,12025.0,389.0,5207543.0,12054.0,389.0,7973442.0,14141.0,639.0,8.0,17.0,26.0,"['A', 'B', 'C', 'D', 'E', 'F', 'G', 'H']",5963972.666666667,13307.791666666666,451.625,29,232,1999/06,22,DAWNING VIEWS,牽晴間,True,12.0,2784.0,POINT Z (22.4877572 114.1438889 0),22.487757199999997,114.1438889
110,"DAWNING VIEWS(Block 12),YAT MING RD|牽晴間12座,一鳴路",NSS,5176899.0,11597.0,387.0,5344082.0,11917.0,387.0,8794089.0,14111.0,719.0,8.0,17.0,26.0,"['A', 'B', 'C', 'D', 'E', 'F', 'G', 'H']",6485433.375,13041.375,506.125,29,232,1999/06,22,DAWNING VIEWS,牽晴間,True,12.0,2784.0,POINT Z (22.4877927 114.1438772 0),22.4877927,114.1438772
111,"DAWNING VIEWS(Block 2),YAT MING RD|牽晴間2座,一鳴路",NSS,4681821.0,11793.0,388.0,5040312.0,11948.0,388.0,7172402.0,13729.0,578.0,8.0,17.0,26.0,"['A', 'B', 'C', 'D', 'E', 'F', 'G', 'H']",5701854.541666667,12693.25,451.5,29,232,1999/06,22,DAWNING VIEWS,牽晴間,True,12.0,2784.0,POINT Z (22.4869439 114.1435173 0),22.4869439,114.1435173
112,"MOON WAH BLDG,SAN FUNG AVE|滿華大廈,新豐路",NSS,3224587.8111255537,7179.0,415.0,3224587.8111255537,7179.0,415.0,3803961.538809785,7620.0,516.0,4.0,4.0,5.0,"['A', 'B', 'D', 'F', 'G', 'H']",3528787.6683596335,7433.277777777777,464.6666666666667,2,12,1981/07,40,blank,,False,,,POINT Z (22.5033435 114.1264243 0),22.5033435,114.1264243
113,"DAWNING VIEWS(Block 9),YAT MING RD|牽晴間9座,一鳴路",NSS,4871058.0,11597.0,389.0,5049998.0,11794.0,389.0,7911459.0,13989.0,639.0,8.0,17.0,26.0,"['A', 'B', 'C', 'D', 'E', 'F', 'G', 'H']",5835663.5,12986.958333333334,452.625,29,232,1999/06,22,DAWNING VIEWS,牽晴間,True,12.0,2784.0,POINT Z (22.4874678 114.144848 0),22.4874678,114.144848
114,"DAWNING VIEWS(Block 10),YAT MING RD|牽晴間10座,一鳴路",NSS,5113889.0,12174.0,389.0,5254258.0,12561.0,389.0,7193759.999999999,13928.0,560.0,8.0,17.0,26.0,"['A', 'B', 'C', 'D', 'E', 'F', 'G', 'H']",5829180.708333333,13231.916666666666,442.75,29,232,1999/06,22,DAWNING VIEWS,牽晴間,True,12.0,2784.0,POINT Z (22.4875808 114.1445403 0),22.487580800000003,114.14454029999999
115,"FANLING CTR(Phase 1),Block C,SAN WAN RD|粉嶺中心1期,C座,新運路",NSS,4609500.0,11329.0,375.0,4760250.0,11663.0,375.0,6520384.0,13345.0,544.0,7.0,15.0,23.0,"['1', '2', '3', '4', '5', '6', '7', '8']",5732704.208333333,12024.083333333334,479.3333333333333,25,200,1990/12,31,FANLING CTR,粉嶺中心,True,11.0,2200.0,POINT Z (22.4904752 114.1420078 0),22.4904752,114.1420078
116,"FANLING CTR(Phase 1),Block B,SAN WAN RD|粉嶺中心1期,B座,新運路",NSS,4621500.0,11142.0,375.0,4828125.0,11196.0,375.0,6356640.0,13475.0,544.0,7.0,15.0,23.0,"['1', '2', '3', '4', '5', '6', '7', '8']",5609546.5,11783.625,479.3333333333333,25,200,1990/12,31,FANLING CTR,粉嶺中心,True,11.0,2200.0,POINT Z (22.490162 114.1423329 0),22.490161999999998,114.14233290000001
117,"DAWNING VIEWS(Block 8),YAT MING RD|牽晴間8座,一鳴路",NSS,5262813.0,11483.0,387.0,5353371.0,11807.0,387.0,8702057.0,14226.0,719.0,8.0,17.0,26.0,"['A', 'B', 'C', 'D', 'E', 'F', 'G', 'H']",6456019.833333333,13000.083333333334,506.125,29,232,1999/06,22,DAWNING VIEWS,牽晴間,True,12.0,2784.0,POINT Z (22.4874137 114.1452468 0),22.487413699999998,114.14524679999998
118,"FANLING CTR(Phase 2),Block H,SAN WAN RD|粉嶺中心2期,H座,新運路",NSS,4626576.0,11816.0,361.0,4742818.0,12187.0,361.0,6557663.0,14049.0,511.0,7.0,15.0,23.0,"['1', '2', '3', '4', '5', '6', '7', '8']",5554754.583333333,12928.583333333334,432.75,25,200,1991/12,30,FANLING CTR,粉嶺中心,True,11.0,2200.0,POINT Z (22.4905714 114.1411253 0),22.490571399999997,114.1411253
119,"FANLING CTR(Phase 1),Block E,SAN WAN RD|粉嶺中心1期,E座,新運路",NSS,4736250.0,10654.0,375.0,4854375.0,10970.0,375.0,6371872.0,13459.0,544.0,7.0,15.0,23.0,"['1', '2', '3', '4', '5', '6', '7', '8']",5490810.125,12243.083333333334,454.0,25,200,1990/12,31,FANLING CTR,粉嶺中心,True,11.0,2200.0,POINT Z (22.4900465 114.1419613 0),22.4900465,114.14196129999999
120,"FANLING CTR(Phase 2),Block J,SAN WAN RD|粉嶺中心2期,J座,新運路",NSS,4495894.0,11534.0,361.0,4600584.0,11795.0,361.0,6247827.0,13103.0,513.0,7.0,15.0,23.0,"['1', '2', '3', '4', '5', '6', '7', '8']",5536003.0,12240.166666666666,454.0833333333333,25,200,1991/12,30,FANLING CTR,粉嶺中心,True,11.0,2200.0,POINT Z (22.4909049 114.1414969 0),22.4909049,114.1414969
121,"FANLING CTR(Phase 1),Block F,SAN WAN RD|粉嶺中心1期,F座,新運路",NSS,4741875.0,11064.0,375.0,4824750.0,11331.0,375.0,6381664.0,13583.0,544.0,7.0,15.0,23.0,"['1', '2', '3', '4', '5', '6', '7', '8']",5529340.833333333,12319.875,454.0,25,200,1990/12,31,FANLING CTR,粉嶺中心,True,11.0,2200.0,POINT Z (22.4901778 114.1416827 0),22.4901778,114.1416827
122,"FANLING CTR(Phase 2),Block L,SAN WAN RD|粉嶺中心2期,L座,新運路",NSS,4690473.0,11825.0,361.0,4845703.0,12203.0,361.0,6461235.0,13907.0,513.0,7.0,15.0,23.0,"['1', '2', '3', '4', '5', '6', '7', '8']",5731238.583333333,12687.958333333334,454.0833333333333,25,200,1991/12,30,FANLING CTR,粉嶺中心,True,11.0,2200.0,POINT Z (22.4912838 114.1410324 0),22.4912838,114.1410324
123,"BELAIR MONTE(Block 5),MA SIK RD|綠悠軒5座,馬適路",NSS,5038605.0,10871.0,435.0,5220000.0,10979.0,435.0,7180400.0,13198.0,619.0,6.0,16.0,25.0,"['A', 'B', 'C', 'D', 'E', 'F', 'G', 'H']",6168364.083333333,11705.375,531.0416666666666,30,240,1998/12,23,BELAIR MONTE,綠悠軒,True,7.0,1680.0,POINT Z (22.5015235 114.1446553 0),22.501523499999998,114.14465530000001
124,"BELAIR MONTE(Block 3),MA SIK RD|綠悠軒3座,馬適路",NSS,4702785.0,10155.0,435.0,4715835.0,10273.0,435.0,6860996.0,12397.0,619.0,6.0,16.0,25.0,"['A', 'B', 'C', 'D', 'E', 'F', 'G', 'H']",5778355.458333333,11039.375,527.0,30,240,1998/12,23,BELAIR MONTE,綠悠軒,True,7.0,1680.0,POINT Z (22.501173 114.1454914 0),22.501173,114.14549140000001
125,"BELAIR MONTE(Block 2),MA SIK RD|綠悠軒2座,馬適路",NSS,5132565.0,10515.0,435.0,5240445.0,10752.0,435.0,7077027.0,12734.0,634.0,6.0,16.0,25.0,"['A', 'B', 'C', 'D', 'E', 'F', 'G', 'H']",6058140.708333333,11592.666666666666,527.625,30,240,1998/12,23,BELAIR MONTE,綠悠軒,True,7.0,1680.0,POINT Z (22.501434 114.14577 0),22.501434,114.14577
126,"BELAIR MONTE(Block 7),MA SIK RD|綠悠軒7座,馬適路",NSS,5011289.0,10555.0,449.0,5149581.0,10884.0,449.0,8182460.0,12118.0,715.0,6.0,16.0,25.0,"['A', 'B', 'C', 'D', 'E', 'F', 'G', 'H']",6375347.291666667,11300.166666666666,567.25,30,240,1998/12,23,BELAIR MONTE,綠悠軒,True,7.0,1680.0,POINT Z (22.5018854 114.1453985 0),22.5018854,114.14539850000001
127,"SAN FUNG HSE,SAN FUNG AVE|新豐樓,新豐路",NSS,,,355.0,,,355.0,,,360.0,1.0,1.0,1.0,"['E', 'F']",,,357.5,1,2,1966/07,55,blank,,False,,,POINT Z (22.5034443 114.1268888 0),22.503444299999998,114.1268888
128,"BELAIR MONTE(Block 6),MA SIK RD|綠悠軒6座,馬適路",NSS,5153009.999999999,10368.0,435.0,5265675.0,10582.0,435.0,6908040.0,12712.0,619.0,6.0,16.0,25.0,"['A', 'B', 'C', 'D', 'E', 'F', 'G', 'H']",5998510.291666667,11415.875,530.5,30,240,1998/12,23,BELAIR MONTE,綠悠軒,True,7.0,1680.0,POINT Z (22.5018282 114.144934 0),22.501828200000002,114.144934
129,"BELAIR MONTE(Block 4),MA SIK RD|綠悠軒4座,馬適路",NSS,4771515.0,10824.0,435.0,4921155.000000001,10946.0,435.0,7008937.0,12586.0,619.0,6.0,16.0,25.0,"['A', 'B', 'C', 'D', 'E', 'F', 'G', 'H']",5928538.958333333,11297.541666666666,527.0,30,240,1998/12,23,BELAIR MONTE,綠悠軒,True,7.0,1680.0,POINT Z (22.5008938 114.1451895 0),22.5008938,114.1451895
130,"BELAIR MONTE(Block 1),MA SIK RD|綠悠軒1座,馬適路",NSS,5202165.0,10411.0,435.0,5322225.0,10790.0,435.0,6979844.0,12588.0,619.0,6.0,16.0,25.0,"['A', 'B', 'C', 'D', 'E', 'F', 'G', 'H']",6030967.166666667,11567.5,527.0,30,240,1998/12,23,BELAIR MONTE,綠悠軒,True,7.0,1680.0,POINT Z (22.5017206 114.1460255 0),22.501720600000002,114.1460255
131,"PEARL VISTA,SAN LOK ST|明珠華軒,新樂街",NSS,5017842.56441336,11036.0,441.0,5133822.9168779915,11289.0,441.0,5326199.443700926,11724.0,449.0,5.0,10.0,16.0,"['A', 'B', 'C']",5165727.511102413,11378.333333333334,443.6666666666667,15,45,1998/12,23,blank,,False,,,POINT Z (22.503701 114.1276087 0),22.503701,114.12760870000001
132,"LOUVER MANSION,LUEN ON ST|聯發大廈,聯安街",NSS,3975823.504635376,4414.0,389.0,4021338.330758429,4421.0,389.0,4345145.4438800085,7448.0,428.0,4.0,8.0,10.0,"['A', 'B', 'C']",4120687.373772373,5510.222222222222,404.1111111111111,10,30,1999/05,22,blank,,False,,,POINT Z (22.4993597 114.1437264 0),22.4993597,114.14372639999999
133,"REGENTVILLE(Block 2),WO MUN ST|帝庭軒2座,和滿街",NSS,5261917.999999999,11747.0,422.0,5410040.0,12048.0,422.0,7738596.000000001,13551.0,618.0,7.0,19.0,30.0,"['A', 'B', 'C', 'D', 'E', 'F', 'G', 'H']",6113024.416666667,12697.541666666666,483.5,31,248,2000/09,21,REGENTVILLE,帝庭軒,True,4.0,1000.0,POINT Z (22.4997748 114.144285 0),22.4997748,114.14428500000001
134,"ROYAL JUBILEE(Block 1),SAN SHING AVE|海禧華庭1座,新成路",NSS,4709790.0,11172.0,387.0,4652514.0,11360.0,387.0,6260100.000000001,12589.0,542.0,8.0,14.0,20.0,"['A', 'B', 'C', 'D', 'E', 'F', 'G', 'H']",5157024.833333333,12064.375,429.5,18,144,2001/01,20,ROYAL JUBILEE,海禧華庭,True,2.0,280.0,POINT Z (22.5047596 114.1289093 0),22.504759600000003,114.12890929999999
135,"REGENTVILLE(Block 1),WO MUN ST|帝庭軒1座,和滿街",NSS,5170766.000000001,11335.0,422.0,5378390.0,11861.0,422.0,7636626.0,13663.0,618.0,7.0,19.0,30.0,"['A', 'B', 'C', 'D', 'E', 'F', 'G', 'H']",6048995.166666667,12580.166666666666,483.5,31,248,2000/09,21,REGENTVILLE,帝庭軒,True,4.0,1000.0,POINT Z (22.5003493 114.1437134 0),22.500349300000003,114.14371340000001
136,"REGENTVILLE(Block 5),WO MUN ST|帝庭軒5座,和滿街",NSS,5283862.0,11919.0,422.0,5499082.0,12541.0,422.0,6316524.0,13663.0,474.0,7.0,20.0,31.0,"['A', 'B', 'C', 'D', 'E', 'F', 'G', 'H']",5745157.916666667,12844.916666666666,447.8333333333333,32,256,2000/09,21,REGENTVILLE,帝庭軒,True,4.0,1000.0,POINT Z (22.5001992 114.1446688 0),22.5001992,114.1446688
137,"REGENTVILLE(Block 3),WO MUN ST|帝庭軒3座,和滿街",NSS,5232800.0,11355.0,422.0,5450552.0,11821.0,422.0,7428360.0,13880.0,618.0,7.0,19.0,30.0,"['A', 'B', 'C', 'D', 'E', 'F', 'G', 'H']",6023791.083333333,12544.875,483.5,31,248,2000/09,21,REGENTVILLE,帝庭軒,True,4.0,1000.0,POINT Z (22.5003493 114.1437134 0),22.500349300000003,114.14371340000001
138,"ROYAL JUBILEE(Block 2),SAN SHING AVE|海禧華庭2座,新成路",NSS,4633590.0,10923.0,387.0,4696380.0,11113.0,387.0,6252512.0,12950.0,542.0,8.0,13.0,19.0,"['A', 'B', 'C', 'D', 'E', 'F', 'G', 'H']",5178905.394631397,11992.375,429.5,17,136,2001/01,20,ROYAL JUBILEE,海禧華庭,True,2.0,280.0,POINT Z (22.5049816 114.1287468 0),22.5049816,114.12874679999999
139,"KENTWOOD PLACE,SAN SHING AVE|金湖居,新成路",NSS,4646669.919999201,8803.0,397.0,4934876.415094005,9349.0,397.0,6581282.520984743,11761.0,643.0,7.0,12.0,18.0,"['A', 'B', 'C', 'D']",5464137.9312682515,9988.083333333334,487.5,15,60,2000/03,21,blank,,False,,,POINT Z (22.5061567 114.1280732 0),22.5061567,114.1280732
140,"GRAND REGENTVILLE(Block 7),WO MUN ST|御庭軒7座,和滿街",NSS,5375907.0,12226.0,423.0,5462622.0,12560.0,423.0,6693240.0,13188.0,510.0,12.0,22.0,32.0,"['A', 'B', 'C', 'D', 'E', 'F', 'G', 'H']",5842900.375,12839.375,455.4166666666667,28,224,2002/10,19,GRAND REGENTVILLE,御庭軒,True,3.0,672.0,POINT Z (22.4998734 114.1448875 0),22.4998734,114.1448875
141,"GRAND REGENTVILLE(Block 8),WO MUN ST|御庭軒8座,和滿街",NSS,5399172.0,12266.0,423.0,5490117.0,12623.0,423.0,7796871.999999999,13695.0,596.0,12.0,22.0,32.0,"['A', 'B', 'C', 'D', 'E', 'F', 'G', 'H']",6168004.666666667,12960.458333333334,477.1666666666667,28,224,2002/10,19,GRAND REGENTVILLE,御庭軒,True,3.0,672.0,POINT Z (22.4995325 114.1445624 0),22.4995325,114.14456240000001
142,"GRAND REGENTVILLE(Block 6),WO MUN ST|御庭軒6座,和滿街",NSS,5367024.0,11983.0,423.0,5394942.000000001,12422.0,423.0,6539730.0,13684.0,510.0,12.0,22.0,32.0,"['A', 'B', 'C', 'D', 'E', 'F', 'G', 'H']",5869582.458333333,12906.875,455.4166666666667,28,224,2002/10,19,GRAND REGENTVILLE,御庭軒,True,3.0,672.0,POINT Z (22.5001961 114.1451895 0),22.5001961,114.1451895
143,"KENSINGTON GREEN(Block A),KA SIU CLOSE|嘉兆軒A座,嘉兆里",NSS,7086282.181394213,2699.0,567.0,7109554.04405889,2707.0,567.0,12787451.269793635,10241.0,995.0,1.0,2.0,3.0,"['A', 'B', 'C', 'D', 'E']",9482566.872009378,5288.833333333333,827.4,3,15,2000/12,21,KENSINGTON GREEN,嘉兆軒,True,1.0,15.0,POINT Z (22.4970309 114.1380597 0),22.4970309,114.13805970000001
144,"BELAIR VILLA,YU TAI RD|萬豪居,裕泰路",NSS,9428720.0,7199.0,1192.0,9428720.0,7199.0,1192.0,16111524.0,7945.0,2183.0,0.0,0.0,0.0,"['12A', '15B', '16A', '19A', '19B', '1B', '23B', '29', '31', '36', '3B', '40', '45', '47', '49', '6B']",12869785.976737818,7551.75,1685.9375,1,16,1997/12,24,blank,,False,,,POINT Z (22.493251 114.13148 0),22.493251,114.13148000000001
145,"NOBLE HILL(Block 6),MA SIK RD|皇府山6座,馬適路",NSS,6134555.0,9963.0,511.0,6233689.0,10108.0,511.0,13383743.0,12493.0,1297.0,5.0,10.0,17.0,"['A', 'B', 'C', 'D', 'E', 'E & F', 'F']",9371239.80952381,11485.857142857145,828.0,18,126,2006/01,15,NOBLE HILL,皇府山,True,7.0,814.0,POINT Z (22.503499 114.135916 0),22.503498999999998,114.135916
146,"NOBLE HILL(Block 2),MA SIK RD|皇府山2座,馬適路",NSS,5619898.0,11806.0,443.0,5792667.999999999,12309.0,443.0,6516414.0,13528.0,489.0,4.0,10.0,15.0,"['A', 'B', 'C', 'D', 'E', 'F', 'G', 'H']",5980600.5,12847.833333333334,466.0,16,128,2006/01,15,NOBLE HILL,皇府山,True,7.0,814.0,POINT Z (22.5037634 114.1347851 0),22.5037634,114.1347851
147,"NOBLE HILL(Block 3),MA SIK RD|皇府山3座,馬適路",NSS,6073518.0,12003.0,500.0,6428340.0,12286.0,500.0,7839504.0,13310.0,621.0,5.0,10.0,17.0,"['A', 'B', 'C', 'D', 'E', 'F']",6668847.444444444,12742.722222222224,524.0,18,108,2006/01,15,NOBLE HILL,皇府山,True,7.0,814.0,POINT Z (22.5039701 114.1349941 0),22.5039701,114.13499409999999
148,"NOBLE HILL(Block 1),MA SIK RD|皇府山1座,馬適路",NSS,5692993.0,12438.0,443.0,5734635.0,12639.0,443.0,6396120.0,13591.0,489.0,4.0,10.0,15.0,"['A', 'B', 'C', 'D', 'E', 'F', 'G', 'H']",6022722.125,12935.041666666666,466.0,16,128,2006/01,15,NOBLE HILL,皇府山,True,7.0,814.0,POINT Z (22.5036184 114.1345993 0),22.503618399999997,114.1345993
149,"NOBLE HILL(Block 7),MA SIK RD|皇府山7座,馬適路",NSS,6490716.0,12314.0,508.0,6501892.0,12454.0,508.0,8881975.0,13254.0,725.0,5.0,10.0,17.0,"['A', 'B', 'C', 'D', 'E', 'F']",7601651.055555556,12710.5,599.0,18,108,2006/01,15,NOBLE HILL,皇府山,True,7.0,814.0,POINT Z (22.503499 114.135916 0),22.503498999999998,114.135916
150,"NOBLE HILL(Block 5),MA SIK RD|皇府山5座,馬適路",NSS,6430845.861684421,11699.0,511.0,6538566.97467084,11852.0,511.0,10601620.0,13290.0,874.0,5.0,10.0,17.0,"['A', 'B', 'C', 'D', 'E', 'F']",9112003.724098012,12114.555555555555,749.8333333333334,18,108,2006/01,15,NOBLE HILL,皇府山,True,7.0,814.0,POINT Z (22.504024 114.1353425 0),22.504023999999998,114.13534250000001
151,"MAGDALENE GARDEN,PAK WO RD|禎祥園,百和路",NSS,,,1398.0,,,1398.0,,,1398.0,17.0,54.0,81.0,['whole floor'],,,1398.0,74,74,1999/09,22,MAGDALENE GARDEN,禎祥園,True,1.0,74.0,POINT Z (22.4914296 114.1360508 0),22.4914296,114.13605079999999
152,"ROYAL GREEN(Phase 1),Block 2,CHING HIU RD|御皇庭1期,2座,清曉路",NSS,4861304.0,11449.0,376.0,4719286.0,11894.0,377.0,6972407.0,13570.0,559.0,9.0,22.0,37.0,"['A', 'B', 'C', 'D', 'E', 'F', 'G', 'H']",5773767.375,12506.916666666666,464.25,40,320,2005/05,16,ROYAL GREEN,御皇庭,True,3.0,952.0,POINT Z (22.4948909 114.1272951 0),22.494890899999998,114.12729509999998
153,"TSUI LAI GARDEN(Block 2),FUNG NAM RD|翠麗花園2座,鳳南路",NSS,3872890.0,8077.0,427.0,3965122.0,8234.0,427.0,5124126.0,9498.0,601.0,4.0,14.0,23.0,"['A', 'B', 'C', 'D', 'E', 'F', 'G', 'H', 'J', 'K', 'L', 'M']",4684871.222222223,8535.861111111111,551.4722222222222,26,312,1989/11,32,TSUI LAI GARDEN,翠麗花園,True,6.0,1859.0,POINT Z (22.5082913 114.129188 0),22.5082913,114.12918799999998
154,"ROYAL GREEN(Phase 1),Block 1,CHING HIU RD|御皇庭1期,1座,清曉路",NSS,4751512.0,11421.0,376.0,4852224.0,11648.0,377.0,8405600.0,13607.0,700.0,9.0,22.0,37.0,"['A', 'B', 'C', 'D', 'E', 'F', 'G', 'H']",5940100.291666667,12437.875,481.7916666666667,40,320,2005/05,16,ROYAL GREEN,御皇庭,True,3.0,952.0,POINT Z (22.4948909 114.1272951 0),22.494890899999998,114.12729509999998
155,"ROYAL GREEN(Phase 2),Block 3,CHING HIU RD|御皇庭2期,3座,清曉路",NSS,4926352.0,10984.0,376.0,4999774.0,11081.0,377.0,10440300.0,13913.0,975.0,9.0,23.0,38.0,"['A', 'B', 'C', 'D', 'E', 'F', 'G', 'H']",6440920.833333333,12271.833333333334,536.0833333333334,39,312,2006/12,15,ROYAL GREEN,御皇庭,True,3.0,952.0,POINT Z (22.4947566 114.1262617 0),22.494756600000002,114.12626170000001
156,"NOBLE HILL(Block 8),MA SIK RD|皇府山8座,馬適路",NSS,6258492.0,11562.0,501.0,6236949.0,11579.0,501.0,9207450.0,12898.0,790.0,5.0,10.0,17.0,"['A', 'B', 'C', 'D', 'E', 'F']",7735285.666666667,12232.61111111111,637.1666666666666,18,108,2006/01,15,NOBLE HILL,皇府山,True,7.0,814.0,POINT Z (22.503499 114.135916 0),22.503498999999998,114.135916
157,"GLORIOUS PEAK,CHING HIU RD|顯峰,清曉路",NSS,5076336.0,11448.0,408.0,5283600.0,11467.0,408.0,6748340.0,13571.0,569.0,9.0,22.0,36.0,"['A', 'B', 'C', 'D', 'E', 'F']",6029701.777777777,12360.77777777778,490.1666666666667,37,222,2007/04,14,blank,,False,,,POINT Z (22.4951137 114.1277249 0),22.495113699999997,114.1277249
158,"CHOI PIK HSE(Block C,Phase 1,CHOI PO COURT),2 CHOI YUEN RD|彩蒲苑,1期,C座(彩碧閣),2 彩園路",NSS,3679806.0,9923.0,338.0,3799795.9999999995,10478.0,338.0,4954218.0,12126.0,438.0,8.0,18.0,29.0,"['1', '10', '11', '12', '13', '14', '15', '16', '2', '3', '4', '5', '6', '7', '8', '9']",4238288.333333333,11036.354166666666,384.875,34,544,1984/11,37,CHOI PO COURT,彩蒲苑,True,4.0,2096.0,POINT Z (22.502893 114.124813 0),22.502893,114.12481299999999
159,"CHOI CHING HSE(Block B,Phase 1,CHOI PO COURT),2 CHOI YUEN RD|彩蒲苑,1期,B座(彩晶閣),2 彩園路",NSS,3740984.0,10184.0,338.0,3801823.9999999995,10104.0,338.0,4700420.0,11930.0,438.0,6.0,17.0,28.0,"['1', '10', '11', '12', '13', '14', '15', '16', '2', '3', '4', '5', '6', '7', '8', '9']",4254053.5625,11088.8125,384.875,33,528,1985/06,36,CHOI PO COURT,彩蒲苑,True,4.0,2096.0,POINT Z (22.5022275 114.1246592 0),22.5022275,114.1246592
160,"YUNG WUI HSE(Block A,YUNG SHING COURT),FAI MING RD|雍盛苑,A座(雍薈閣),暉明路",NSS,2248040.9988424317,4662.0,206.0,2222478.940738096,4695.0,206.0,5093088.0,8359.0,636.0,8.0,20.0,33.0,"['1', '10', '11', '12', '13', '14', '15', '16', '17', '18', '19', '2', '20', '21', '22', '23', '24', '3', '4', '5', '6', '7', '8', '9']",3584082.522206167,6875.583333333333,427.36111111111114,40,960,2000/03,21,YUNG SHING COURT,雍盛苑,True,1.0,960.0,POINT Z (22.4824191 114.1372606 0),22.4824191,114.13726059999999
161,"FANLING GARDEN(Block 10),FAN LENG LAU RD|粉嶺花園10座,粉嶺樓路",NSS,,,466.0,4411622.0,9467.0,466.0,,,547.0,1.0,2.0,3.0,"['A', 'C', 'D']",4411622.0,9467.0,493.0,3,9,1987/09,34,FANLING GARDEN,粉嶺花園,True,10.0,94.0,POINT Z (22.4990266 114.1394996 0),22.4990266,114.13949960000001
162,"CHOI NGAN HSE(Block D,Phase 2,CHOI PO COURT),2 CHOI YUEN RD|彩蒲苑,2期,D座(彩顏閣),2 彩園路",NSS,3752476.0,10099.0,338.0,3855423.0,10367.0,338.0,4793472.0,12038.0,438.0,6.0,17.0,28.0,"['1', '10', '11', '12', '13', '14', '15', '16', '2', '3', '4', '5', '6', '7', '8', '9']",4169413.75,10861.416666666666,384.875,33,528,1985/06,36,CHOI PO COURT,彩蒲苑,True,4.0,2096.0,POINT Z (22.5024902 114.1241018 0),22.5024902,114.12410179999999
163,"CHOI YING HSE(Block A,Phase 1,CHOI PO COURT),2 CHOI YUEN RD|彩蒲苑,1期,A座(彩瑩閣),2 彩園路",NSS,3626532.0,10168.0,338.0,3787628.0,9579.0,338.0,4805736.0,11590.0,438.0,6.0,16.0,26.0,"['1', '10', '11', '12', '13', '14', '15', '16', '2', '3', '4', '5', '6', '7', '8', '9']",4170012.5625,10861.3125,384.875,31,496,1985/06,36,CHOI PO COURT,彩蒲苑,True,4.0,2096.0,POINT Z (22.5024902 114.1241018 0),22.5024902,114.12410179999999
164,"KA YIU HSE(Block C,Phase 2,KA SHING COURT),33 PAK WO RD|嘉盛苑,2期,C座(嘉耀閣),33 百和路",NSS,3157980.0,6702.0,438.0,3203774.9999999995,6955.0,435.0,5096319.999999999,8407.0,640.0,7.0,20.0,32.0,"['1', '10', '11', '12', '13', '14', '15', '16', '2', '3', '4', '5', '6', '7', '8', '9']",4113811.3333333335,7592.520833333333,543.3125,37,592,1995/06,26,KA SHING COURT,嘉盛苑,True,4.0,2336.0,POINT Z (22.4934588 114.1343206 0),22.493458800000003,114.1343206
165,"MAN SHANG COURT,MAN SHANG ST|民生閣,民生街",NSS,2915062.0,14310.0,202.0,3028064.0,14360.0,208.0,3112340.0,14617.0,215.0,3.0,4.0,5.0,"['A', 'B']",3062140.0,14458.666666666666,211.83333333333334,3,6,1996/04,25,blank,,False,,,POINT Z (22.5374253 114.1244094 0),22.5374253,114.1244094
166,"CHUN WU HSE(Block E,YUK PO COURT),CHOI YUEN RD|旭埔苑,E座(晉湖閣),彩園路",NSS,4793880.0,8780.0,546.0,4856124.0,8894.0,546.0,5046678.0,9243.0,546.0,5.0,10.0,17.0,"['1', '2', '3', '5', '6', '8']",4918823.0,9008.833333333334,546.0,15,90,1982/12,39,YUK PO COURT,旭埔苑,True,8.0,954.0,POINT Z (22.499941 114.128293 0),22.499941,114.128293
167,"8 ROYAL GREEN,CHING HIU RD|御景峰,清曉路",NSS,5514048.0,10667.0,432.0,5597424.000000001,10851.0,432.0,8825570.0,13424.0,762.0,9.0,22.0,36.0,"['A', 'B', 'C', 'D', 'E', 'F', 'G', 'H', 'J', 'K']",6994244.133333333,12071.333333333334,586.2,37,370,2009/09,12,blank,,False,,,POINT Z (22.4956223 114.1278178 0),22.4956223,114.1278178
168,"FANLING GARDEN(Block 4),FAN LENG LAU RD|粉嶺花園4座,粉嶺樓路",NSS,4405311.126708933,9081.0,466.0,4442983.73755652,9110.0,466.0,5655496.580384433,9422.0,604.0,1.0,2.0,3.0,"['A', 'B', 'C', 'D']",4925558.278031924,9253.5,520.75,3,12,1987/09,34,FANLING GARDEN,粉嶺花園,True,10.0,94.0,POINT Z (22.4994468 114.1401499 0),22.499446799999998,114.14014990000001
169,"KING SHING COURT(Phase 1),Block A,YAT MING RD|景盛苑1期,A座,一鳴路",NSS,3151848.0,6382.0,433.0,3189516.0,7221.0,433.0,4733010.0,7806.0,645.0,7.0,20.0,32.0,"['1', '10', '11', '12', '13', '14', '15', '16', '2', '3', '4', '5', '6', '7', '8', '9']",3978846.7291666665,7415.458333333333,536.6666666666666,38,608,1995/11,26,KING SHING COURT,景盛苑,True,4.0,2384.0,POINT Z (22.4877 114.140872 0),22.4877,114.140872
170,"LUEN WONG HSE,LUEN FAT ST|聯旺樓,聯發街",NSS,2342207.0,7100.0,287.0,2352539.0,7091.0,287.0,3539250.0,8796.0,473.0,2.0,3.0,4.0,"['B', 'C', 'D', 'E', 'F', 'G', 'H', 'I', 'J', 'K', 'L', 'M', 'N', 'O', 'P', 'Q']",3053831.8125,7783.333333333333,395.8125,5,80,1972/09,49,blank,,False,,,POINT Z (22.4984734 114.1417523 0),22.498473399999998,114.14175230000001
171,"FANLING GARDEN(Block 15),FAN LENG LAU RD|粉嶺花園15座,粉嶺樓路",NSS,4477142.543990515,4068.0,466.0,4491063.341185414,4081.0,466.0,5981322.525080625,7527.0,604.0,1.0,2.0,3.0,"['A', 'B', 'C']",4959070.997043387,5617.555555555556,512.0,3,9,1987/09,34,FANLING GARDEN,粉嶺花園,True,10.0,94.0,POINT Z (22.498248 114.1400105 0),22.498248,114.1400105
172,"WO FUNG BLDG,WO FUNG ST|和豐唐樓,和豐街",NSS,,,225.0,2340225.0,10065.0,225.0,,,290.0,2.0,3.0,4.0,"['A', 'B', 'C', 'D']",2629537.5,10233.0,243.75,5,20,1982/11,39,blank,,False,,,POINT Z (22.4993467 114.1429832 0),22.4993467,114.14298319999999
173,"CHING WU HSE(Block A,YUK PO COURT),CHOI YUEN RD|旭埔苑,A座(清湖閣),彩園路",NSS,4933109.999999999,9035.0,546.0,5011188.0,9178.0,546.0,5463276.0,10006.0,546.0,5.0,10.0,17.0,"['1', '2', '3', '4', '5', '6', '7', '8']",5253225.25,9621.291666666666,546.0,15,120,1982/12,39,YUK PO COURT,旭埔苑,True,8.0,954.0,POINT Z (22.499941 114.128293 0),22.499941,114.128293
174,"FANLING GARDEN(Block 9),FAN LENG LAU RD|粉嶺花園9座,粉嶺樓路",NSS,4680038.0,9737.0,466.0,4766248.0,9754.0,466.0,5921616.0,10561.0,604.0,1.0,2.0,3.0,"['A', 'B', 'C', 'D']",5237952.583333333,10077.083333333334,520.75,3,12,1987/09,34,FANLING GARDEN,粉嶺花園,True,10.0,94.0,POINT Z (22.4991648 114.1394532 0),22.499164800000003,114.1394532
175,"FANLING GARDEN(Block 13),FAN LENG LAU RD|粉嶺花園13座,粉嶺樓路",NSS,4477794.0,8238.0,466.0,4489910.0,8287.0,466.0,6674378.558800359,9731.0,604.0,1.0,2.0,3.0,"['A', 'B', 'C', 'D']",5471929.991949438,9054.111111111111,520.75,3,12,1987/09,34,FANLING GARDEN,粉嶺花園,True,10.0,94.0,POINT Z (22.4985101 114.1397318 0),22.4985101,114.13973179999999
176,"KA MING HSE(Block A,Phase 1,KA SHING COURT),33 PAK WO RD|嘉盛苑,1期,A座(嘉明閣),33 百和路",NSS,4468476.0,8909.0,438.0,4490070.0,9281.0,435.0,6236505.0,11196.0,645.0,7.0,20.0,32.0,"['1', '10', '11', '12', '13', '14', '15', '16', '2', '3', '4', '5', '6', '7', '8', '9']",5262389.395833333,9827.354166666666,539.1875,38,608,1995/06,26,KA SHING COURT,嘉盛苑,True,4.0,2336.0,POINT Z (22.494394 114.1341344 0),22.494394,114.13413440000001
177,"YAN KING HSE(Block C,Phase 2,KING SHING COURT),8 YAT MING RD|景盛苑,2期,C座(欣景閣),8 一鳴路",NSS,3243390.0,7225.0,438.0,3185940.0,7324.0,435.0,4955535.0,8360.0,645.0,7.0,19.0,32.0,"['1', '10', '11', '12', '13', '14', '15', '16', '2', '3', '4', '5', '6', '7', '8', '9']",4168975.8541666665,7681.458333333333,543.4791666666666,37,592,1996/02,25,KING SHING COURT,景盛苑,True,4.0,2384.0,POINT Z (22.4877037 114.1414736 0),22.487703699999997,114.1414736
178,"KA FAI HSE(Block B,Phase 1,KA SHING COURT),33 PAK WO RD|嘉盛苑,1期,B座(嘉輝閣),33 百和路",NSS,3027894.0,6583.0,433.0,3043695.0,6670.0,433.0,4652800.0,7619.0,640.0,8.0,20.0,32.0,"['1', '10', '11', '12', '13', '14', '15', '16', '2', '3', '4', '5', '6', '7', '8', '9']",3909130.2083333335,7206.5625,543.5625,36,576,1995/06,26,KA SHING COURT,嘉盛苑,True,4.0,2336.0,POINT Z (22.4940251 114.1345993 0),22.4940251,114.1345993
179,"TSUI LAI GARDEN(Block 1),FUNG NAM RD|翠麗花園1座,鳳南路",NSS,3812903.3346914123,7398.0,427.0,3870144.9501904463,8023.0,427.0,5204769.896561351,9091.0,591.0,5.0,13.0,22.0,"['A', 'B', 'C', 'D', 'E', 'F', 'G', 'H', 'J', 'K', 'L', 'M']",4630799.221563369,8270.72222222222,549.25,25,300,1989/11,32,TSUI LAI GARDEN,翠麗花園,True,6.0,1859.0,POINT Z (22.5080653 114.1295132 0),22.508065300000002,114.1295132
180,"ON SHING COURT(Block A),TIN PING RD|安盛苑A座,天平路",NSS,3531648.0,8758.0,375.0,3740250.0,8987.0,375.0,5459720.000000001,10649.0,595.0,7.0,18.0,28.0,"['1', '10', '11', '12', '14', '15', '17', '18', '2', '3', '4', '5', '6', '7', '8', '9']",4296503.875,9512.604166666666,454.8125,34,544,1990/02,31,ON SHING COURT,安盛苑,True,1.0,544.0,POINT Z (22.5023564 114.135024 0),22.5023564,114.135024
181,"FANLING GARDEN(Block 12),FAN LENG LAU RD|粉嶺花園12座,粉嶺樓路",NSS,,,466.0,,,466.0,,,604.0,2.0,2.0,3.0,"['A', 'B', 'C']",,,512.0,2,6,1987/09,34,FANLING GARDEN,粉嶺花園,True,10.0,94.0,POINT Z (22.4986557 114.1396389 0),22.4986557,114.1396389
182,"WING FAI CTR(Block 2),LUEN CHIT ST|榮輝中心2座,聯捷街",NSS,,,419.0,,,419.0,,,588.0,6.0,18.0,29.0,"['A', 'B', 'C', 'D', 'E', 'F', 'G', 'H', 'J', 'K']",,,523.8,32,320,1996/05,25,WING FAI CTR,榮輝中心,True,4.0,1189.0,POINT Z (22.5015382 114.1427742 0),22.5015382,114.1427742
183,"TSUI LAI GARDEN(Block 4),FUNG NAM RD|翠麗花園4座,鳳南路",NSS,3565877.0,8048.0,427.0,3640175.0,8267.0,427.0,5155293.0,9668.0,591.0,5.0,14.0,23.0,"['A', 'B', 'C', 'D', 'E', 'F', 'G', 'H', 'J', 'K', 'L', 'M']",4274826.583333333,8562.75,500.6666666666667,26,312,1989/11,32,TSUI LAI GARDEN,翠麗花園,True,6.0,1859.0,POINT Z (22.5083546 114.1283752 0),22.5083546,114.12837520000001
184,"TSUI LAI GARDEN(Block 5),FUNG NAM RD|翠麗花園5座,鳳南路",NSS,3997147.0000000005,8426.0,427.0,4081693.0,7970.0,427.0,5203800.0,9638.0,590.0,6.0,14.0,22.0,"['A', 'B', 'C', 'E', 'F', 'G', 'H', 'J', 'K', 'L', 'M']",4700828.787878788,8929.393939393942,530.4545454545455,25,275,1989/11,32,TSUI LAI GARDEN,翠麗花園,True,6.0,1859.0,POINT Z (22.5079661 114.1282126 0),22.5079661,114.1282126
185,"WING FOK CTR(Block 2),LUEN CHIT ST|榮福中心2座,聯捷街",NSS,2654960.0,5793.0,431.0,2733833.0000000005,5901.0,431.0,3673360.0000000005,6503.0,592.0,6.0,15.0,23.0,"['A', 'C', 'D', 'E', 'H', 'J', 'K']",3238533.952380953,6149.095238095238,528.2857142857143,25,175,1993/09,28,WING FOK CTR,榮福中心,True,6.0,1303.0,POINT Z (22.5011199 114.1415615 0),22.5011199,114.1415615
186,"FANLING GARDEN(Block 16),FAN LENG LAU RD|粉嶺花園16座,粉嶺樓路",NSS,4596004.735423891,4131.0,466.0,4592792.24376353,4146.0,466.0,5771068.923866288,4316.0,604.0,1.0,2.0,3.0,"['A', 'B', 'D']",5231195.683032713,4230.0,539.0,3,9,1987/09,34,FANLING GARDEN,粉嶺花園,True,10.0,94.0,POINT Z (22.4982548 114.1402428 0),22.4982548,114.14024280000001
187,"KA YEUNG HSE(Block D,Phase 2,KA SHING COURT),33 PAK WO RD|嘉盛苑,2期,D座(嘉揚閣),33 百和路",NSS,3090090.0,6823.0,435.0,3196815.0,7311.0,432.0,5017600.0,7840.0,640.0,8.0,21.0,32.0,"['1', '10', '11', '12', '13', '14', '15', '16', '2', '3', '4', '5', '6', '7', '8', '9']",4068297.6666666665,7487.5,543.0208333333334,35,560,1995/06,26,KA SHING COURT,嘉盛苑,True,4.0,2336.0,POINT Z (22.4928634 114.1340094 0),22.492863399999997,114.13400940000001
188,"WING FAI CTR(Block 3),LUEN CHIT ST|榮輝中心3座,聯捷街",NSS,2933419.0,6468.0,419.0,3054929.0,6718.0,419.0,4098870.0,7462.0,588.0,7.0,18.0,29.0,"['A', 'C', 'D', 'E', 'F', 'G', 'H', 'J', 'K']",3615778.648148148,6977.435185185185,518.2222222222222,32,288,1996/05,25,WING FAI CTR,榮輝中心,True,4.0,1189.0,POINT Z (22.5017681 114.1435336 0),22.5017681,114.14353359999998
189,"TSUI LAI GARDEN(Block 6),FUNG NAM RD|翠麗花園6座,鳳南路",NSS,3875879.0,7988.0,427.0,3972381.0,8272.0,427.0,5214420.0,9646.0,590.0,6.0,14.0,23.0,"['A', 'B', 'C', 'D', 'E', 'F', 'G', 'H', 'J', 'K', 'L', 'M']",4643164.222222222,8791.0,531.0833333333334,28,336,1989/11,32,TSUI LAI GARDEN,翠麗花園,True,6.0,1859.0,POINT Z (22.5077294 114.1284681 0),22.5077294,114.12846809999999
190,"YAN SAU HSE(Block A,Phase 1,YAN SHING COURT),15 WAH MING RD|欣盛苑,1期,A座(欣秀閣),15 華明路",NSS,2758524.0,6437.0,402.0,2840130.0,6369.0,402.0,3795454.0,7290.0,645.0,8.0,18.0,29.0,"['1', '2', '3', '4', '5', '7', '8', '9']",3331424.8333333335,6815.791666666667,519.75,34,272,1993/09,28,YAN SHING COURT,欣盛苑,True,7.0,2135.0,POINT Z (22.4865868 114.140266 0),22.4865868,114.140266
191,"TSUI LAI GARDEN(Block 3),FUNG NAM RD|翠麗花園3座,鳳南路",NSS,3932670.0,7971.0,427.0,4041128.0,8110.0,427.0,5035320.0,9618.0,591.0,5.0,14.0,23.0,"['A', 'B', 'C', 'D', 'E', 'F', 'G', 'H', 'J', 'K', 'L', 'M']",4638381.944444444,8479.77777777778,549.5555555555555,28,336,1989/11,32,TSUI LAI GARDEN,翠麗花園,True,6.0,1859.0,POINT Z (22.5085246 114.1288164 0),22.5085246,114.1288164
192,"FANLING GARDEN(Block 2),FAN LENG LAU RD|粉嶺花園2座,粉嶺樓路",NSS,4618471.34251743,9508.0,466.0,4658051.427331982,9538.0,466.0,6119896.905380587,9900.0,624.0,1.0,2.0,3.0,"['A', 'B', 'C']",5153526.659050354,9728.444444444445,518.6666666666666,3,9,1987/09,34,FANLING GARDEN,粉嶺花園,True,10.0,94.0,POINT Z (22.4990833 114.1402428 0),22.499083300000002,114.14024280000001
193,"WING FOK CTR(Block 5),LUEN CHIT ST|榮福中心5座,聯捷街",NSS,2843904.5128265866,6036.0,431.0,2902564.4539255216,6177.0,431.0,3901398.2562125074,6769.0,592.0,8.0,16.0,23.0,"['A', 'B', 'D', 'F', 'G', 'H', 'J', 'K']",3550179.196960906,6421.041666666667,541.625,24,192,1993/09,28,WING FOK CTR,榮福中心,True,6.0,1303.0,POINT Z (22.5015563 114.1410092 0),22.5015563,114.1410092
194,"YIN KING HSE(Block D,Phase 3,KING SHING COURT),8 YAT MING RD|景盛苑,3期,D座(賢景閣),8 一鳴路",NSS,3088776.0,6847.0,438.0,3261195.0000000005,6901.0,433.0,4723840.0,7834.0,640.0,8.0,20.0,32.0,"['1', '10', '11', '12', '13', '14', '15', '16', '2', '3', '4', '5', '6', '7', '8', '9']",3941810.1041666665,7271.895833333333,543.1666666666666,37,592,1996/02,25,KING SHING COURT,景盛苑,True,4.0,2384.0,POINT Z (22.4877 114.140872 0),22.4877,114.140872
195,"TAI KONG HSE,SAN KAN ST|大江樓,新勤街",NSS,,,280.0,,,280.0,,,327.0,2.0,3.0,4.0,"['B', 'C', 'D']",,,300.0,3,9,1981/04,40,blank,,False,,,POINT Z (22.5043477 114.1276552 0),22.504347699999997,114.12765520000002
196,"KIN FUNG BLDG,WO FUNG ST|建豐樓,和豐街",NSS,3461267.058147993,7353.0,260.0,3426433.1451460957,7279.0,260.0,3618270.3807777255,8023.0,460.0,2.0,3.0,4.0,"['A', 'B', 'C', 'D', 'E']",3521177.4998840704,7673.416666666667,411.0,5,25,1981/07,40,blank,,False,,,POINT Z (22.4991355 114.1432154 0),22.4991355,114.14321540000002
197,"TIN LONG HSE(Block 8,TIN PING EST),TIN PING RD|天平村,8座(天朗樓),天平路",NSS,1845005.2178712073,4683.0,208.0,1895828.5518676597,4812.0,208.0,2496046.3445911286,5692.0,443.0,9.0,18.0,28.0,"['1', '10', '12', '14', '18', '19', '20', '21', '5', '6', '9']",2252113.4434364396,5365.866666666667,391.8181818181818,28,308,1990/01,31,TIN PING EST,天平村,True,7.0,2459.0,POINT Z (22.5026732 114.1342893 0),22.5026732,114.13428929999999
198,"CHUEN WO BLDG,SAN FUNG AVE|全和大樓,新豐路",NSS,2863518.5436875545,7902.0,335.0,2871060.4337822665,7923.0,335.0,3658174.8589654164,8536.0,450.0,2.0,3.0,4.0,"['A', 'B', 'C', 'D', 'E', 'F']",3264609.5734928413,8230.888888888889,388.3333333333333,5,30,1981/12,40,blank,,False,,,POINT Z (22.5052181 114.126703 0),22.5052181,114.126703
199,"CHUNG MING HSE(Block 5,WAH MING EST),WAH MING RD|華明村,5座(頌明樓),華明路",NSS,2187375.0,5334.0,375.0,2259375.0,5488.0,375.0,3226766.0000000005,6193.0,566.0,11.0,22.0,30.0,"['10', '15', '16', '17', '18', '3', '4', '5', '6', '7', '8', '9']",2667531.0378787876,5784.103535353536,459.0833333333333,26,312,1990/07,31,WAH MING EST,華明村,True,7.0,2614.0,POINT Z (22.4840745 114.1411358 0),22.4840745,114.1411358
200,"FANLING GARDEN(Block 14),FAN LENG LAU RD|粉嶺花園14座,粉嶺樓路",NSS,4447438.847004438,6807.0,466.0,4350162.739595731,6825.0,466.0,5497066.68691956,7281.0,604.0,1.0,2.0,3.0,"['A', 'B', 'C', 'D']",4865570.523642291,7045.083333333333,520.75,3,12,1987/09,34,FANLING GARDEN,粉嶺花園,True,10.0,94.0,POINT Z (22.4983572 114.1398712 0),22.498357199999997,114.1398712
201,"SHUN MING HSE(Block 2,WAH MING EST),WAH MING RD|華明村,2座(信明樓),華明路",NSS,2172698.8075020122,8126.0,147.0,2221294.3674501353,8229.0,147.0,4188870.1375430888,10497.0,485.0,7.0,17.0,27.0,"['10', '12', '14', '16', '17', '19', '23', '24', '25', '27', '28', '30', '31', '4', '5', '6', '7']",3395358.159706728,9078.820512820514,321.29411764705884,31,527,1990/06,31,WAH MING EST,華明村,True,7.0,2614.0,POINT Z (22.4845085 114.1401731 0),22.4845085,114.14017309999998
202,"TIN MING HSE(Block 4,TIN PING EST),TIN PING RD|天平村,4座(天明樓),天平路",NSS,3128436.0,8841.0,348.0,3178692.0,8985.0,348.0,3365004.0,9373.0,366.0,6.0,11.0,17.0,"['1', '12', '16', '18', '19', '2', '20', '22', '23', '36', '40', '46', '48', '49', '52', '8', '9']",3230265.4901960786,9115.254901960783,354.4117647058824,17,289,1989/01,32,TIN PING EST,天平村,True,7.0,2459.0,POINT Z (22.501893 114.133142 0),22.501893,114.13314199999999
203,"TIN MEI HSE(Block 5,TIN PING EST),TIN PING RD|天平村,5座(天美樓),天平路",NSS,2160651.0,4833.0,381.0,2208798.0,4986.0,381.0,2754297.0,6082.0,531.0,9.0,20.0,29.0,"['1', '10', '12', '13', '14', '16', '17', '19', '21', '22', '24', '4', '5', '7', '9']",2488925.5555555555,5445.0888888888885,458.4888888888889,30,450,1989/01,32,TIN PING EST,天平村,True,7.0,2459.0,POINT Z (22.5023564 114.135024 0),22.5023564,114.135024
204,"TIN YEE HSE(Block 1,TIN PING EST),TIN PING RD|天平村,1座(天怡樓),天平路",NSS,3305453.860101727,8206.0,381.0,3400975.940276877,8482.0,381.0,4263644.345035705,9914.0,490.0,10.0,20.0,30.0,"['10', '15', '17', '19', '21', '22', '23', '24', '4', '6', '7', '8']",3605714.3840612373,8884.055555555557,399.1666666666667,30,360,1987/01,34,TIN PING EST,天平村,True,7.0,2459.0,POINT Z (22.50499 114.131411 0),22.50499,114.13141100000001
205,"TIN CHEUNG HSE(Block 2,TIN PING EST),TIN PING RD|天平村,2座(天祥樓),天平路",NSS,3705225.0,9252.0,381.0,3809619.0,9514.0,381.0,4760350.0,10243.0,490.0,8.0,18.0,25.0,"['15', '17', '2', '22', '23', '3', '4', '5', '6', '7']",4065314.4166666665,9849.050000000001,402.8,24,240,1986/10,35,TIN PING EST,天平村,True,7.0,2459.0,POINT Z (22.5023564 114.135024 0),22.5023564,114.135024
206,"CHEONG CHING HSE(Block A,CHEONG SHING COURT),WAH MING RD|昌盛苑,A座(昌靖閣),華明路",NSS,4048384.0,7457.0,512.0,4210688.0,7866.0,512.0,5436024.0,8656.0,649.0,9.0,22.0,33.0,"['1', '2', '3', '4', '5', '6', '7', '8']",4690209.125,8100.208333333333,580.5,36,288,2000/03,21,CHEONG SHING COURT,昌盛苑,True,4.0,1083.0,POINT Z (22.483789 114.137851 0),22.483789,114.137851
207,"CHEONG WAH BLDG,LUEN CHEONG ST|昌華樓,聯昌街",NSS,2685645.0,7825.0,333.0,2694302.9999999995,7813.0,333.0,3080064.0,8846.0,384.0,2.0,3.0,4.0,"['A', 'B', 'C', 'D', 'E', 'F']",2857212.2222222225,8069.944444444445,354.4444444444444,5,30,1977/01,44,blank,,False,,,POINT Z (22.4990262 114.1433548 0),22.4990262,114.1433548
208,"WING FAI CTR(Block 1),LUEN CHIT ST|榮輝中心1座,聯捷街",NSS,2925877.0,6614.0,419.0,3007162.9999999995,6817.0,419.0,4381188.0,7642.0,588.0,8.0,18.0,28.0,"['A', 'C', 'D', 'E', 'F', 'G', 'H', 'J', 'K']",3695470.851851852,7135.88888888889,518.2222222222222,29,261,1996/05,25,WING FAI CTR,榮輝中心,True,4.0,1189.0,POINT Z (22.5015246 114.1423097 0),22.5015246,114.14230970000001
209,"PO CHEUNG BLDG,LUEN ON ST|寶昌大樓,聯安街",NSS,3070320.0,6447.0,440.0,3058880.0,6894.0,440.0,3449599.9999999995,7840.0,496.0,2.0,3.0,4.0,"['1', '2', '3', '4', '5', '7', '8']",3352480.714285714,7040.619047619047,476.85714285714283,5,35,1975/06,46,blank,,False,,,POINT Z (22.4997403 114.142957 0),22.499740300000003,114.14295700000001
210,"TIM MING HSE(Block 7,WAH MING EST),WAH MING RD|華明村,7座(添明樓),華明路",NSS,1958340.0,4473.0,381.0,2034921.0,4631.0,381.0,2371650.0,5455.0,489.0,6.0,18.0,28.0,"['10', '11', '13', '15', '16', '18', '2', '20', '22', '23', '24', '3', '4', '5', '6', '7', '8', '9']",2173794.6764705884,4762.484749455337,456.7407407407407,32,576,1990/07,31,WAH MING EST,華明村,True,7.0,2614.0,POINT Z (22.4832833 114.1424026 0),22.4832833,114.14240259999998
211,"TIN HOR HSE(Block 3,TIN PING EST),TIN PING RD|天平村,3座(天賀樓),天平路",NSS,2693530.0,5497.0,381.0,2778300.0,5670.0,381.0,4299245.750245341,9209.0,490.0,10.0,20.0,30.0,"['1', '10', '11', '12', '13', '14', '15', '2', '20', '21', '22', '23', '24', '3', '4', '5', '7', '8']",3580424.6408028416,8709.473604826546,417.3333333333333,28,504,1986/09,35,TIN PING EST,天平村,True,7.0,2459.0,POINT Z (22.5023564 114.135024 0),22.5023564,114.135024
212,"WING FAI CTR(Block 4),LUEN CHIT ST|榮輝中心4座,聯捷街",NSS,3153394.0,6575.0,419.0,3181047.9999999995,6773.0,419.0,4144854.0,7864.0,588.0,7.0,18.0,29.0,"['A', 'B', 'C', 'D', 'E', 'F', 'G', 'H', 'J', 'K']",3709885.4333333336,7121.533333333333,523.8,32,320,1996/05,25,WING FAI CTR,榮輝中心,True,4.0,1189.0,POINT Z (22.5017681 114.1435336 0),22.5017681,114.14353359999998
213,"PING CHI HSE(Block A,TAI PING EST),PO PING RD|太平村,A座(平治樓),保平路",NSS,1834058.732342967,4754.0,377.0,1874181.1783176558,4858.0,377.0,1899643.4998015924,4924.0,572.0,10.0,18.0,23.0,"['1', '11', '2', '3', '7', '8', '9']",2005617.8480969106,5059.833333333333,446.85714285714283,18,126,1989/06,32,TAI PING EST,太平村,True,4.0,436.0,POINT Z (22.4984741 114.1263314 0),22.4984741,114.1263314
214,"PO CHEONG BLDG,WO LUNG ST|寶昌樓,和隆街",NSS,2886840.0,6763.0,405.0,2895345.0000000005,6797.0,405.0,3515114.311442935,7398.0,500.0,2.0,3.0,4.0,"['A', 'C', 'D']",3274418.715847594,6956.0,464.3333333333333,5,15,1973/03,48,blank,,False,,,POINT Z (22.4991224 114.1424723 0),22.499122399999997,114.1424723
215,"WING FOK CTR(Block 6),LUEN CHIT ST|榮福中心6座,聯捷街",NSS,2866581.0,6133.0,431.0,2935109.9999999995,6438.0,431.0,3973990.0,6983.0,592.0,6.0,14.0,23.0,"['B', 'C', 'D', 'E', 'F', 'G', 'H', 'J', 'K']",3589536.097222222,6556.416666666667,529.6666666666666,26,234,1993/09,28,WING FOK CTR,榮福中心,True,6.0,1303.0,POINT Z (22.5014827 114.1414736 0),22.5014827,114.1414736
216,"YIU MING HSE(Block 6,WAH MING EST),WAH MING RD|華明村,6座(耀明樓),華明路",NSS,2608326.0,5334.0,381.0,2670429.0,5461.0,381.0,2728620.0,5580.0,489.0,9.0,18.0,27.0,"['1', '12', '13', '14', '16', '17', '18', '20', '4', '5', '6', '9']",2669125.0,5458.333333333333,467.5,25,300,1990/07,31,WAH MING EST,華明村,True,7.0,2614.0,POINT Z (22.4824137 114.1414465 0),22.4824137,114.14144650000001
217,"CHEUNG YUE HSE(CHEUNG WAH EST),SAN WAN RD|祥華村(祥裕樓),新運路",NSS,3324256.3958683796,8682.0,358.0,3386902.179832838,8846.0,358.0,3910640.9090395677,9520.0,424.0,8.0,14.0,19.0,"['1', '11', '13', '6', '8']",3649816.7664908483,8995.2,397.3999999999999,14,70,1984/03,37,CHEUNG WAH EST,祥華村,True,13.0,909.0,POINT Z (22.4928965 114.1415218 0),22.4928965,114.14152179999999
218,"WO TAI BLDG,WO TAI ST|和泰樓,和泰街",NSS,,,565.0,3356380.0,5930.0,565.0,,,566.0,2.0,3.0,4.0,"['A', 'B', 'C', 'D', 'E', 'F', 'G', 'H', 'I', 'J', 'K']",3356380.0,5930.0,565.8787878787879,5,55,1974/01,47,blank,,False,,,POINT Z (22.4991359 114.1419171 0),22.4991359,114.14191709999999
219,"CHEUNG SHUN HSE(CHEUNG WAH EST),SAN WAN RD|祥華村(祥順樓),新運路",NSS,1950453.0,4250.0,423.0,1989369.0,4364.0,423.0,2386664.0,5170.0,476.0,8.0,16.0,23.0,"['11', '14', '5', '9']",2109102.5833333335,4784.083333333333,441.25,23,92,1984/03,37,CHEUNG WAH EST,祥華村,True,13.0,909.0,POINT Z (22.4928938 114.1427045 0),22.4928938,114.1427045
220,"WING FOK CTR(Block 1),LUEN CHIT ST|榮福中心1座,聯捷街",NSS,2659701.0,6029.0,431.0,2727368.0,6164.0,431.0,3723680.0,6505.0,592.0,7.0,16.0,24.0,"['A', 'B', 'C', 'D', 'E', 'G', 'H', 'J', 'K']",3366934.592592593,6220.222222222223,542.1111111111111,24,216,1993/09,28,WING FOK CTR,榮福中心,True,6.0,1303.0,POINT Z (22.5010183 114.1411021 0),22.501018300000002,114.1411021
221,"CHEUNG WO HSE(CHEUNG WAH EST),SAN WAN RD|祥華村(祥和樓),新運路",NSS,2137419.0,5053.0,423.0,2185641.0,5167.0,423.0,2450550.0,5362.0,465.0,11.0,18.0,25.0,"['11', '12', '2', '9']",2275530.9166666665,5190.083333333333,438.5,18,72,1984/03,37,CHEUNG WAH EST,祥華村,True,13.0,909.0,POINT Z (22.491917 114.141289 0),22.491917,114.14128899999999
222,"CHEUNG LAI HSE(CHEUNG WAH EST),SAN WAN RD|祥華村(祥禮樓),新運路",NSS,,,277.0,,,277.0,,,277.0,16.0,17.0,18.0,"['7', '8']",,,277.0,3,6,1984/06,37,CHEUNG WAH EST,祥華村,True,13.0,909.0,POINT Z (22.4934764 114.140266 0),22.4934764,114.140266
223,"SHUN CHUNG LAU,SAN KAN ST|慎忠樓,新勤街",NSS,,,327.0,,,327.0,,,630.0,2.0,2.0,3.0,"['A', 'B', 'C']",,,440.6666666666667,4,12,1982/06,39,blank,,False,,,POINT Z (22.5047481 114.1273301 0),22.504748100000004,114.1273301
224,"TIN HEE HSE(Block 6,TIN PING EST),TIN PING RD|天平村,6座(天喜樓),天平路",NSS,2584554.5693104914,6629.0,381.0,2901531.9210753776,7336.0,381.0,4090055.0041352687,7945.0,531.0,11.0,20.0,29.0,"['1', '11', '12', '13', '16', '19', '22', '24', '3', '5', '6']",3392103.8966768235,7550.797619047618,448.09090909090907,28,308,1989/01,32,TIN PING EST,天平村,True,7.0,2459.0,POINT Z (22.501606 114.134638 0),22.501606,114.134638
225,"CHEONG SIU HSE(Block B,CHEONG SHING COURT),WAH MING RD|昌盛苑,B座(昌兆閣),華明路",NSS,4041728.0000000005,7360.0,512.0,4091904.0,7563.0,512.0,5193298.0,8393.0,649.0,7.0,20.0,33.0,"['1', '2', '3', '4', '5', '6', '7', '8']",4568088.303571428,7849.857142857142,580.5,39,312,2000/03,21,CHEONG SHING COURT,昌盛苑,True,4.0,1083.0,POINT Z (22.4833708 114.1386726 0),22.483370800000003,114.1386726
226,"CHEONG TO HSE(Block C,CHEONG SHING COURT),WAH MING RD|昌盛苑,C座(昌濤閣),華明路",NSS,4848679.0,7471.0,649.0,5039485.0,7765.0,649.0,5670962.000000001,8738.0,649.0,9.0,20.0,32.0,"['1', '2', '3', '4', '5', '6', '7']",5152596.428571429,7939.285714285714,649.0,35,245,2000/03,21,CHEONG SHING COURT,昌盛苑,True,4.0,1083.0,POINT Z (22.4840021 114.1389655 0),22.4840021,114.1389655
227,"PO WING BLDG,WO LUNG ST|寶榮樓,和隆街",NSS,,,485.0,,,485.0,3276603.6183902016,2940.0,516.0,2.0,2.0,4.0,"['A', 'C']",3276603.6183902016,2940.0,500.5,4,8,1973/03,48,blank,,False,,,POINT Z (22.4990499 114.1423794 0),22.4990499,114.1423794
228,"CHUN KING HSE(Block B,Phase 2,KING SHING COURT),8 YAT MING RD|景盛苑,2期,B座(俊景閣),8 一鳴路",NSS,3121188.0,6776.0,438.0,3155925.0,7211.0,433.0,4637440.0,7692.0,645.0,7.0,20.0,32.0,"['1', '10', '11', '12', '13', '14', '15', '16', '2', '3', '4', '5', '6', '7', '8', '9']",3938144.6458333335,7257.791666666667,543.25,37,592,1996/02,25,KING SHING COURT,景盛苑,True,4.0,2384.0,POINT Z (22.486156 114.142437 0),22.486156,114.14243700000002
229,"SUN KING BLDG,WO FUNG ST|新景樓,和豐街",NSS,3601165.537774591,6392.0,539.0,3601165.537774591,6392.0,539.0,3674466.1602283483,6613.0,560.0,2.0,2.0,3.0,"['A', 'D', 'E']",3634182.7114438587,6466.0,549.3333333333334,4,12,1976/07,45,blank,,False,,,POINT Z (22.4990131 114.1426116 0),22.499013100000003,114.1426116
230,"SHUN CHUNG LAU,SAN TSOI ST|慎忠樓,新財街",NSS,2698870.9986687456,4182.0,297.0,2680331.4568986106,8819.0,297.0,3152242.5052520717,9610.0,323.0,3.0,4.0,5.0,"['B', 'C', 'D']",2888251.7011058987,8102.38888888889,309.3333333333333,3,9,1982/06,39,blank,,False,,,POINT Z (22.5047481 114.1273301 0),22.504748100000004,114.1273301
231,"LUEN CHEUNG BLDG,LUEN CHEONG ST|聯昌大樓,聯昌街",NSS,3232000.0,6422.0,500.0,3241500.0,6442.0,500.0,3650465.0,6623.0,565.0,2.0,3.0,4.0,"['1', '2', '4', '7', '8', 'C', 'F', 'H']",3512045.1666666665,6481.666666666667,542.0,5,40,1974/09,47,blank,,False,,,POINT Z (22.4997646 114.14296 0),22.499764600000002,114.14296000000002
232,"GOLF PARKVIEW(Block 1),CASTLE PEAK RD KWU TUNG|哥爾夫景園1座,青山公路古洞段",NSS,,,1086.0,,,1086.0,,,1107.0,2.0,2.0,4.0,"['A', 'B']",,,1096.5,4,8,2004/06,17,GOLF PARKVIEW,哥爾夫景園,True,2.0,16.0,POINT Z (22.5018387 114.1167859 0),22.5018387,114.11678590000001
233,"PO WAH BLDG,WO LUNG ST|寶華樓,和隆街",NSS,,,505.0,,,505.0,3743064.0,7254.0,516.0,3.0,4.0,5.0,"['B', 'C']",3743064.0,7254.0,510.5,2,4,1973/03,48,blank,,False,,,POINT Z (22.4989701 114.1423329 0),22.4989701,114.14233290000001
234,"MAY LUN BLDG,LUEN ON ST|美輪大廈,聯安街",NSS,3679050.647015907,6848.0,452.0,3688183.804287997,6865.0,452.0,4071867.4854577505,8310.0,525.0,2.0,3.0,4.0,"['1', '2', '3', '6', '7', '8']",3843509.491283907,7890.333333333333,485.5,5,30,1977/02,44,blank,,False,,,POINT Z (22.4998251 114.1432712 0),22.499825100000002,114.1432712
235,"HONG MING HSE(Block 3,WAH MING EST),WAH MING RD|華明村,3座(康明樓),華明路",NSS,2159625.0,5339.0,375.0,2220375.0,5422.0,375.0,3341098.0,6130.0,566.0,8.0,18.0,29.0,"['10', '14', '15', '17', '18', '3', '4', '6', '7', '8']",2729891.755555555,5681.2,475.0,30,300,1990/07,31,WAH MING EST,華明村,True,7.0,2614.0,POINT Z (22.483419 114.139756 0),22.483419,114.139756
236,"CHEONG YUN HSE(Block D,CHEONG SHING COURT),WAH MING RD|昌盛苑,D座(昌潤閣),華明路",NSS,4454087.0,6863.0,649.0,4883076.0,7524.0,649.0,5214715.0,8035.0,649.0,8.0,20.0,32.0,"['1', '3', '4', '5', '6', '7', '8']",4988646.666666667,7686.666666666667,649.0,34,238,2000/03,21,CHEONG SHING COURT,昌盛苑,True,4.0,1083.0,POINT Z (22.4833708 114.1386726 0),22.483370800000003,114.1386726
237,"LAI MING HSE(Block 1,WAH MING EST),WAH MING RD|華明村,1座(禮明樓),華明路",NSS,2369607.0,5084.0,443.0,2439158.0,5251.0,443.0,2822215.0,5819.0,489.0,9.0,19.0,29.0,"['12', '15', '16', '18', '2', '20', '22', '23', '4', '5', '7']",2519040.8484848486,5439.333333333333,463.54545454545456,29,319,1990/05,31,WAH MING EST,華明村,True,7.0,2614.0,POINT Z (22.4853081 114.1400802 0),22.4853081,114.14008020000001
238,"TUNG HING HSE,SAN KIN ST|TUNG HING HSE,新健街",NSS,3150095.9999999995,6159.0,496.0,3157536.0,6169.0,496.0,3808623.0,6381.0,637.0,2.0,3.0,4.0,"['A', 'B']",3409354.5,6234.166666666667,548.1666666666666,5,10,1994/07,27,blank,,False,,,POINT Z (22.3251005 114.2109374 0),22.3251005,114.2109374
239,"CHEUNG CHUNG HSE(CHEUNG WAH EST),SAN WAN RD|祥華村(祥頌樓),新運路",NSS,2801723.1410892713,9884.0,277.0,2843391.828031817,10031.0,277.0,2995326.632121644,10567.0,284.0,4.0,8.0,11.0,"['12', '2', '20', '6']",2902918.5236640256,10241.0,278.75,11,44,1984/05,37,CHEUNG WAH EST,祥華村,True,13.0,909.0,POINT Z (22.492522 114.140191 0),22.492522,114.14019099999999
240,11 LUEN WO RD|11 聯和道,NSS,3783644.485086528,6662.0,555.0,3794435.4255273333,6681.0,555.0,3805226.365968138,6700.0,587.0,2.0,3.0,4.0,"['F.P.', 'R.P.']",3794435.425527333,6681.0,571.0,5,10,1983/04,38,blank,,False,,,POINT Z (22.4979512 114.1430427 0),22.4979512,114.14304270000001
241,"PING HAY HSE(Block C,TAI PING EST),PO PING RD|太平村,C座(平熙樓),保平路",NSS,1738461.9495929305,4430.0,360.0,1773091.1980060977,4508.0,360.0,2412348.7610298716,4896.0,494.0,6.0,13.0,20.0,"['10', '11', '14', '4', '5', '9']",2104553.970294744,4653.88888888889,442.3333333333333,22,132,1989/06,32,TAI PING EST,太平村,True,4.0,436.0,POINT Z (22.4980192 114.1266263 0),22.498019199999998,114.1266263
242,"DRAGON VIEW HSE,WO FUNG ST|龍景樓,和豐街",NSS,,,356.0,2952075.887908213,7194.0,366.0,2952075.887908213,7194.0,401.0,3.0,4.0,4.0,"['A', 'B', 'D']",2952075.887908213,7194.0,388.2222222222222,4,12,1981/04,40,blank,,False,,,POINT Z (22.4987085 114.1423329 0),22.4987085,114.14233290000001
243,"GREEN CODE(Block 1),MA SIK RD|逸峰1座,馬適路",NSS,4163700.0,11830.0,300.0,4485000.0,11974.0,300.0,9275168.0,14513.0,752.0,9.0,20.0,29.0,"['A', 'B', 'C', 'D', 'E']",6750122.8,13297.666666666666,518.0,28,140,2014/06,7,GREEN CODE,逸峰,True,4.0,749.0,POINT Z (22.5010014 114.1458862 0),22.5010014,114.14588619999999
244,"GREEN CODE(Block 3),MA SIK RD|逸峰3座,馬適路",NSS,4682124.0,12369.0,324.0,4632134.0,12721.0,326.0,8197036.0,14431.0,614.0,9.0,20.0,30.0,"['A', 'B', 'C', 'D', 'E', 'F', 'G', 'H']",6468014.666666667,13172.083333333334,493.4166666666667,29,232,2014/06,7,GREEN CODE,逸峰,True,4.0,749.0,POINT Z (22.5010014 114.1458862 0),22.5010014,114.14588619999999
245,"GREEN CODE(Block 2),MA SIK RD|逸峰2座,馬適路",NSS,5796448.0,12070.0,452.0,5958716.0,12365.0,452.0,8231724.0,13576.0,642.0,9.0,20.0,30.0,"['A', 'B', 'C', 'D', 'E']",6544314.866666667,12828.066666666666,511.4666666666667,29,145,2014/06,7,GREEN CODE,逸峰,True,4.0,749.0,POINT Z (22.5010014 114.1458862 0),22.5010014,114.14588619999999
246,"GREEN CODE(Block 5),MA SIK RD|逸峰5座,馬適路",NSS,5787530.999999999,11933.0,459.0,5788908.0,12267.0,455.0,7790617.0,14047.0,614.0,9.0,20.0,30.0,"['A', 'B', 'C', 'D', 'E', 'F', 'G', 'H']",6536733.666666667,12874.708333333334,509.3333333333333,29,232,2014/06,7,GREEN CODE,逸峰,True,4.0,749.0,POINT Z (22.5010014 114.1458862 0),22.5010014,114.14588619999999
247,"FU MING HSE(Block 4,WAH MING EST),WAH MING RD|華明村,4座(富明樓),華明路",NSS,3005558.0874959882,5824.0,375.0,3096801.8051489023,5998.0,375.0,3632438.659338809,6397.0,566.0,9.0,19.0,29.0,"['10', '12', '15', '16', '17', '3', '4', '5', '6', '7', '8']",3335930.5676790266,6331.11111111111,466.72727272727275,29,319,1990/07,31,WAH MING EST,華明村,True,7.0,2614.0,POINT Z (22.4824137 114.1414465 0),22.4824137,114.14144650000001
248,"TAI CHEUNG BLDG,WO TAI ST|泰昌樓,和泰街",NSS,,,513.0,,,513.0,,,587.0,2.0,2.0,4.0,"['B', 'E', 'G', 'J']",,,532.0,4,16,1977/04,44,blank,,False,,,POINT Z (22.5002132 114.1425894 0),22.500213199999997,114.1425894
249,41-53 WO TAI ST|41-53 和泰街,NSS,4271861.628273227,5566.0,750.0,4029334.090627819,5250.0,750.0,4566491.653594651,5764.0,799.0,3.0,4.0,4.0,"['A', 'B', 'D', 'E']",4355570.127279217,5583.916666666667,762.25,4,16,1971/01,50,blank,,False,,,POINT Z (22.5002343 114.1428224 0),22.5002343,114.14282240000001
250,"PING CHING HSE(Block B,TAI PING EST),PO PING RD|太平村,B座(平靜樓),保平路",NSS,,,357.0,,,357.0,,,494.0,6.0,10.0,16.0,"['13', '14', '3', '4', '5']",,,431.3999999999999,14,70,1989/06,32,TAI PING EST,太平村,True,4.0,436.0,POINT Z (22.497981 114.12669 0),22.497981,114.12669
251,"CHEUNG FUNG HSE(CHEUNG WAH EST),SAN WAN RD|祥華村(祥豐樓),新運路",NSS,2292146.1780997342,4817.0,358.0,2322124.4237340055,4880.0,358.0,2351150.979030681,4941.0,465.0,16.0,21.0,26.0,"['10', '13', '15', '4', '9']",2321807.193621474,4879.333333333333,418.6000000000001,15,75,1984/03,37,CHEUNG WAH EST,祥華村,True,13.0,909.0,POINT Z (22.4917437 114.1418452 0),22.4917437,114.1418452
252,"PING YEE HSE(Block D,TAI PING EST),PO PING RD|太平村,D座(平易樓),保平路",NSS,1993220.243060861,4810.0,357.0,2057152.3439654892,4948.0,357.0,2964750.7658882807,5765.0,572.0,7.0,16.0,23.0,"['10', '11', '14', '2', '5', '9']",2486920.18002582,5265.0,464.0,21,126,1989/06,32,TAI PING EST,太平村,True,4.0,436.0,POINT Z (22.4972344 114.1265869 0),22.4972344,114.12658689999999
253,"MOUNT ONE,LUEN HING ST|瓏山1號,聯興街",NSS,6566350.0,11023.0,511.0,6759508.0,11051.0,511.0,13747137.999999998,13541.0,1226.0,11.0,20.0,28.0,"['1A', '1B', '1C', '2A', '2B', '2C', '2D']",9513972.380952382,12443.47619047619,774.8571428571428,23,161,2014/07,7,blank,,False,,,POINT Z (22.499556 114.140689 0),22.499556,114.140689
254,"FU HING BLDG,FU HING ST|富興樓,符興街",NSS,2997045.8146669785,8609.0,319.0,2970930.613144992,8615.0,319.0,3331939.504529315,9262.0,352.0,3.0,4.0,4.0,"['A', 'B', 'C', 'D', 'H']",3141632.409584562,9033.866666666667,340.06666666666666,4,20,1981/01,40,blank,,False,,,POINT Z (22.5041995 114.1291416 0),22.5041995,114.1291416
255,"CHEUNG KING HSE(CHEUNG WAH EST),SAN WAN RD|祥華村(祥景樓),新運路",NSS,,,271.0,,,271.0,,,424.0,4.0,11.0,19.0,"['10', '107', '11', '13', '4']",,,392.8,21,105,1984/03,37,CHEUNG WAH EST,祥華村,True,13.0,909.0,POINT Z (22.4927783 114.1423329 0),22.4927783,114.14233290000001
256,"GOLF PARKVIEW(Block 3),CASTLE PEAK RD KWU TUNG|哥爾夫景園3座,青山公路古洞段",NSS,,,1079.0,,,1079.0,,,1086.0,2.0,2.0,4.0,"['A', 'B']",,,1080.1666666666667,4,8,2004/06,17,GOLF PARKVIEW,哥爾夫景園,True,2.0,16.0,POINT Z (22.5015815 114.1171347 0),22.5015815,114.11713470000001
257,"CHEUNG TAK HSE - WING A(CHEUNG WAH EST),SAN WAN RD|祥華村(祥德樓 - A翼),新運路",NSS,2041833.199499026,4968.0,381.0,2078482.4874029614,5072.0,381.0,2616452.5687870528,5436.0,490.0,17.0,24.0,31.0,"['3', '5', '7', '8']",2318013.053254062,5216.166666666667,435.5,20,80,1985/01,36,CHEUNG WAH EST,祥華村,True,13.0,909.0,POINT Z (22.493687 114.141726 0),22.493686999999998,114.141726
258,"CHEUNG CHI HSE - WING A(CHEUNG WAH EST),SAN WAN RD|祥華村(祥智樓 - A翼),新運路",NSS,2181606.0,5420.0,381.0,2198751.0,5486.0,381.0,2734200.0,5967.0,490.0,15.0,20.0,26.0,"['3', '4', '5', '7']",2342783.8333333335,5756.0,408.25,15,60,1986/02,35,CHEUNG WAH EST,祥華村,True,13.0,909.0,POINT Z (22.4928965 114.1415218 0),22.4928965,114.14152179999999
259,"CHEUNG CHI HSE - WING C(CHEUNG WAH EST),SAN WAN RD|祥華村(祥智樓 - C翼),新運路",NSS,,,381.0,,,381.0,,,490.0,8.0,16.0,23.0,"['1', '6', '7', '8']",,,435.5,20,80,1986/02,35,CHEUNG WAH EST,祥華村,True,13.0,909.0,POINT Z (22.4928965 114.1415218 0),22.4928965,114.14152179999999
260,39 WO TAI ST|39 和泰街,NSS,4793102.426174503,5719.0,819.0,4793102.426174503,5719.0,819.0,4819083.572390871,5750.0,819.0,2.0,2.0,4.0,['whole floor'],4801762.808246626,5729.333333333333,819.0,4,4,1970/01,51,blank,,False,,,POINT Z (22.5002343 114.1428224 0),22.5002343,114.14282240000001
261,"KAM WO BLDG & KAM HING BLDG,SHUN LUNG ST|錦和樓及錦興樓,順隆街",NSS,1975332.5580058328,4433.0,404.0,1975332.5580058328,4433.0,404.0,2499400.797200418,4803.0,548.0,2.0,2.0,4.0,"['B', 'D', 'F']",2244184.1687562815,4595.88888888889,479.0,4,12,1974/09,47,blank,,False,,,POINT Z (22.5453825 114.2241925 0),22.545382500000002,114.2241925
262,"CHEUNG CHI HSE - WING B(CHEUNG WAH EST),SAN WAN RD|祥華村(祥智樓 - B翼),新運路",NSS,3412303.6340097785,6291.0,381.0,3496395.439717264,6450.0,381.0,4295361.995453181,7088.0,490.0,6.0,16.0,25.0,"['1', '5', '8']",3734163.0133996573,6756.777777777777,417.3333333333333,25,75,1986/02,35,CHEUNG WAH EST,祥華村,True,13.0,909.0,POINT Z (22.4928965 114.1415218 0),22.4928965,114.14152179999999
263,"TUNG LOK MANSION,JOCKEY CLUB RD|同樂樓,馬會道",NSS,3116442.0191175183,7446.0,409.0,,,409.0,,,527.0,1.0,2.0,2.0,"['B', 'E', 'F']",3126531.5095587596,7557.5,448.3333333333333,2,6,1973/09/20,48,blank,,False,,,POINT Z (22.5058967 114.1285848 0),22.5058967,114.1285848
264,"COMMUNE MODERN(Block 2),WO FUNG ST|囍逸2座,和豐街",NSS,4587600.0,11442.0,294.0,4593162.0,11739.0,294.0,9577472.0,16432.0,796.0,8.0,16.0,21.0,"['A', 'B', 'C', 'D', 'DH', 'E', 'EF', 'F', 'G', 'H', 'J']",6239038.03030303,14212.666666666666,452.8181818181818,18,198,2018/07,3,COMMUNE MODERN,囍逸,True,2.0,342.0,POINT Z (22.4984733 114.1428658 0),22.4984733,114.14286580000001
265,"COMMUNE MODERN(Block 1),WO FUNG ST|囍逸1座,和豐街",NSS,3960796.0,12525.0,235.0,4054092.0,12874.0,235.0,8422410.0,18123.0,645.0,8.0,16.0,21.0,"['A', 'B', 'C', 'D', 'E', 'F', 'G', 'H']",5811330.0,15305.916666666666,393.125,18,144,2018/07,3,COMMUNE MODERN,囍逸,True,2.0,342.0,POINT Z (22.4984733 114.1428658 0),22.4984733,114.14286580000001
266,"CHEUNG TAK HSE - WING B(CHEUNG WAH EST),SAN WAN RD|祥華村(祥德樓 - B翼),新運路",NSS,2065401.0,5228.0,381.0,2089785.0,5294.0,381.0,2688140.0,5692.0,490.0,19.0,25.0,31.0,"['3', '4', '6', '7', '8']",2318770.6666666665,5473.533333333333,424.6000000000001,19,95,1985/01,36,CHEUNG WAH EST,祥華村,True,13.0,909.0,POINT Z (22.493687 114.141726 0),22.493686999999998,114.141726
267,"FANLING GARDEN(Block 19),FAN LENG LAU RD|粉嶺花園19座,粉嶺樓路",NSS,4321859.140654152,8589.0,466.0,4321859.140654152,8589.0,466.0,5324820.004372884,9077.0,604.0,2.0,2.0,3.0,"['A', 'B']",4819095.511158547,8832.666666666666,535.0,2,4,1987/09,34,FANLING GARDEN,粉嶺花園,True,10.0,94.0,POINT Z (22.4986325 114.1403357 0),22.498632500000003,114.14033570000001
268,"EDEN MANOR(Block 2),CASTLE PEAK RD KWU TUNG|高爾夫御苑2座,青山公路古洞段",NSS,17552936.0,15842.0,1108.0,20151196.0,16538.0,1108.0,21959568.0,18511.0,1314.0,9.0,16.0,20.0,"['A', 'B']",20539163.666666668,17003.833333333332,1211.0,14,28,2019/05,2,EDEN MANOR,高爾夫御苑,True,6.0,408.0,POINT Z (22.5001325 114.1197882 0),22.5001325,114.1197882
269,"EDEN MANOR(Block 1),CASTLE PEAK RD KWU TUNG|高爾夫御苑1座,青山公路古洞段",NSS,17822180.0,14023.0,1108.0,18071480.0,14271.0,1108.0,34997900.0,17166.0,2422.0,10.0,16.0,20.0,"['A', 'AB', 'B']",24911924.0,15805.77777777778,1614.6666666666667,13,39,2019/05,2,EDEN MANOR,高爾夫御苑,True,6.0,408.0,POINT Z (22.5001325 114.1197882 0),22.5001325,114.1197882
270,"EDEN MANOR(Block 7),CASTLE PEAK RD KWU TUNG|高爾夫御苑7座,青山公路古洞段",NSS,4442220.0,16095.0,276.0,4581600.0,16600.0,276.0,9474570.0,19495.0,487.0,6.0,16.0,23.0,"['A', 'B', 'C', 'D', 'E', 'F', 'G', 'H', 'J', 'K']",6391627.399999999,17729.899999999998,358.06666666666666,24,240,2019/05,2,EDEN MANOR,高爾夫御苑,True,6.0,408.0,POINT Z (22.5001325 114.1197882 0),22.5001325,114.1197882
271,"EDEN MANOR(Block 9),CASTLE PEAK RD KWU TUNG|高爾夫御苑9座,青山公路古洞段",NSS,15490373.0,12905.0,960.0,15271831.0,13144.0,960.0,25621392.0,17242.0,1927.0,9.0,16.0,20.0,"['A', 'AB', 'B']",18859757.666666668,15203.333333333334,1284.6666666666667,16,48,2019/05,2,EDEN MANOR,高爾夫御苑,True,6.0,408.0,POINT Z (22.5001325 114.1197882 0),22.5001325,114.1197882
272,"EDEN MANOR(Block 3),CASTLE PEAK RD KWU TUNG|高爾夫御苑3座,青山公路古洞段",NSS,15290880.0,13512.0,960.0,15360000.000000002,13852.0,960.0,28188929.65099328,17269.0,1927.0,9.0,16.0,20.0,"['A', 'AB', 'B']",19669451.050217476,15569.11111111111,1284.6666666666667,16,48,2019/05,2,EDEN MANOR,高爾夫御苑,True,6.0,408.0,POINT Z (22.5001325 114.1197882 0),22.5001325,114.1197882
273,"CHEUNG LOK HSE(CHEUNG WAH EST),SAN WAN RD|祥華村(祥樂樓),新運路",NSS,,,423.0,,,423.0,,,443.0,6.0,11.0,17.0,"['14', '3', '5', '6', '7']",,,431.3999999999999,17,85,1984/03,37,CHEUNG WAH EST,祥華村,True,13.0,909.0,POINT Z (22.4928965 114.1415218 0),22.4928965,114.14152179999999
274,"MARIN POINT(Block 3),SHUN LUNG ST|尚澄3座,順隆街",NSS,3381458.0,9600.0,337.0,3434953.0,9689.0,345.0,6152572.0,11764.0,538.0,2.0,3.0,5.0,"['A', 'B', 'C', 'D', 'E', 'F', 'G', 'H', 'K', 'M']",4424894.7,10549.533333333333,416.9666666666667,5,50,2018/08,3,MARIN POINT,尚澄,True,4.0,200.0,POINT Z (22.5438993 114.2253145 0),22.543899300000003,114.2253145
275,"MARIN POINT(Block 5),SHUN LUNG ST|尚澄5座,順隆街",NSS,2961264.0,9148.0,300.0,2896511.9999999995,9293.0,300.0,4469436.0,11002.0,451.0,2.0,3.0,5.0,"['A', 'B', 'D', 'E', 'F', 'G', 'H', 'J', 'K', 'L', 'M', 'N']",3571170.8333333335,10032.77777777778,357.1111111111111,5,60,2018/08,3,MARIN POINT,尚澄,True,4.0,200.0,POINT Z (22.5438993 114.2253145 0),22.543899300000003,114.2253145
276,"MARIN POINT(Block 2),SHUN LUNG ST|尚澄2座,順隆街",NSS,2721525.0,9158.0,277.0,2716146.0,9198.0,277.0,4022370.0,10755.0,430.0,2.0,3.0,5.0,"['D', 'E', 'F', 'G', 'H', 'J', 'K', 'L', 'N']",3232803.7777777775,9667.962962962962,334.962962962963,5,45,2018/08,3,MARIN POINT,尚澄,True,4.0,200.0,POINT Z (22.5438993 114.2253145 0),22.543899300000003,114.2253145
277,"MARIN POINT(Block 1),SHUN LUNG ST|尚澄1座,順隆街",NSS,3432870.9999999995,9859.0,337.0,3475205.0,9943.0,345.0,5684487.0,11378.0,523.0,2.0,3.0,5.0,"['C', 'D', 'E', 'F', 'G', 'H', 'J', 'K', 'L']",4287515.185185185,10298.740740740739,416.0740740740741,5,45,2018/08,3,MARIN POINT,尚澄,True,4.0,200.0,POINT Z (22.5438993 114.2253145 0),22.543899300000003,114.2253145
278,29 WO TAI ST|29 和泰街,NSS,,,803.0,,,803.0,,,803.0,2.0,2.0,4.0,['whole floor'],,,803.0,4,4,1970/01,51,blank,,False,,,POINT Z (22.5002343 114.1428224 0),22.5002343,114.14282240000001
279,"EDEN MANOR(Block 6),CASTLE PEAK RD KWU TUNG|高爾夫御苑6座,青山公路古洞段",NSS,14414039.0,14999.0,961.0,14880124.0,15484.0,961.0,15047338.0,15658.0,961.0,9.0,14.0,18.0,['B'],14780500.333333334,15380.333333333334,961.0,12,12,2019/05,2,EDEN MANOR,高爾夫御苑,True,6.0,408.0,POINT Z (22.5001325 114.1197882 0),22.5001325,114.1197882
