,final_address,district,lowZone_value,lowZone_npsf_min,lowZone_nfa_min,midZone_value,midZone_npsf_min,midZone_nfa_min,highZone_value,highZone_npsf_max,highZone_nfa_max,oneSixth_floor,middle_floor,fifthSixth_floor,unit_list,value_avg,npsf_avg,unitSize_avg,noStorey,noFlat,op_date,bldgAge,est_name_en,est_name_ch,est_orNot,est_bldgNo,est_flatNo,final_coords,lat,long
0,"FLORA PLAZA(Block 7),PAK WO RD|花都廣場7座,百和路",NSS,4384408.0,10616.0,390.0,4733820.0,11297.0,390.0,6464695.999999999,12418.0,536.0,9,20,30,"['A', 'B', 'C', 'D', 'E', 'F', 'G', 'H']",5194922.0,11868.166666666666,438.75,34,272,1995/11,28,FLORA PLAZA,花都廣場,True,10.0,2720.0,POINT Z (22.4854804 114.141195 0),22.485480399999997,114.141195
1,"COMFORT COURT,LUEN WO RD|錦福大廈,聯和道",NSS,4069800.0,11219.0,342.0,4138884.0,11396.0,342.0,4976784.0,12410.0,428.0,3,8,12,"['A', 'B', 'C', 'D']",4523604.5,11790.5,385.0,13,52,1994/02,29,blank,,False,,,POINT Z (22.4990197 114.1438773 0),22.499019699999998,114.1438773
2,"AVON PARK(Block 3),YAT MING RD|碧湖花園3座,一鳴路",NSS,4632990.0,11670.0,397.0,4795363.0,11930.0,397.0,6027288.0,13389.0,488.0,6,16,25,"['A', 'B', 'C', 'D', 'E', 'F', 'G', 'H']",5303135.0,12361.875,429.625,25,200,1994/03,29,AVON PARK,碧湖花園,True,7.0,1328.0,POINT Z (22.4871342 114.1432932 0),22.4871342,114.1432932
3,"LUNG FUNG GARDEN(Block B),LUNG SUM AVE|龍豐花園B座,龍琛路",NSS,4319698.0,11143.0,314.0,4425516.0,11575.0,314.0,6374110.0,14445.0,505.0,5,13,21,"['1', '2', '3', '4', '5', '6', '7', '8']",5232552.166666667,12803.666666666666,415.75,25,200,1991/07,32,LUNG FUNG GARDEN,龍豐花園,True,3.0,600.0,POINT Z (22.5027962 114.1294667 0),22.5027962,114.12946670000001
4,"CHEERFUL PARK(Block 4),KAT CHEUNG CRES|欣翠花園4座,吉祥街",NSS,5744584.0,9356.0,614.0,5794932.0,9438.0,614.0,7937930.0,10414.0,793.0,3,6,10,"['A', 'B', 'C', 'D', 'E', 'F', 'G', 'H']",6661046.916666667,9760.208333333334,681.0,12,96,1992/04,31,CHEERFUL PARK,欣翠花園,True,4.0,384.0,POINT Z (22.4957045 114.132393 0),22.495704500000002,114.132393
5,"FLORA PLAZA(Block 6),PAK WO RD|花都廣場6座,百和路",NSS,4797000.0,11421.0,390.0,4939740.0,11709.0,390.0,6494712.0,13016.0,536.0,9,20,30,"['A', 'B', 'C', 'D', 'E', 'F', 'G', 'H']",5552390.125,12296.166666666666,453.75,34,272,1995/11,28,FLORA PLAZA,花都廣場,True,10.0,2720.0,POINT Z (22.4854804 114.141195 0),22.485480399999997,114.141195
6,"FLORA PLAZA(Block 2),PAK WO RD|花都廣場2座,百和路",NSS,4713540.0,11057.0,390.0,4778280.0,11553.0,390.0,6771824.0,13196.0,536.0,9,20,30,"['A', 'B', 'C', 'D', 'E', 'F', 'G', 'H']",5407061.708333333,12362.0,438.375,34,272,1995/11,28,FLORA PLAZA,花都廣場,True,10.0,2720.0,POINT Z (22.4854804 114.141195 0),22.485480399999997,114.141195
7,"SAN FUNG BLDG,SAN FUNG AVE|新豐大廈,新豐路",NSS,4097960.7620735746,10592.0,360.0,4084730.0947368294,11087.0,352.0,4517889.752328729,11692.0,385.0,6,12,17,"['A', 'B', 'C', 'D']",4311948.515235064,11282.666666666666,375.3333333333333,18,72,1993/10,30,blank,,False,,,POINT Z (22.5055529 114.1271392 0),22.505552899999998,114.1271392
8,"WOODLAND CREST(Block 6),TIN PING RD|奕翠園6座,天平路",NSS,9100207.678078625,9293.0,920.0,9211919.387063539,9471.0,920.0,10654725.49433169,10260.0,1030.0,2,6,9,"['A', 'B', 'C', 'D', 'E', 'F', 'G', 'H']",9715877.40686713,9856.130952380952,977.5,9,72,1996/06,27,WOODLAND CREST,奕翠園,True,8.0,572.0,POINT Z (22.506152 114.1323698 0),22.506152,114.13236979999999
9,"WOODLAND CREST(Block 8),TIN PING RD|奕翠園8座,天平路",NSS,9132145.0,9709.0,935.0,9242475.0,9841.0,935.0,10348410.000000002,10242.0,1030.0,2,6,9,"['A', 'B', 'C', 'D', 'E', 'F', 'G', 'H']",9791401.041666666,9982.041666666666,981.25,9,72,1996/06,27,WOODLAND CREST,奕翠園,True,8.0,572.0,POINT Z (22.5063978 114.1330201 0),22.506397800000002,114.13302009999998
10,"WOODLAND CREST(Block 3),TIN PING RD|奕翠園3座,天平路",NSS,,,935.0,,,935.0,10061205.0,9835.0,1030.0,2,6,9,"['A', 'B', 'C', 'D', 'E', 'F', 'G', 'H']",10061205.0,9835.0,981.25,9,72,1996/06,27,WOODLAND CREST,奕翠園,True,8.0,572.0,POINT Z (22.5073866 114.1328343 0),22.5073866,114.13283429999998
11,"WOODLAND CREST(Block 2),TIN PING RD|奕翠園2座,天平路",NSS,,,935.0,,,935.0,,,1030.0,2,6,9,"['A', 'B', 'C', 'D', 'E', 'F', 'G', 'H']",,,981.25,9,72,1996/04,27,WOODLAND CREST,奕翠園,True,8.0,572.0,POINT Z (22.5071872 114.1325788 0),22.5071872,114.13257879999999
12,"AVON PARK(Block 8),YAT MING RD|碧湖花園8座,一鳴路",NSS,4826726.0,11632.0,397.0,4916051.0,11932.0,397.0,5844735.0,13089.0,485.0,5,12,21,"['A', 'B', 'C', 'D', 'E', 'F', 'G', 'H']",5257218.666666667,12271.708333333334,429.25,21,168,1994/03,29,AVON PARK,碧湖花園,True,7.0,1328.0,POINT Z (22.4868427 114.1433249 0),22.4868427,114.14332490000001
13,"AVON PARK(Block 1),YAT MING RD|碧湖花園1座,一鳴路",NSS,4819580.0,11304.0,397.0,4894613.0,11587.0,397.0,5850070.0,13176.0,488.0,6,16,25,"['A', 'B', 'C', 'D', 'E', 'F', 'G', 'H']",5238698.541666667,12225.166666666666,429.625,25,200,1994/03,29,AVON PARK,碧湖花園,True,7.0,1328.0,POINT Z (22.4872208 114.142796 0),22.487220800000003,114.14279599999999
14,"FLORA PLAZA(Block 3),PAK WO RD|花都廣場3座,百和路",NSS,4681170.0,11192.0,390.0,4866420.0,11283.0,390.0,6607808.0,13014.0,536.0,9,20,30,"['A', 'B', 'C', 'D', 'E', 'F', 'G', 'H']",5281198.416666667,12071.875,438.75,34,272,1995/11,28,FLORA PLAZA,花都廣場,True,10.0,2720.0,POINT Z (22.4854804 114.141195 0),22.485480399999997,114.141195
15,"FLORA PLAZA(Block 4),PAK WO RD|花都廣場4座,百和路",NSS,4499040.0,11102.0,390.0,4717050.0,11424.0,390.0,6398768.0,13064.0,536.0,9,20,30,"['A', 'B', 'C', 'D', 'E', 'F', 'G', 'H']",5248666.833333333,11996.375,439.0833333333333,34,272,1995/11,28,FLORA PLAZA,花都廣場,True,10.0,2720.0,POINT Z (22.4848953 114.1414485 0),22.4848953,114.14144850000001
16,"GALAXY COURT(Block 7,FANLING TOWN CTR),FANLING STATION RD|粉嶺名都,7座(嘉麗閣),粉嶺車站路",NSS,4657875.0,11490.0,375.0,4667625.0,11723.0,375.0,5631144.0,13347.0,456.0,4,10,17,"['A', 'B', 'C', 'D', 'E', 'F', 'G', 'H']",5055981.5,12472.166666666666,406.25,20,160,1993/05,30,FANLING TOWN CTR,粉嶺名都,True,7.0,1280.0,POINT Z (22.4927378 114.1388726 0),22.4927378,114.1388726
17,"AVON PARK(Block 5),YAT MING RD|碧湖花園5座,一鳴路",NSS,4629814.0,11044.0,397.0,4781071.0,11682.0,397.0,5918455.0,13048.0,488.0,6,16,25,"['A', 'B', 'C', 'D', 'E', 'F', 'G', 'H']",5182633.375,12090.333333333334,429.625,25,200,1994/03,29,AVON PARK,碧湖花園,True,7.0,1328.0,POINT Z (22.4872337 114.143256 0),22.4872337,114.14325600000001
18,"CHEERFUL PARK(Block 3),KAT CHEUNG CRES|欣翠花園3座,吉祥街",NSS,4023988.0000000005,9504.0,382.0,4064862.0,9699.0,382.0,7353528.0,12193.0,676.0,3,6,10,"['A', 'B', 'C', 'D', 'E', 'F', 'G', 'H']",5604204.916666667,10869.125,524.75,12,96,1992/04,31,CHEERFUL PARK,欣翠花園,True,4.0,384.0,POINT Z (22.4956433 114.1320911 0),22.4956433,114.13209109999998
19,"AVON PARK(Block 2),YAT MING RD|碧湖花園2座,一鳴路",NSS,4587732.0,10910.0,397.0,4753281.0,11487.0,397.0,5820485.0,12917.0,488.0,6,16,25,"['A', 'B', 'C', 'D', 'E', 'F', 'G', 'H']",5178335.791666667,12052.041666666666,430.8333333333333,25,200,1994/03,29,AVON PARK,碧湖花園,True,7.0,1328.0,POINT Z (22.4873464 114.1432845 0),22.487346399999996,114.1432845
20,"LUNG FUNG GARDEN(Block A),LUNG SUM AVE|龍豐花園A座,龍琛路",NSS,4241468.0,11731.0,328.0,4344688.0,12050.0,328.0,6426125.0,13855.0,505.0,5,13,21,"['1', '2', '3', '4', '5', '6', '7', '8']",5300109.041666667,12774.75,418.5,25,200,1991/07,32,LUNG FUNG GARDEN,龍豐花園,True,3.0,600.0,POINT Z (22.5030936 114.1297919 0),22.503093600000003,114.1297919
21,"BERLIN COURT(Block 1,SHEUNG SHUI TOWN CTR),CHI CHEONG RD|上水名都,1座(柏林閣),智昌路",NSS,4727653.0,11872.0,371.0,4689440.0,11948.0,371.0,5630625.0,13379.0,455.0,5,12,20,"['A', 'B', 'C', 'D', 'E', 'F', 'G', 'H']",5102754.75,12598.041666666666,405.75,24,192,1992/08,31,SHEUNG SHUI TOWN CTR,上水名都,True,4.0,784.0,POINT Z (22.500728 114.131714 0),22.500728,114.13171399999999
22,"WOODLAND CREST(Block 5),TIN PING RD|奕翠園5座,天平路",NSS,9306588.357970271,9734.0,857.0,9399006.362753555,9834.0,865.0,10946100.0,10700.0,1472.0,2,6,8,"['A', 'B', 'C', 'D', 'E', 'F', 'G']",9646395.553101331,10007.388888888889,1027.7619047619048,10,70,1996/04,27,WOODLAND CREST,奕翠園,True,8.0,572.0,POINT Z (22.507535 114.1331362 0),22.507535,114.1331362
23,"WOODLAND CREST(Block 1),TIN PING RD|奕翠園1座,天平路",NSS,8573236.026723415,8908.0,920.0,8653859.13205947,9012.0,920.0,9942555.07019581,9800.0,1030.0,2,6,9,"['A', 'B', 'C', 'D', 'E', 'F', 'G', 'H']",9195884.19266048,9264.625,977.5,9,72,1996/06,27,WOODLAND CREST,奕翠園,True,8.0,572.0,POINT Z (22.5070388 114.1322769 0),22.5070388,114.13227690000001
24,"CHEERFUL PARK(Block 2),KAT CHEUNG CRES|欣翠花園2座,吉祥街",NSS,4242492.0,9302.0,382.0,4273816.0,9507.0,382.0,7051300.0,11512.0,676.0,3,6,10,"['A', 'B', 'C', 'D', 'E', 'F', 'G', 'H']",5464071.125,10602.125,524.75,12,96,1992/04,31,CHEERFUL PARK,欣翠花園,True,4.0,384.0,POINT Z (22.4957894 114.1317195 0),22.495789399999996,114.1317195
25,"FLORA PLAZA(Block 8),PAK WO RD|花都廣場8座,百和路",NSS,4677225.0,10874.0,390.0,4667910.0,11294.0,390.0,6509719.999999999,13289.0,536.0,9,20,30,"['A', 'B', 'C', 'D', 'E', 'F', 'G', 'H']",5281953.833333333,12073.166666666666,439.0,34,272,1995/11,28,FLORA PLAZA,花都廣場,True,10.0,2720.0,POINT Z (22.4854804 114.141195 0),22.485480399999997,114.141195
26,"LUNG FUNG GARDEN(Block C),LUNG SUM AVE|龍豐花園C座,龍琛路",NSS,4464530.0,11840.0,328.0,4664488.0,12151.0,328.0,6387240.0,14526.0,505.0,5,13,21,"['1', '2', '3', '4', '5', '6', '7', '8']",5759021.377777778,12826.67777777778,418.5,25,200,1991/07,32,LUNG FUNG GARDEN,龍豐花園,True,3.0,600.0,POINT Z (22.5026247 114.1298615 0),22.502624700000002,114.1298615
27,"AVON PARK(Block 6),YAT MING RD|碧湖花園6座,一鳴路",NSS,4694922.0,11128.0,397.0,4819977.0,11418.0,397.0,5968728.0,13226.0,488.0,6,16,25,"['A', 'B', 'C', 'D', 'E', 'F', 'G', 'H']",5191821.458333333,12111.458333333334,429.625,25,200,1994/03,29,AVON PARK,碧湖花園,True,7.0,1328.0,POINT Z (22.4873999 114.1433122 0),22.4873999,114.1433122
28,"GRAND TOWER(Block A),LUEN WO RD|嘉宏中心A座,聯和道",NSS,3469794.4779489897,11465.0,297.0,3634389.0,12215.0,297.0,3906810.023187398,12909.0,297.0,3,8,13,"['A', 'B']",3685621.75764741,12216.166666666666,297.0,15,30,1992/11,31,GRAND TOWER,嘉宏中心,True,2.0,66.0,POINT Z (22.4977503 114.1426697 0),22.4977503,114.1426697
29,"AMBER COURT(Block 1,FANLING TOWN CTR),FANLING STATION RD|粉嶺名都,1座(雅碧閣),粉嶺車站路",NSS,4609008.0,10993.0,376.0,4700000.0,11568.0,376.0,5476560.000000001,12945.0,456.0,5,12,18,"['A', 'B', 'C', 'D', 'E', 'F', 'G', 'H']",4939283.166666667,12144.458333333334,407.5,22,176,1993/05,30,FANLING TOWN CTR,粉嶺名都,True,7.0,1280.0,POINT Z (22.4918335 114.1401071 0),22.4918335,114.1401071
30,"ELEGANT COURT(Block 5,FANLING TOWN CTR),FANLING STATION RD|粉嶺名都,5座(怡景閣),粉嶺車站路",NSS,4354287.0,10913.0,376.0,4848144.0,11644.0,376.0,5575968.0,13193.0,456.0,5,12,19,"['A', 'B', 'C', 'D', 'E', 'F', 'G', 'H']",5003176.5,12305.208333333334,407.5,23,184,1993/05,30,FANLING TOWN CTR,粉嶺名都,True,7.0,1280.0,POINT Z (22.4918335 114.1401071 0),22.4918335,114.1401071
31,"VENICE GARDEN(Block 2),PO WING RD|威尼斯花園2座,保榮路",NSS,4387240.0,9783.0,439.0,4544320.0,10066.0,439.0,5095116.0,10805.0,494.0,4,10,15,"['A', 'B', 'C', 'D', 'E', 'F', 'G', 'H']",4689232.666666667,10348.416666666666,453.5,18,144,1993/03,30,VENICE GARDEN,威尼斯花園,True,2.0,288.0,POINT Z (22.4975126 114.1274462 0),22.4975126,114.12744620000001
32,"GRAND TOWER(Block B),LUEN WO RD|嘉宏中心B座,聯和道",NSS,3590136.0,12088.0,297.0,3555090.0000000005,11970.0,297.0,3653498.380968182,12072.0,297.0,4,10,15,"['A', 'B']",3617486.063085834,12064.666666666666,297.0,18,36,1992/11,31,GRAND TOWER,嘉宏中心,True,2.0,66.0,POINT Z (22.4978627 114.1427858 0),22.4978627,114.1427858
33,"PARIS COURT(Block 3,SHEUNG SHUI TOWN CTR),CHI CHEONG RD|上水名都,3座(巴黎閣),智昌路",NSS,4466696.0,10248.0,377.0,4565470.0,10439.0,377.0,5526468.0,13476.0,461.0,5,13,21,"['A', 'B', 'C', 'D', 'E', 'F', 'G', 'H']",4848636.083333333,11956.916666666666,406.8333333333333,25,200,1992/08,31,SHEUNG SHUI TOWN CTR,上水名都,True,4.0,784.0,POINT Z (22.5009463 114.1315105 0),22.500946300000003,114.1315105
34,"CHEERFUL PARK(Block 1),KAT CHEUNG CRES|欣翠花園1座,吉祥街",NSS,6226574.0,9631.0,614.0,6300253.999999999,9093.0,614.0,8098909.0,10709.0,793.0,3,6,10,"['A', 'B', 'C', 'D', 'E', 'F', 'G', 'H']",6929939.458333333,10204.166666666666,681.0,12,96,1992/04,31,CHEERFUL PARK,欣翠花園,True,4.0,384.0,POINT Z (22.496055 114.1315569 0),22.496055,114.1315569
35,"ROME COURT(Block 4,SHEUNG SHUI TOWN CTR),CHI CHEONG RD|上水名都,4座(羅馬閣),智昌路",NSS,4592614.0,11480.0,377.0,4575649.0,11968.0,377.0,5698882.0,13007.0,461.0,5,13,21,"['A', 'B', 'C', 'D', 'E', 'F', 'G', 'H']",4964364.958333333,12246.166666666666,405.9166666666667,25,200,1992/08,31,SHEUNG SHUI TOWN CTR,上水名都,True,4.0,784.0,POINT Z (22.5009022 114.1313868 0),22.5009022,114.1313868
36,"CANARY COURT(Block 3,FANLING TOWN CTR),FANLING STATION RD|粉嶺名都,3座(嘉蘭閣),粉嶺車站路",NSS,4434885.0,10983.0,376.0,4573737.0,11463.0,376.0,5489327.999999999,12695.0,456.0,5,13,21,"['A', 'B', 'C', 'D', 'E', 'F', 'G', 'H']",4939753.166666667,12139.5,407.5,25,200,1993/05,30,FANLING TOWN CTR,粉嶺名都,True,7.0,1280.0,POINT Z (22.492305 114.13987 0),22.492304999999998,114.13987
37,"FLORA PLAZA(Block 5),PAK WO RD|花都廣場5座,百和路",NSS,4710810.0,10919.0,390.0,4839120.0,11111.0,390.0,6443792.0,12860.0,536.0,9,20,30,"['A', 'B', 'C', 'D', 'E', 'F', 'G', 'H']",5419225.958333333,12001.75,453.75,34,272,1995/11,28,FLORA PLAZA,花都廣場,True,10.0,2720.0,POINT Z (22.4854804 114.141195 0),22.485480399999997,114.141195
38,"PARKFORD GARDEN,CHI FUK CIRT|百褔花園,置福圍",NSS,7643535.04885126,9746.0,756.0,7699001.136688116,9821.0,756.0,9742572.677442754,10051.0,968.0,3,6,8,"['A', 'B', 'C', 'D', 'E', 'F', 'G', 'H']",8791349.382498682,9909.0,853.375,8,64,1995/12,28,blank,,False,,,POINT Z (22.4922175 114.1354122 0),22.4922175,114.13541219999999
39,"AVON PARK(Block 7),YAT MING RD|碧湖花園7座,一鳴路",NSS,4652046.0,11163.0,397.0,4765588.0,11473.0,397.0,5857830.0,12889.0,485.0,5,12,20,"['A', 'B', 'C', 'D', 'E', 'F', 'G', 'H']",5117466.0,11943.291666666666,429.25,20,160,1994/03,29,AVON PARK,碧湖花園,True,7.0,1328.0,POINT Z (22.4869506 114.1432201 0),22.486950600000004,114.1432201
40,"DRAGON COURT(Block 4,FANLING TOWN CTR),FANLING STATION RD|粉嶺名都,4座(龍騰閣),粉嶺車站路",NSS,4654692.0,11821.0,376.0,4763544.0,12136.0,376.0,6214368.0,13792.0,456.0,5,13,21,"['A', 'B', 'C', 'D', 'E', 'F', 'G', 'H']",5167010.833333333,12662.041666666666,407.75,25,200,1993/05,30,FANLING TOWN CTR,粉嶺名都,True,7.0,1280.0,POINT Z (22.4918335 114.1401071 0),22.4918335,114.1401071
41,"VENICE GARDEN(Block 1),PO WING RD|威尼斯花園1座,保榮路",NSS,4198040.0,9541.0,439.0,4265360.0,9694.0,439.0,5145010.0,10727.0,494.0,4,10,15,"['A', 'B', 'C', 'D', 'E', 'F', 'G', 'H']",4586604.125,10114.333333333334,453.5,18,144,1993/03,30,VENICE GARDEN,威尼斯花園,True,2.0,288.0,POINT Z (22.4976429 114.1277249 0),22.4976429,114.1277249
42,"WO FUNG COURT,WO FUNG ST|和豐閣,和豐街",NSS,4441961.342301307,8611.0,428.0,4468289.227689584,8666.0,428.0,5517738.191539217,9134.0,537.0,4,6,9,"['A', 'B', 'C', 'D']",4962315.639759158,8878.416666666666,482.5,10,40,1991/03,32,blank,,False,,,POINT Z (22.4981563 114.14224 0),22.498156299999998,114.14223999999999
43,"FLORA PLAZA(Block 9),PAK WO RD|花都廣場9座,百和路",NSS,4806750.0,11476.0,390.0,4835610.0,12146.0,390.0,6795944.000000001,13318.0,536.0,9,20,30,"['A', 'B', 'C', 'D', 'E', 'F', 'G', 'H']",5433750.125,12406.583333333334,438.75,34,272,1995/11,28,FLORA PLAZA,花都廣場,True,10.0,2720.0,POINT Z (22.4854804 114.141195 0),22.485480399999997,114.141195
44,"GOOD VIEW NEW VILLAGE(Block 9C),LING SHAN RD|美景新村9C座,靈山路",NSS,2845826.804805305,4095.0,350.0,2472678.690947534,4098.0,350.0,2847911.6596073597,6087.0,453.0,1,2,2,"['2', '3', '5', '6']",2706113.783609471,4627.888888888888,400.0,2,8,1983/06,40,GOOD VIEW NEW VILLAGE,美景新村,True,2.0,18.0,POINT Z (22.5028465 114.1381642 0),22.5028465,114.1381642
45,"FLORA PLAZA(Block 1),PAK WO RD|花都廣場1座,百和路",NSS,4585620.0,10989.0,390.0,4731480.0,11486.0,390.0,6346776.0,12530.0,536.0,9,20,30,"['A', 'B', 'C', 'D', 'E', 'F', 'G', 'H']",5353310.0,11843.916666666666,453.75,34,272,1995/11,28,FLORA PLAZA,花都廣場,True,10.0,2720.0,POINT Z (22.4854804 114.141195 0),22.485480399999997,114.141195
46,"WOODLAND CREST(Block 9),TIN PING RD|奕翠園9座,天平路",NSS,9082939.39961313,8306.0,937.0,9468760.837635687,8497.0,937.0,14522755.917668274,9946.0,1478.0,2,6,8,"['A', 'B', 'C', 'D', 'E', 'F', 'G']",10793337.26325407,9005.619047619048,1062.4285714285713,10,70,1996/06,27,WOODLAND CREST,奕翠園,True,8.0,572.0,POINT Z (22.5065026 114.133322 0),22.5065026,114.13332199999999
47,"WOODLAND CREST(Block 7),TIN PING RD|奕翠園7座,天平路",NSS,9225702.0,9681.0,935.0,9323150.0,9784.0,935.0,10152710.0,10076.0,1030.0,2,6,9,"['A', 'B', 'C', 'D', 'E', 'F', 'G', 'H']",9686835.666666666,9876.0,981.25,9,72,1996/03,27,WOODLAND CREST,奕翠園,True,8.0,572.0,POINT Z (22.5063694 114.1326485 0),22.5063694,114.13264850000002
48,"BRILLIANT COURT(Block 2,FANLING TOWN CTR),FANLING STATION RD|粉嶺名都,2座(百利閣),粉嶺車站路",NSS,4414240.0,11046.0,376.0,4521400.0,11471.0,376.0,5356632.0,12973.0,456.0,5,12,19,"['A', 'B', 'C', 'D', 'E', 'F', 'G', 'H']",4862442.583333333,11957.083333333334,407.5,23,184,1993/05,30,FANLING TOWN CTR,粉嶺名都,True,7.0,1280.0,POINT Z (22.4918335 114.1401071 0),22.4918335,114.1401071
49,"WING HAY COURT,WO FUNG ST|榮熙閣,和豐街",NSS,4166419.071763752,9796.0,402.0,4204105.6861185115,9882.0,402.0,5407090.66294126,11780.0,531.0,3,6,9,"['A', 'B', 'C', 'D']",4925686.045368467,10436.666666666666,466.5,10,40,1993/09,30,blank,,False,,,POINT Z (22.4983675 114.1420078 0),22.4983675,114.1420078
50,"FOO HOO COURT,LUEN ON ST|富好閣,聯安街",NSS,3451318.00997688,10821.0,284.0,3510365.8750540833,11260.0,284.0,3849456.751438984,12238.0,317.0,3,6,9,"['A', 'B', 'C', 'D']",3613331.5259866784,11785.5,301.25,11,44,1991/12,32,blank,,False,,,POINT Z (22.4995899 114.1437714 0),22.499589899999997,114.14377140000002
51,"GREENPARK VILLA(Block 1),KAT CHEUNG CRES|蔚翠花園1座,吉祥街",NSS,5622004.430346609,9311.0,538.0,5681760.498889542,9455.0,538.0,9161605.352065144,10962.0,845.0,3,8,11,"['A', 'B', 'C', 'D', 'E', 'F']",7591129.257361629,10224.611111111111,732.3333333333334,12,72,1994/01,29,GREENPARK VILLA,蔚翠花園,True,6.0,552.0,POINT Z (22.4959617 114.1328343 0),22.4959617,114.13283429999998
52,"EDEN GARDEN,WAI HON RD|海裕苑,維翰路",NSS,,,1077.0,,,1077.0,,,1193.0,2,6,10,"['10A', '10B', '11B', '12A', '15B', '16B', '18B', '1A', '1B', '2A', '3A', '3B', '4A', '5A', '5B', '6A', '7B', '8A', '9A', 'A', 'B']",,,1166.4285714285716,12,252,1992/12,31,blank,,False,,,POINT Z (22.4951548 114.1300125 0),22.4951548,114.1300125
53,"FLORA PLAZA(Block 10),PAK WO RD|花都廣場10座,百和路",NSS,4756050.0,11001.0,390.0,4865640.0,11449.0,390.0,6788976.0,12804.0,536.0,9,20,30,"['A', 'B', 'C', 'D', 'E', 'F', 'G', 'H']",5494923.916666667,12153.375,453.75,34,272,1995/11,28,FLORA PLAZA,花都廣場,True,10.0,2720.0,POINT Z (22.4854804 114.141195 0),22.485480399999997,114.141195
54,"NEW YORK COURT(Block 2,SHEUNG SHUI TOWN CTR),CHI CHEONG RD|上水名都,2座(紐約閣),智昌路",NSS,4527393.0,11745.0,371.0,4734702.0,11694.0,371.0,5824454.999999999,13242.0,461.0,5,12,20,"['A', 'B', 'C', 'D', 'E', 'F', 'G', 'H']",5040162.583333333,12374.0,407.7916666666667,24,192,1992/08,31,SHEUNG SHUI TOWN CTR,上水名都,True,4.0,784.0,POINT Z (22.5007424 114.1316963 0),22.5007424,114.1316963
55,"SHEUNG SHUI CTR(Block 5),CHI CHEONG RD|上水中心5座,智昌路",NSS,4899993.0,12946.0,353.0,4991773.0,13255.0,353.0,7869315.0,14763.0,535.0,6,13,20,"['5A', '5B', '5C', '5D', '5E', '5F', '5G', 'A', 'B', 'C', 'D', 'E', 'F', 'G', 'H']",6189197.266666667,14061.311111111112,440.8666666666666,23,345,1993/11,30,SHEUNG SHUI CTR,上水中心,True,6.0,2233.0,POINT Z (22.5009195 114.1303028 0),22.500919500000002,114.1303028
56,"SHEUNG SHUI CTR(Block 6),CHI CHEONG RD|上水中心6座,智昌路",NSS,5976047.999999999,12018.0,488.0,6148800.0,12598.0,480.0,8264514.0,13473.0,622.0,6,13,20,"['6A', '6B', '6C', '6D', '6E', '6F', '6G', '6H', 'A', 'B', 'C', 'D', 'E', 'F', 'G', 'H']",7148773.791666667,12823.833333333334,558.3333333333334,23,368,1993/11,30,SHEUNG SHUI CTR,上水中心,True,6.0,2233.0,POINT Z (22.5010553 114.13077 0),22.5010553,114.13077
57,"SHEUNG SHUI CTR(Block 4),CHI CHEONG RD|上水中心4座,智昌路",NSS,4929645.0,13485.0,353.0,4929292.0,13727.0,353.0,7924419.999999999,14812.0,535.0,6,13,20,"['4A', '4B', '4C', '4D', '4E', '4F', '4G', '4H', 'A', 'B', 'C', 'D', 'E', 'F', 'G', 'H']",6292253.125,14098.375,446.3333333333333,23,368,1993/11,30,SHEUNG SHUI CTR,上水中心,True,6.0,2233.0,POINT Z (22.5008858 114.1299577 0),22.500885800000002,114.1299577
58,"SHEUNG SHUI CTR(Block 2),CHI CHEONG RD|上水中心2座,智昌路",NSS,4542349.0,12950.0,323.0,4813120.0,13931.0,338.0,5211400.0,14882.0,355.0,5,12,20,"['2A', '2B', '2C', '2D', '2E', '2F', '2G', '2H', 'A', 'B', 'C', 'D', 'E', 'F', 'G', 'H']",4949350.0,14184.625,348.9791666666667,24,384,1993/11,30,SHEUNG SHUI CTR,上水中心,True,6.0,2233.0,POINT Z (22.5009432 114.1293274 0),22.500943200000002,114.1293274
59,"METROPOLIS PLAZA(Block 3),LUNG WAN ST|新都廣場3座,龍運街",NSS,5033190.0,11133.0,414.0,5173770.0,11334.0,414.0,6940420.0,13629.0,596.0,8,16,24,"['A', 'B', 'C', 'D', 'E', 'F', 'G', 'H']",5841760.208333333,12142.833333333334,483.25,25,200,1991/03,32,METROPOLIS PLAZA,新都廣場,True,3.0,592.0,POINT Z (22.5016194 114.1292912 0),22.5016194,114.1292912
60,"GREENPARK VILLA(Block 5),KAT CHEUNG CRES|蔚翠花園5座,吉祥街",NSS,5655973.740754631,9102.0,554.0,5889122.473655285,8998.0,554.0,7518225.0,10515.0,735.0,3,8,11,"['A', 'B', 'C', 'D', 'E', 'F', 'G', 'H']",6927495.01904405,9789.416666666666,699.5416666666666,12,96,1994/01,29,GREENPARK VILLA,蔚翠花園,True,6.0,552.0,POINT Z (22.4948766 114.1333337 0),22.4948766,114.13333370000001
61,"SHEUNG SHUI CTR(Block 3),CHI CHEONG RD|上水中心3座,智昌路",NSS,4393446.0,13340.0,323.0,4669808.0,13635.0,338.0,5245499.999999999,14449.0,375.0,5,12,20,"['3A', '3B', '3C', '3D', '3E', '3F', '3G', '3H', 'A', 'B', 'C', 'D', 'E', 'F', 'G', 'H']",4842825.5,13852.9375,349.6041666666667,24,384,1993/11,30,SHEUNG SHUI CTR,上水中心,True,6.0,2233.0,POINT Z (22.5008858 114.1299577 0),22.500885800000002,114.1299577
62,"VIENNA GARDEN(Block 1),KAT CHEUNG CRES|維也納花園1座,吉祥街",NSS,4574938.0,8607.0,476.0,4625606.0,8717.0,476.0,6757824.000000001,10058.0,732.0,3,6,10,"['A', 'B', 'C', 'D', 'E', 'F', 'G', 'H']",5830680.458333333,9201.125,637.5,12,96,1993/03,30,VIENNA GARDEN,維也納花園,True,3.0,288.0,POINT Z (22.4959228 114.130326 0),22.4959228,114.130326
63,"SHEUNG SHUI CTR(Block 1),CHI CHEONG RD|上水中心1座,智昌路",NSS,4630938.0,13639.0,338.0,4746534.0,14043.0,338.0,5349140.0,15215.0,355.0,5,12,20,"['1A', '1B', '1C', '1D', '1E', '1F', '1G', '1H', 'A', 'B', 'C', 'D', 'E', 'F', 'G', 'H']",5036106.708333333,14383.666666666666,350.125,24,384,1993/11,30,SHEUNG SHUI CTR,上水中心,True,6.0,2233.0,POINT Z (22.5011544 114.1290951 0),22.5011544,114.12909509999999
64,"GREENPARK VILLA(Block 2),KAT CHEUNG CRES|蔚翠花園2座,吉祥街",NSS,6318455.0,8837.0,715.0,6417125.0,8975.0,715.0,6967551.0,9637.0,742.0,3,8,11,"['A', 'B', 'C', 'D', 'E', 'F', 'G', 'H']",6670211.75,9244.25,721.5416666666666,12,96,1994/01,29,GREENPARK VILLA,蔚翠花園,True,6.0,552.0,POINT Z (22.495581 114.133057 0),22.495581,114.13305700000001
65,"GREENPARK VILLA(Block 6),KAT CHEUNG CRES|蔚翠花園6座,吉祥街",NSS,7115679.999999999,9952.0,715.0,7180030.0,10042.0,715.0,7945794.999999999,11113.0,729.0,3,8,11,"['A', 'B', 'C', 'D', 'E', 'F', 'G', 'H']",7542393.444444444,10480.555555555557,722.0,12,96,1994/01,29,GREENPARK VILLA,蔚翠花園,True,6.0,552.0,POINT Z (22.4951099 114.1336136 0),22.4951099,114.13361359999999
66,"UNION PLAZA(Block 2),WO MUK RD|海聯廣場2座,和睦路",NSS,4500002.0,9235.0,442.0,4560114.0,9407.0,442.0,6551352.0,10643.0,684.0,7,14,21,"['A', 'B', 'C', 'D', 'E', 'F', 'G', 'H']",5404757.708333333,10007.083333333334,543.375,20,160,1994/05,29,UNION PLAZA,海聯廣場,True,1.0,160.0,POINT Z (22.4999531 114.1413575 0),22.499953100000003,114.1413575
67,"GREENPARK VILLA(Block 3),KAT CHEUNG CRES|蔚翠花園3座,吉祥街",NSS,6289855.0,8797.0,715.0,5764370.0,8921.0,554.0,7314600.0,10461.0,730.0,3,8,11,"['A', 'B', 'C', 'D', 'E', 'F', 'G', 'H']",6807483.375,9639.166666666666,707.25,12,96,1994/01,29,GREENPARK VILLA,蔚翠花園,True,6.0,552.0,POINT Z (22.4953512 114.1328343 0),22.495351199999998,114.13283429999998
68,"METROPOLIS PLAZA(Block 2),LUNG WAN ST|新都廣場2座,龍運街",NSS,5241654.0,12367.0,414.0,5335632.0,12888.0,414.0,8450876.0,14041.0,602.0,8,16,24,"['A', 'B', 'C', 'D', 'E', 'F', 'G', 'H']",6312040.125,13095.625,480.75,25,200,1991/03,32,METROPOLIS PLAZA,新都廣場,True,3.0,592.0,POINT Z (22.5020588 114.1297509 0),22.5020588,114.1297509
69,"TONG WU HSE(Block C,YUK PO COURT),CHOI YUEN RD|旭埔苑,C座(唐湖閣),彩園路",NSS,2967510.0,5435.0,546.0,3029208.0,5548.0,546.0,3283098.0,6013.0,546.0,4,10,15,"['1', '2', '3', '4', '5', '6', '7']",3088228.0,5656.095238095238,546.0,16,112,1982/12,41,YUK PO COURT,旭埔苑,True,8.0,1059.0,POINT Z (22.499941 114.128293 0),22.499941,114.128293
70,"METROPOLIS PLAZA(Block 1),LUNG WAN ST|新都廣場1座,龍運街",NSS,5093277.999999999,10778.0,435.0,5365925.999999999,11041.0,435.0,6314880.0,12789.0,506.0,8,16,23,"['A', 'B', 'C', 'D', 'E', 'F', 'G', 'H']",5684161.041666667,11913.375,477.5,24,192,1991/03,32,METROPOLIS PLAZA,新都廣場,True,3.0,592.0,POINT Z (22.5024264 114.1290487 0),22.5024264,114.1290487
71,"TSUN WU HSE(Block H,YUK PO COURT),CHOI YUEN RD|旭埔苑,H座(秦湖閣),彩園路",NSS,4657380.0,8530.0,546.0,4752930.0,8705.0,546.0,4984980.0,9130.0,546.0,3,10,16,"['1', '2', '3', '4', '5', '6', '7']",4807322.0,8804.619047619048,546.0,20,140,1982/12,41,YUK PO COURT,旭埔苑,True,8.0,1059.0,POINT Z (22.499941 114.128293 0),22.499941,114.128293
72,"MAN SHANG COURT,MAN SHANG ST|民生閣,民生街",NSS,2895928.5481867366,13907.0,202.0,2991695.998713696,13954.0,208.0,3081862.018375737,14195.0,215.0,3,4,5,"['A', 'B']",3032332.78151047,14051.166666666666,211.83333333333334,3,6,1996/04,27,blank,,False,,,POINT Z (22.5374253 114.1244094 0),22.5374253,114.1244094
73,"GREENPARK VILLA(Block 4),KAT CHEUNG CRES|蔚翠花園4座,吉祥街",NSS,6582192.0,9104.0,715.0,6371799.0,8813.0,715.0,7543059.000000001,10433.0,730.0,3,8,11,"['A', 'B', 'C', 'D', 'E', 'F', 'G', 'H']",6846466.75,9513.75,719.625,12,96,1994/01,29,GREENPARK VILLA,蔚翠花園,True,6.0,552.0,POINT Z (22.4951326 114.133113 0),22.4951326,114.133113
74,"MING WU HSE(Block B,YUK PO COURT),CHOI YUEN RD|旭埔苑,B座(明湖閣),彩園路",NSS,4563329.133477999,7201.0,546.0,4784493.120088723,7550.0,546.0,5207176.154671396,8217.0,546.0,3,10,16,"['1', '2', '3', '4', '5', '6', '8']",4868595.184583754,7682.714285714285,546.0,18,126,1982/12,41,YUK PO COURT,旭埔苑,True,8.0,1059.0,POINT Z (22.499941 114.128293 0),22.499941,114.128293
75,"VIENNA GARDEN(Block 3),KAT CHEUNG CRES|維也納花園3座,吉祥街",NSS,4469778.0,8675.0,478.0,4532396.0,8630.0,478.0,6649760.0,9687.0,736.0,3,6,10,"['A', 'B', 'C', 'D', 'E', 'F', 'G', 'H']",5755934.517720909,9041.083333333334,638.25,12,96,1993/03,30,VIENNA GARDEN,維也納花園,True,3.0,288.0,POINT Z (22.4960815 114.1309763 0),22.4960815,114.1309763
76,"VIENNA GARDEN(Block 2),KAT CHEUNG CRES|維也納花園2座,吉祥街",NSS,4709256.0,8960.0,478.0,4813938.0,8962.0,478.0,6864696.0,10282.0,732.0,3,6,10,"['A', 'B', 'C', 'D', 'E', 'F', 'G', 'H']",6057222.333333333,9548.333333333334,637.75,12,96,1993/03,30,VIENNA GARDEN,維也納花園,True,3.0,288.0,POINT Z (22.4958096 114.1306279 0),22.4958096,114.13062790000001
77,"FORUM COURT(Block 6,FANLING TOWN CTR),FANLING STATION RD|粉嶺名都,6座(富臨閣),粉嶺車站路",NSS,4482375.0,11610.0,375.0,4612500.0,11890.0,375.0,5687232.0,13276.0,456.0,5,12,18,"['A', 'B', 'C', 'D', 'E', 'F', 'G', 'H']",4997933.541666667,12315.916666666666,406.25,22,176,1993/05,30,FANLING TOWN CTR,粉嶺名都,True,7.0,1280.0,POINT Z (22.49297 114.1390583 0),22.49297,114.13905829999999
78,"HON WU HSE(Block D,YUK PO COURT),CHOI YUEN RD|旭埔苑,D座(漢湖閣),彩園路",NSS,4903869.812131711,8814.0,546.0,4988438.476920004,8966.0,546.0,5143666.486630097,9245.0,546.0,4,10,16,"['1', '2', '3', '4', '5', '6', '7', '8']",5028265.496137737,9037.583333333334,546.0,19,152,1982/12,41,YUK PO COURT,旭埔苑,True,8.0,1059.0,POINT Z (22.499941 114.128293 0),22.499941,114.128293
79,"OTB BLDG FANLING,LUEN HING ST|粉嶺海外大廈,聯興街",NSS,3158806.541681165,9196.0,315.0,3158806.541681165,9196.0,315.0,3723711.404856901,9898.0,396.0,2,2,4,"['A', 'D']",3440004.0774876713,9533.333333333334,355.5,4,8,1984/01,39,blank,,False,,,POINT Z (22.498096 114.142534 0),22.498096,114.14253400000001
80,"FORTUNE HSE,CHI FUK CIRT|廣福苑,置福圍",NSS,8216219.960172102,8158.0,908.0,8293940.959795351,8243.0,908.0,9062596.918251805,9614.0,1816.0,3,6,9,"['A', 'B', 'C', 'D', 'E']",8795389.767132564,8888.4,982.5333333333333,9,45,1996/09,27,blank,,False,,,POINT Z (22.4919322 114.1363876 0),22.491932199999997,114.13638759999999
81,"CHOW WU HSE(Block F,YUK PO COURT),CHOI YUEN RD|旭埔苑,F座(周湖閣),彩園路",NSS,4721808.0,8648.0,546.0,4766580.0,8730.0,546.0,4939116.0,9046.0,546.0,4,10,16,"['1', '2', '3', '4', '5', '6', '7', '8']",4830780.5,8847.583333333334,546.0,18,144,1982/12,41,YUK PO COURT,旭埔苑,True,8.0,1059.0,POINT Z (22.499941 114.128293 0),22.499941,114.128293
82,"SEUNG WU HSE(Block G,YUK PO COURT),CHOI YUEN RD|旭埔苑,G座(商湖閣),彩園路",NSS,4590222.0,8407.0,546.0,4639908.0,8498.0,546.0,4838652.0,8862.0,546.0,4,10,16,"['1', '2', '3', '4', '5', '6', '7', '8']",4720865.5,8646.27380952381,546.0,18,144,1982/12,41,YUK PO COURT,旭埔苑,True,8.0,1059.0,POINT Z (22.499941 114.128293 0),22.499941,114.128293
83,"GOOD VIEW NEW VILLAGE(Block 13B),LING SHAN RD|美景新村13B座,靈山路",NSS,,,350.0,,,350.0,,,367.0,1,2,2,"['1', '2', '4', '5', '6']",,,358.6000000000001,2,10,1983/06,40,GOOD VIEW NEW VILLAGE,美景新村,True,2.0,18.0,POINT Z (22.5029623 114.1375023 0),22.502962300000004,114.13750230000001
84,6-20 SAN LOK ST|6-20 新樂街,NSS,,,630.0,6165488.434323196,8432.0,630.0,6165488.434323196,8432.0,630.0,1,2,2,"['A', 'C', 'E', 'F']",6165488.434323196,8432.0,630.0,2,8,1974/04,49,blank,,False,,,POINT Z (22.5039286 114.1286449 0),22.503928600000002,114.1286449
85,"YAN HEI HSE(Block C,Phase 1,YAN SHING COURT),15 WAH MING RD|欣盛苑,1期,C座(欣喜閣),15 華明路",NSS,3510144.0,6184.0,401.0,3612079.9999999995,6364.0,401.0,4233135.0,6792.0,645.0,6,18,29,"['1', '10', '2', '3', '4', '5', '6', '7', '8', '9']",3806455.055555556,6521.777777777778,511.0,32,320,1993/09,30,YAN SHING COURT,欣盛苑,True,7.0,2192.0,POINT Z (22.487455 114.139492 0),22.487454999999997,114.13949199999999
86,"YAN YIU HSE(Block E,Phase 2,YAN SHING COURT),15 WAH MING RD|欣盛苑,2期,E座(欣耀閣),15 華明路",NSS,2746849.9999999995,6187.0,401.0,2831060.0,6389.0,401.0,4283445.0,7320.0,645.0,7,18,30,"['1', '10', '2', '3', '4', '5', '6', '7', '8', '9']",3435405.6666666665,6772.666666666667,511.0,33,330,1993/09,30,YAN SHING COURT,欣盛苑,True,7.0,2192.0,POINT Z (22.4871847 114.1392441 0),22.487184699999997,114.13924409999998
87,"YAN CHOI HSE(Block F,Phase 2,YAN SHING COURT),15 WAH MING RD|欣盛苑,2期,F座(欣彩閣),15 華明路",NSS,2597993.9736397765,6077.0,401.0,2620535.0,6253.0,401.0,4602089.539916169,7002.0,645.0,6,18,30,"['1', '10', '2', '3', '4', '5', '6', '7', '8', '9']",3360337.7800669014,6445.611111111112,511.0,33,330,1993/09,30,YAN SHING COURT,欣盛苑,True,7.0,2192.0,POINT Z (22.487063 114.138537 0),22.487063,114.13853700000001
88,"SUNNINGDALE GARDEN(Block 4),CHI CHEONG RD|順欣花園4座,智昌路",NSS,,,428.0,,,428.0,,,583.0,6,12,18,"['A', 'B', 'C', 'D', 'E', 'F', 'G', 'H', 'J', 'K']",,,530.1,19,190,1992/05,31,SUNNINGDALE GARDEN,順欣花園,True,4.0,723.0,POINT Z (22.5019123 114.1316496 0),22.5019123,114.1316496
89,"SUNNINGDALE GARDEN(Block 3),CHI CHEONG RD|順欣花園3座,智昌路",NSS,4297120.0,9549.0,428.0,4372020.0,9624.0,428.0,5980976.9726593625,10439.0,583.0,4,10,18,"['A', 'B', 'C', 'D', 'E', 'F', 'G', 'H', 'J', 'K']",5349820.201617197,9854.0,531.8,20,200,1992/05,31,SUNNINGDALE GARDEN,順欣花園,True,4.0,723.0,POINT Z (22.5015557 114.1320679 0),22.5015557,114.1320679
90,"WING FOK CTR(Block 4),LUEN CHIT ST|榮福中心4座,聯捷街",NSS,4034591.0000000005,8741.0,431.0,4149668.0,9000.0,431.0,5545434.999999999,9890.0,592.0,5,15,24,"['A', 'B', 'C', 'D', 'E', 'F', 'G', 'H', 'J', 'K']",5012165.758333334,9196.783333333333,535.8,27,270,1993/09,30,WING FOK CTR,榮福中心,True,6.0,1465.0,POINT Z (22.5017465 114.1403589 0),22.5017465,114.14035890000001
91,"YAN YUET HSE(Block D,Phase 1,YAN SHING COURT),15 WAH MING RD|欣盛苑,1期,D座(欣悅閣),15 華明路",NSS,2719983.0,6053.0,401.0,2797777.0,6202.0,401.0,4186050.0,7245.0,645.0,11,20,29,"['1', '10', '2', '3', '4', '5', '6', '7', '8', '9']",3362654.4333333336,6636.900000000001,511.0,29,290,1993/09,30,YAN SHING COURT,欣盛苑,True,7.0,2192.0,POINT Z (22.4874713 114.1394996 0),22.487471300000003,114.13949960000001
92,"YAN FAI HSE(Block G,Phase 2,YAN SHING COURT),15 WAH MING RD|欣盛苑,2期,G座(欣輝閣),15 華明路",NSS,2735621.9999999995,6536.0,401.0,2828253.0,6737.0,401.0,4509195.0,7374.0,645.0,7,18,30,"['1', '10', '2', '3', '4', '5', '6', '7', '8', '9']",3535564.766666667,6943.533333333333,511.0,32,320,1993/09,30,YAN SHING COURT,欣盛苑,True,7.0,2192.0,POINT Z (22.486115 114.139083 0),22.486114999999998,114.13908300000001
93,"LUEN WO CTR,WO FUNG ST|聯和中心,和豐街",NSS,2804292.3582673287,7527.0,321.0,2785291.573057865,7476.0,321.0,3018144.3329777643,8101.0,321.0,3,4,5,"['A', 'C']",2945680.5540906917,7906.5,321.0,3,6,1991/04,32,blank,,False,,,POINT Z (22.4989831 114.1430761 0),22.4989831,114.14307609999999
94,"CHING WU HSE(Block A,YUK PO COURT),CHOI YUEN RD|旭埔苑,A座(清湖閣),彩園路",NSS,4841556.05912981,8702.0,546.0,4932801.197454022,8866.0,546.0,5416845.528808071,9736.0,546.0,3,9,16,"['1', '2', '3', '4', '5', '6', '7', '8']",5179691.625084319,9309.75,546.0,17,136,1982/12,41,YUK PO COURT,旭埔苑,True,8.0,1059.0,POINT Z (22.499941 114.128293 0),22.499941,114.128293
95,"SUNNINGDALE GARDEN(Block 1),CHI CHEONG RD|順欣花園1座,智昌路",NSS,2964382.7818857436,6234.0,428.0,2980955.761981618,6299.0,428.0,3920899.705663151,7547.0,583.0,6,11,17,"['A', 'B', 'C', 'E', 'F', 'G', 'H', 'J', 'K']",3554241.9983455376,6688.88888888889,526.1111111111111,17,153,1992/05,31,SUNNINGDALE GARDEN,順欣花園,True,4.0,723.0,POINT Z (22.5015399 114.1327181 0),22.501539899999997,114.13271809999999
96,"SUNNINGDALE GARDEN(Block 2),CHI CHEONG RD|順欣花園2座,智昌路",NSS,3102200.1953145936,6726.0,428.0,3141451.9902785067,6859.0,428.0,4271058.0,7527.0,583.0,6,12,18,"['A', 'B', 'C', 'D', 'E', 'F', 'G', 'H', 'J', 'K']",3787491.057570774,7034.066666666666,531.8,18,180,1992/05,31,SUNNINGDALE GARDEN,順欣花園,True,4.0,723.0,POINT Z (22.5012935 114.1323466 0),22.5012935,114.1323466
97,"WING FOK CTR(Block 3),LUEN CHIT ST|榮福中心3座,聯捷街",NSS,2579535.0,5586.0,431.0,2643753.9999999995,5879.0,431.0,3608832.0,6242.0,592.0,6,14,23,"['A', 'B', 'C', 'D', 'E', 'F', 'G', 'H', 'J', 'K']",3185305.4333333336,5957.833333333333,535.6,28,280,1993/09,30,WING FOK CTR,榮福中心,True,6.0,1465.0,POINT Z (22.501383 114.1404518 0),22.501382999999997,114.1404518
98,"YAN LAI HSE(Block B,Phase 1,YAN SHING COURT),15 WAH MING RD|欣盛苑,1期,B座(欣麗閣),15 華明路",NSS,2717310.463149499,6365.0,401.0,2750817.1485597636,6576.0,401.0,4526610.0,7133.0,645.0,7,18,29,"['1', '10', '2', '3', '4', '5', '6', '7', '8', '9']",3491834.2625498646,6803.966666666667,511.0,34,340,1993/09,30,YAN SHING COURT,欣盛苑,True,7.0,2192.0,POINT Z (22.487046 114.140489 0),22.487046,114.14048899999999
99,"FANLING CTR(Phase 2),Block K,SAN WAN RD|粉嶺中心2期,K座,新運路",NSS,4797690.0,11910.0,361.0,4906351.0,12024.0,361.0,6314496.0,14025.0,512.0,7,15,23,"['1', '2', '3', '4', '5', '6', '7', '8']",5742235.875,12715.125,454.4166666666667,25,200,1991/12,32,FANLING CTR,粉嶺中心,True,11.0,2200.0,POINT Z (22.4910725 114.1412646 0),22.4910725,114.1412646
100,"FANLING CTR(Phase 1),Block A,SAN WAN RD|粉嶺中心1期,A座,新運路",NSS,4412625.0,10596.0,375.0,4471125.0,10864.0,375.0,6351200.0,12617.0,544.0,7,15,23,"['1', '2', '3', '4', '5', '6', '7', '8']",5587065.458333333,11719.041666666666,479.3333333333333,25,200,1990/12,33,FANLING CTR,粉嶺中心,True,11.0,2200.0,POINT Z (22.4900018 114.1425187 0),22.4900018,114.1425187
101,"FANLING CTR(Phase 1),Block D,SAN WAN RD|粉嶺中心1期,D座,新運路",NSS,4578000.0,10723.0,375.0,4621500.0,10956.0,375.0,6208128.0,12885.0,544.0,7,15,23,"['1', '2', '3', '4', '5', '6', '7', '8']",5502486.791666667,11549.333333333334,479.6666666666667,25,200,1990/12,33,FANLING CTR,粉嶺中心,True,11.0,2200.0,POINT Z (22.4906428 114.1417756 0),22.4906428,114.1417756
102,"FANLING CTR(Phase 1),Block G,SAN WAN RD|粉嶺中心1期,G座,新運路",NSS,4627125.0,10927.0,375.0,4781250.0,11121.0,375.0,6386670.0,13303.0,544.0,7,15,23,"['1', '2', '3', '4', '5', '6', '7', '8']",5454558.208333333,12144.958333333334,454.0,25,200,1990/12,33,FANLING CTR,粉嶺中心,True,11.0,2200.0,POINT Z (22.4904219 114.1413807 0),22.490421899999998,114.1413807
103,"SIN HUA BANK BLDG,LUEN SHING ST|新華銀行大廈,聯盛街",NSS,5041653.096711438,6548.0,492.0,4462574.990793094,3040.0,492.0,5128277.581969011,10229.0,492.0,4,7,10,"['A', 'B']",4995219.399323602,7752.5,492.0,11,22,1989/02,34,blank,,False,,,POINT Z (22.4988738 114.1432154 0),22.498873800000002,114.14321540000002
104,"DAWNING VIEWS(Block 5),YAT MING RD|牽晴間5座,一鳴路",NSS,5137912.0,11914.0,389.0,5253444.999999999,12078.0,389.0,7335978.0,14213.0,577.0,8,17,26,"['A', 'B', 'C', 'D', 'E', 'F', 'G', 'H']",5910050.875,13269.875,448.5,29,232,1999/06,24,DAWNING VIEWS,牽晴間,True,12.0,2784.0,POINT Z (22.4868693 114.1445392 0),22.4868693,114.1445392
105,"DAWNING VIEWS(Block 4),YAT MING RD|牽晴間4座,一鳴路",NSS,5188093.0,12098.0,388.0,5310239.0,12437.0,388.0,7352738.0,14270.0,578.0,8,17,26,"['A', 'B', 'C', 'D', 'E', 'F', 'G', 'H']",5768203.458333333,13389.625,432.625,29,232,1999/06,24,DAWNING VIEWS,牽晴間,True,12.0,2784.0,POINT Z (22.4866087 114.1439818 0),22.4866087,114.14398179999999
106,"DAWNING VIEWS(Block 7),YAT MING RD|牽晴間7座,一鳴路",NSS,5128965.0,11450.0,389.0,5328910.999999999,11757.0,389.0,9124572.0,14503.0,724.0,8,17,26,"['A', 'B', 'C', 'D', 'E', 'F', 'G', 'H']",6141900.333333333,13346.791666666666,466.125,29,232,1999/06,24,DAWNING VIEWS,牽晴間,True,12.0,2784.0,POINT Z (22.4864469 114.1450037 0),22.486446899999997,114.1450037
107,"DAWNING VIEWS(Block 6),YAT MING RD|牽晴間6座,一鳴路",NSS,4620153.0,11877.0,389.0,5225826.0,12275.0,389.0,7124219.0,13852.0,577.0,8,17,26,"['A', 'B', 'C', 'D', 'E', 'F', 'G', 'H']",5796656.333333333,13009.583333333334,448.5,29,232,1999/06,24,DAWNING VIEWS,牽晴間,True,12.0,2784.0,POINT Z (22.48664 114.1447482 0),22.486639999999998,114.14474820000001
108,"DAWNING VIEWS(Block 3),YAT MING RD|牽晴間3座,一鳴路",NSS,5144492.0,11871.0,388.0,5248088.0,12217.0,388.0,7390886.0,14262.0,578.0,8,17,26,"['A', 'B', 'C', 'D', 'E', 'F', 'G', 'H']",5909675.0,13179.208333333334,451.5,29,232,1999/06,24,DAWNING VIEWS,牽晴間,True,12.0,2784.0,POINT Z (22.4867509 114.1437728 0),22.4867509,114.1437728
109,"DAWNING VIEWS(Block 1),YAT MING RD|牽晴間1座,一鳴路",NSS,5158918.0,12247.0,388.0,5333579.0,12424.0,388.0,7205900.0,14316.0,575.0,8,17,26,"['A', 'B', 'C', 'D', 'E', 'F', 'G', 'H']",5955173.708333333,13392.541666666666,447.5,29,232,1999/06,24,DAWNING VIEWS,牽晴間,True,12.0,2784.0,POINT Z (22.4870983 114.1432881 0),22.4870983,114.1432881
110,"DAWNING VIEWS(Block 11),YAT MING RD|牽晴間11座,一鳴路",NSS,5062835.0,12068.0,389.0,5253056.0,12138.0,389.0,7945965.000000001,14157.0,639.0,8,17,26,"['A', 'B', 'C', 'D', 'E', 'F', 'G', 'H']",5943546.75,13260.583333333334,451.625,29,232,1999/06,24,DAWNING VIEWS,牽晴間,True,12.0,2784.0,POINT Z (22.4877572 114.1438889 0),22.487757199999997,114.1438889
111,"DAWNING VIEWS(Block 12),YAT MING RD|牽晴間12座,一鳴路",NSS,5257395.0,11914.0,387.0,5392317.999999999,12205.0,387.0,8836510.0,14841.0,719.0,8,17,26,"['A', 'B', 'C', 'D', 'E', 'F', 'G', 'H']",6666793.416666667,13419.958333333334,506.125,29,232,1999/06,24,DAWNING VIEWS,牽晴間,True,12.0,2784.0,POINT Z (22.4877927 114.1438772 0),22.4877927,114.1438772
112,"DAWNING VIEWS(Block 2),YAT MING RD|牽晴間2座,一鳴路",NSS,4676263.0,11609.0,388.0,5236448.0,12014.0,388.0,7390886.0,14021.0,578.0,8,17,26,"['A', 'B', 'C', 'D', 'E', 'F', 'G', 'H']",5822973.208333333,12987.625,451.5,29,232,1999/06,24,DAWNING VIEWS,牽晴間,True,12.0,2784.0,POINT Z (22.4869439 114.1435173 0),22.4869439,114.1435173
113,"MOON WAH BLDG,SAN FUNG AVE|滿華大廈,新豐路",NSS,3281580.490700559,6284.0,415.0,3281580.490700559,6284.0,415.0,3876596.5821710066,7805.0,530.0,4,4,5,"['A', 'B', 'D', 'E', 'F', 'G', 'H']",3578254.9996733307,6917.238095238095,474.0,2,14,1981/07,42,blank,,False,,,POINT Z (22.5033435 114.1264243 0),22.5033435,114.1264243
114,"DAWNING VIEWS(Block 9),YAT MING RD|牽晴間9座,一鳴路",NSS,5036772.0,11930.0,389.0,5106014.0,12163.0,389.0,8018172.000000001,14136.0,639.0,8,17,26,"['A', 'B', 'C', 'D', 'E', 'F', 'G', 'H']",5955637.583333333,13244.166666666666,452.625,29,232,1999/06,24,DAWNING VIEWS,牽晴間,True,12.0,2784.0,POINT Z (22.4874678 114.144848 0),22.4874678,114.144848
115,"DAWNING VIEWS(Block 10),YAT MING RD|牽晴間10座,一鳴路",NSS,5026305.0,12443.0,389.0,5091602.0,12735.0,389.0,7271600.0,13944.0,560.0,8,17,26,"['A', 'B', 'C', 'D', 'E', 'F', 'G', 'H']",5847316.208333333,13249.333333333334,442.75,29,232,1999/06,24,DAWNING VIEWS,牽晴間,True,12.0,2784.0,POINT Z (22.4875808 114.1445403 0),22.487580800000003,114.14454029999999
116,"FANLING CTR(Phase 1),Block C,SAN WAN RD|粉嶺中心1期,C座,新運路",NSS,4579875.0,11242.0,375.0,4663500.0,11598.0,375.0,6599264.0,12805.0,544.0,7,15,23,"['1', '2', '3', '4', '5', '6', '7', '8']",5677363.041666667,11886.583333333334,479.3333333333333,25,200,1990/12,33,FANLING CTR,粉嶺中心,True,11.0,2200.0,POINT Z (22.4904752 114.1420078 0),22.4904752,114.1420078
117,"FANLING CTR(Phase 1),Block B,SAN WAN RD|粉嶺中心1期,B座,新運路",NSS,4705500.0,10810.0,375.0,4765500.0,10832.0,375.0,6171136.0,13227.0,544.0,7,15,23,"['1', '2', '3', '4', '5', '6', '7', '8']",5524500.125,11615.958333333334,479.3333333333333,25,200,1990/12,33,FANLING CTR,粉嶺中心,True,11.0,2200.0,POINT Z (22.490162 114.1423329 0),22.490161999999998,114.14233290000001
118,"DAWNING VIEWS(Block 8),YAT MING RD|牽晴間8座,一鳴路",NSS,5123908.0,11441.0,387.0,5213767.0,11394.0,387.0,8966649.0,14016.0,719.0,8,17,26,"['A', 'B', 'C', 'D', 'E', 'F', 'G', 'H']",6476405.833333333,13006.916666666666,506.125,29,232,1999/06,24,DAWNING VIEWS,牽晴間,True,12.0,2784.0,POINT Z (22.4874137 114.1452468 0),22.487413699999998,114.14524679999998
119,"FANLING CTR(Phase 2),Block H,SAN WAN RD|粉嶺中心2期,H座,新運路",NSS,4321531.0,11837.0,361.0,4327307.0,11987.0,361.0,6407429.0,13326.0,511.0,7,15,23,"['1', '2', '3', '4', '5', '6', '7', '8']",5358449.666666667,12407.458333333334,432.75,25,200,1991/12,32,FANLING CTR,粉嶺中心,True,11.0,2200.0,POINT Z (22.4905714 114.1411253 0),22.490571399999997,114.1411253
120,"FANLING CTR(Phase 1),Block E,SAN WAN RD|粉嶺中心1期,E座,新運路",NSS,4224000.0,9861.0,375.0,4545000.0,10114.0,375.0,6391455.999999999,12875.0,544.0,7,15,23,"['1', '2', '3', '4', '5', '6', '7', '8']",5220584.083333333,11612.041666666666,454.0,25,200,1990/12,33,FANLING CTR,粉嶺中心,True,11.0,2200.0,POINT Z (22.4900465 114.1419613 0),22.4900465,114.14196129999999
121,"FANLING CTR(Phase 2),Block J,SAN WAN RD|粉嶺中心2期,J座,新運路",NSS,4654734.0,11819.0,361.0,4804188.0,12115.0,361.0,6503814.0,13785.0,513.0,7,15,23,"['1', '2', '3', '4', '5', '6', '7', '8']",5727802.916666667,12667.291666666666,454.0833333333333,25,200,1991/12,32,FANLING CTR,粉嶺中心,True,11.0,2200.0,POINT Z (22.4909049 114.1414969 0),22.4909049,114.1414969
122,"FANLING CTR(Phase 1),Block F,SAN WAN RD|粉嶺中心1期,F座,新運路",NSS,4648500.0,10975.0,375.0,4772250.0,11227.0,375.0,6470336.0,13662.0,544.0,7,15,23,"['1', '2', '3', '4', '5', '6', '7', '8']",5537480.666666667,12319.708333333334,454.0,25,200,1990/12,33,FANLING CTR,粉嶺中心,True,11.0,2200.0,POINT Z (22.4901778 114.1416827 0),22.4901778,114.1416827
123,"FANLING CTR(Phase 2),Block L,SAN WAN RD|粉嶺中心2期,L座,新運路",NSS,4761229.0,11528.0,361.0,4862670.0,11779.0,361.0,6524334.0,14111.0,513.0,7,15,23,"['1', '2', '3', '4', '5', '6', '7', '8']",5757265.375,12758.708333333334,454.0833333333333,25,200,1991/12,32,FANLING CTR,粉嶺中心,True,11.0,2200.0,POINT Z (22.4912838 114.1410324 0),22.4912838,114.1410324
124,"BELAIR MONTE(Block 5),MA SIK RD|綠悠軒5座,馬適路",NSS,5104290.0,10274.0,435.0,5274375.0,10644.0,435.0,6881423.0,12543.0,619.0,6,16,25,"['A', 'B', 'C', 'D', 'E', 'F', 'G', 'H']",5965884.583333333,11338.208333333334,531.0416666666666,30,240,1998/12,25,BELAIR MONTE,綠悠軒,True,7.0,1680.0,POINT Z (22.5015235 114.1446553 0),22.501523499999998,114.14465530000001
125,"BELAIR MONTE(Block 3),MA SIK RD|綠悠軒3座,馬適路",NSS,4845465.0,10455.0,435.0,5025555.0,10746.0,435.0,7104882.0,12006.0,619.0,6,16,25,"['A', 'B', 'C', 'D', 'E', 'F', 'G', 'H']",5919903.166666667,11309.166666666666,527.0,30,240,1998/12,25,BELAIR MONTE,綠悠軒,True,7.0,1680.0,POINT Z (22.501173 114.1454914 0),22.501173,114.14549140000001
126,"BELAIR MONTE(Block 2),MA SIK RD|綠悠軒2座,馬適路",NSS,4774560.0,10474.0,435.0,5020770.0,10863.0,435.0,7072075.0,12353.0,634.0,6,16,25,"['A', 'B', 'C', 'D', 'E', 'F', 'G', 'H']",5964904.166666667,11379.875,527.625,30,240,1998/12,25,BELAIR MONTE,綠悠軒,True,7.0,1680.0,POINT Z (22.501434 114.14577 0),22.501434,114.14577
127,"BELAIR MONTE(Block 7),MA SIK RD|綠悠軒7座,馬適路",NSS,4728419.0,10531.0,449.0,4880181.0,10869.0,449.0,8356919.999999999,12789.0,715.0,6,16,25,"['A', 'B', 'C', 'D', 'E', 'F', 'G', 'H']",6462117.125,11440.708333333334,567.25,30,240,1998/12,25,BELAIR MONTE,綠悠軒,True,7.0,1680.0,POINT Z (22.5018854 114.1453985 0),22.5018854,114.14539850000001
128,"SAN FUNG HSE,SAN FUNG AVE|新豐樓,新豐路",NSS,,,355.0,,,355.0,,,461.0,1,2,2,"['A', 'D', 'E', 'F']",,,397.75,2,8,1966/07,57,blank,,False,,,POINT Z (22.5034443 114.1268888 0),22.503444299999998,114.1268888
129,"BELAIR MONTE(Block 6),MA SIK RD|綠悠軒6座,馬適路",NSS,5058615.0,10764.0,435.0,5153880.0,10874.0,435.0,7166782.0,12255.0,619.0,6,16,25,"['A', 'B', 'C', 'D', 'E', 'F', 'G', 'H']",6061112.458333333,11486.875,530.5,30,240,1998/12,25,BELAIR MONTE,綠悠軒,True,7.0,1680.0,POINT Z (22.5018282 114.144934 0),22.501828200000002,114.144934
130,"BELAIR MONTE(Block 4),MA SIK RD|綠悠軒4座,馬適路",NSS,5116470.0,10721.0,435.0,5032515.0,10718.0,435.0,6898136.0,12458.0,619.0,6,16,25,"['A', 'B', 'C', 'D', 'E', 'F', 'G', 'H']",5995249.875,11471.291666666666,527.0,30,240,1998/12,25,BELAIR MONTE,綠悠軒,True,7.0,1680.0,POINT Z (22.5008938 114.1451895 0),22.5008938,114.1451895
131,"BELAIR MONTE(Block 1),MA SIK RD|綠悠軒1座,馬適路",NSS,4833720.0,10058.0,435.0,4908975.0,10248.0,435.0,6696342.0,12141.0,619.0,6,16,25,"['A', 'B', 'C', 'D', 'E', 'F', 'G', 'H']",5796051.25,11097.75,527.0,30,240,1998/12,25,BELAIR MONTE,綠悠軒,True,7.0,1680.0,POINT Z (22.5017206 114.1460255 0),22.501720600000002,114.1460255
132,"PEARL VISTA,SAN LOK ST|明珠華軒,新樂街",NSS,4963320.557796776,9623.0,441.0,5087186.039387662,9843.0,441.0,5266498.623282117,10218.0,449.0,5,10,16,"['A', 'B', 'C']",5126054.863422629,9955.333333333334,443.6666666666667,15,45,1998/12,25,blank,,False,,,POINT Z (22.503701 114.1276087 0),22.503701,114.12760870000001
133,"REGENTVILLE(Block 2),WO MUN ST|帝庭軒2座,和滿街",NSS,5269514.0,11828.0,422.0,5451818.0,12374.0,422.0,7934502.0,13705.0,618.0,7,19,30,"['A', 'B', 'C', 'D', 'E', 'F', 'G', 'H']",6165009.583333333,12794.458333333334,483.5,31,248,2000/09,23,REGENTVILLE,帝庭軒,True,4.0,1000.0,POINT Z (22.4997748 114.144285 0),22.4997748,114.14428500000001
134,"ROYAL JUBILEE(Block 1),SAN SHING AVE|海禧華庭1座,新成路",NSS,4720626.0,11177.0,387.0,4803831.0,11399.0,387.0,6317552.0,12727.0,542.0,8,14,20,"['A', 'B', 'C', 'D', 'E', 'F', 'G', 'H']",5189994.75,12143.833333333334,429.5,18,144,2001/01,22,ROYAL JUBILEE,海禧華庭,True,2.0,280.0,POINT Z (22.5047596 114.1289093 0),22.504759600000003,114.12890929999999
135,"REGENTVILLE(Block 1),WO MUN ST|帝庭軒1座,和滿街",NSS,5414260.0,11856.0,422.0,5443800.0,12148.0,422.0,8244737.999999999,13864.0,618.0,7,19,30,"['A', 'B', 'C', 'D', 'E', 'F', 'G', 'H']",6187638.75,12833.583333333334,483.5,31,248,2000/09,23,REGENTVILLE,帝庭軒,True,4.0,1000.0,POINT Z (22.5003493 114.1437134 0),22.500349300000003,114.14371340000001
136,"REGENTVILLE(Block 5),WO MUN ST|帝庭軒5座,和滿街",NSS,5293568.0,11711.0,422.0,5362776.0,12056.0,422.0,5988041.999999999,13552.0,474.0,7,20,31,"['A', 'B', 'C', 'D', 'E', 'F', 'G', 'H']",5629596.75,12593.083333333334,447.8333333333333,32,256,2000/09,23,REGENTVILLE,帝庭軒,True,4.0,1000.0,POINT Z (22.5001992 114.1446688 0),22.5001992,114.1446688
137,"REGENTVILLE(Block 3),WO MUN ST|帝庭軒3座,和滿街",NSS,5204104.0,11391.0,422.0,5412150.0,11806.0,422.0,7854780.0,13381.0,618.0,7,19,30,"['A', 'B', 'C', 'D', 'E', 'F', 'G', 'H']",6072211.916666667,12615.541666666666,483.5,31,248,2000/09,23,REGENTVILLE,帝庭軒,True,4.0,1000.0,POINT Z (22.5003493 114.1437134 0),22.500349300000003,114.14371340000001
138,"ROYAL JUBILEE(Block 2),SAN SHING AVE|海禧華庭2座,新成路",NSS,4683474.0,11055.0,387.0,4744620.0,11202.0,387.0,6189950.0,12501.0,542.0,8,13,19,"['A', 'B', 'C', 'D', 'E', 'F', 'G', 'H']",5123863.791666667,11988.041666666666,429.5,17,136,2001/01,22,ROYAL JUBILEE,海禧華庭,True,2.0,280.0,POINT Z (22.5049816 114.1287468 0),22.5049816,114.12874679999999
139,"KENTWOOD PLACE,SAN SHING AVE|金湖居,新成路",NSS,4376336.692992878,7580.0,397.0,4458054.201957988,7724.0,397.0,6347073.328538906,11259.0,643.0,7,12,18,"['A', 'B', 'C', 'D']",5206733.457261787,9576.666666666666,487.5,15,60,2000/03,23,blank,,False,,,POINT Z (22.5061567 114.1280732 0),22.5061567,114.1280732
140,"GRAND REGENTVILLE(Block 7),WO MUN ST|御庭軒7座,和滿街",NSS,4982094.0,11660.0,423.0,5064156.0,11972.0,423.0,7057890.0,13839.0,510.0,12,22,32,"['A', 'B', 'C', 'D', 'E', 'F', 'G', 'H']",5889542.625,12915.291666666666,455.4166666666667,28,224,2002/10,21,GRAND REGENTVILLE,御庭軒,True,3.0,672.0,POINT Z (22.4998734 114.1448875 0),22.4998734,114.1448875
141,"GRAND REGENTVILLE(Block 8),WO MUN ST|御庭軒8座,和滿街",NSS,5586984.000000001,12720.0,423.0,5715999.0,12948.0,423.0,8070436.0,13826.0,596.0,12,22,32,"['A', 'B', 'C', 'D', 'E', 'F', 'G', 'H']",6354737.0,13326.041666666666,477.1666666666667,28,224,2002/10,21,GRAND REGENTVILLE,御庭軒,True,3.0,672.0,POINT Z (22.4995325 114.1445624 0),22.4995325,114.14456240000001
142,"GRAND REGENTVILLE(Block 6),WO MUN ST|御庭軒6座,和滿街",NSS,5382675.0,12562.0,423.0,5523111.0,12965.0,423.0,6992100.0,13753.0,510.0,12,22,32,"['A', 'B', 'C', 'D', 'E', 'F', 'G', 'H']",5999642.291666667,13175.875,455.4166666666667,28,224,2002/10,21,GRAND REGENTVILLE,御庭軒,True,3.0,672.0,POINT Z (22.5001961 114.1451895 0),22.5001961,114.1451895
143,"KENSINGTON GREEN(Block A),KA SIU CLOSE|嘉兆軒A座,嘉兆里",NSS,6896318.29360784,3181.0,567.0,6917998.011600949,2951.0,567.0,11089219.252104092,9577.0,995.0,1,2,3,"['A', 'B', 'C', 'D', 'E']",9074148.769644631,6026.966666666667,827.4,3,15,2000/12,23,KENSINGTON GREEN,嘉兆軒,True,1.0,15.0,POINT Z (22.4970309 114.1380597 0),22.4970309,114.13805970000001
144,"NOBLE HILL(Block 6),MA SIK RD|皇府山6座,馬適路",NSS,6585257.0,9815.0,511.0,6667017.0,9981.0,511.0,13191787.0,13253.0,1297.0,5,10,17,"['A', 'B', 'C', 'D', 'E', 'E & F', 'F']",9288610.666666666,11451.666666666666,828.0,18,126,2006/01,17,NOBLE HILL,皇府山,True,7.0,814.0,POINT Z (22.503499 114.135916 0),22.503498999999998,114.135916
145,"NOBLE HILL(Block 2),MA SIK RD|皇府山2座,馬適路",NSS,5871522.0,12497.0,443.0,6023914.0,12828.0,443.0,6787809.0,14458.0,489.0,4,10,15,"['A', 'B', 'C', 'D', 'E', 'F', 'G', 'H']",6255321.208333333,13441.375,466.0,16,128,2006/01,17,NOBLE HILL,皇府山,True,7.0,814.0,POINT Z (22.5037634 114.1347851 0),22.5037634,114.1347851
146,"NOBLE HILL(Block 3),MA SIK RD|皇府山3座,馬適路",NSS,6041000.0,11860.0,500.0,6243500.0,12115.0,500.0,7741385.999999999,13343.0,621.0,5,10,17,"['A', 'B', 'C', 'D', 'E', 'F']",6557338.722222223,12528.333333333334,524.0,18,108,2006/01,17,NOBLE HILL,皇府山,True,7.0,814.0,POINT Z (22.5039701 114.1349941 0),22.5039701,114.13499409999999
147,"NOBLE HILL(Block 1),MA SIK RD|皇府山1座,馬適路",NSS,5544587.999999999,12516.0,443.0,5633188.0,12560.0,443.0,6529128.000000001,13352.0,489.0,4,10,15,"['A', 'B', 'C', 'D', 'E', 'F', 'G', 'H']",6038915.791666667,12957.041666666666,466.0,16,128,2006/01,17,NOBLE HILL,皇府山,True,7.0,814.0,POINT Z (22.5036184 114.1345993 0),22.503618399999997,114.1345993
148,"NOBLE HILL(Block 7),MA SIK RD|皇府山7座,馬適路",NSS,6499860.0,12118.0,508.0,6562852.000000001,12270.0,508.0,9141525.0,13341.0,725.0,5,10,17,"['A', 'B', 'C', 'D', 'E', 'F']",7775514.111111112,13003.055555555557,599.0,18,108,2006/01,17,NOBLE HILL,皇府山,True,7.0,814.0,POINT Z (22.503499 114.135916 0),22.503498999999998,114.135916
149,"NOBLE HILL(Block 5),MA SIK RD|皇府山5座,馬適路",NSS,6566861.0,11400.0,511.0,6652198.0,11561.0,511.0,10550928.0,13252.0,874.0,5,10,17,"['A', 'B', 'C', 'D', 'E', 'F']",9010200.277777776,12095.77777777778,749.8333333333334,18,108,2006/01,17,NOBLE HILL,皇府山,True,7.0,814.0,POINT Z (22.504024 114.1353425 0),22.504023999999998,114.13534250000001
150,"MAGDALENE GARDEN,PAK WO RD|禎祥園,百和路",NSS,6788023.224253836,9530.0,699.0,6859963.449400703,9631.0,699.0,6924068.6005216725,9721.0,699.0,4,7,10,['whole floor'],6857351.758058737,9627.333333333334,699.0,9,9,1999/09,24,MAGDALENE GARDEN,禎祥園,True,1.0,9.0,POINT Z (22.4914296 114.1360508 0),22.4914296,114.13605079999999
151,"ROYAL GREEN(Phase 1),Block 2,CHING HIU RD|御皇庭1期,2座,清曉路",NSS,4891760.0,11795.0,376.0,5199168.0,11939.0,377.0,7022158.0,14744.0,559.0,9,22,37,"['A', 'B', 'C', 'D', 'E', 'F', 'G', 'H']",5900598.958333333,12812.458333333334,464.25,40,320,2005/05,18,ROYAL GREEN,御皇庭,True,3.0,952.0,POINT Z (22.4948909 114.1272951 0),22.494890899999998,114.12729509999998
152,"TSUI LAI GARDEN(Block 2),FUNG NAM RD|翠麗花園2座,鳳南路",NSS,3792187.0,8005.0,427.0,3907050.0,8220.0,427.0,5198650.0,9528.0,601.0,4,13,23,"['A', 'B', 'C', 'D', 'E', 'F', 'G', 'H', 'J', 'K', 'L', 'M']",4692935.861111111,8539.194444444445,551.4722222222222,27,324,1989/11,34,TSUI LAI GARDEN,翠麗花園,True,6.0,1956.0,POINT Z (22.5082913 114.129188 0),22.5082913,114.12918799999998
153,"ROYAL GREEN(Phase 1),Block 1,CHING HIU RD|御皇庭1期,1座,清曉路",NSS,4924848.0,10373.0,376.0,4749056.0,11016.0,377.0,7897400.0,13848.0,700.0,9,22,37,"['A', 'B', 'C', 'D', 'E', 'F', 'G', 'H']",5907444.458333333,12428.541666666666,481.7916666666667,40,320,2005/05,18,ROYAL GREEN,御皇庭,True,3.0,952.0,POINT Z (22.4948909 114.1272951 0),22.494890899999998,114.12729509999998
154,"ROYAL GREEN(Phase 2),Block 3,CHING HIU RD|御皇庭2期,3座,清曉路",NSS,5000424.0,11432.0,376.0,5129085.0,12029.0,377.0,10764000.0,14354.0,975.0,9,23,38,"['A', 'B', 'C', 'D', 'E', 'F', 'G', 'H']",6738878.541666667,12818.041666666666,536.0833333333334,39,312,2006/12,17,ROYAL GREEN,御皇庭,True,3.0,952.0,POINT Z (22.4947566 114.1262617 0),22.494756600000002,114.12626170000001
155,"NOBLE HILL(Block 8),MA SIK RD|皇府山8座,馬適路",NSS,6401889.0,11481.0,501.0,6415578.0,11525.0,501.0,9156890.0,13054.0,790.0,5,10,17,"['A', 'B', 'C', 'D', 'E', 'F']",7740149.833333333,12273.611111111111,637.1666666666666,18,108,2006/01,17,NOBLE HILL,皇府山,True,7.0,814.0,POINT Z (22.503499 114.135916 0),22.503498999999998,114.135916
156,"GLORIOUS PEAK,CHING HIU RD|顯峰,清曉路",NSS,5052264.0,11033.0,408.0,5218320.0,11605.0,408.0,7007804.0,13588.0,569.0,9,22,36,"['A', 'B', 'C', 'D', 'E', 'F']",5968888.277777777,12233.333333333334,490.1666666666667,37,222,2007/04,16,blank,,False,,,POINT Z (22.4951137 114.1277249 0),22.495113699999997,114.1277249
157,"CHOI PIK HSE(Block C,Phase 1,CHOI PO COURT),2 CHOI YUEN RD|彩蒲苑,1期,C座(彩碧閣),2 彩園路",NSS,3702451.9999999995,10251.0,338.0,3812978.0,10508.0,338.0,4789092.0,11652.0,438.0,8,18,29,"['1', '10', '11', '12', '13', '14', '15', '16', '2', '3', '4', '5', '6', '7', '8', '9']",4192720.0208333335,10916.0,384.875,34,544,1984/11,39,CHOI PO COURT,彩蒲苑,True,4.0,2096.0,POINT Z (22.502893 114.124813 0),22.502893,114.12481299999999
158,"CHOI CHING HSE(Block B,Phase 1,CHOI PO COURT),2 CHOI YUEN RD|彩蒲苑,1期,B座(彩晶閣),2 彩園路",NSS,3421912.0,9710.0,338.0,3554746.0,9742.0,338.0,4878444.0,11587.0,438.0,6,17,28,"['1', '10', '11', '12', '13', '14', '15', '16', '2', '3', '4', '5', '6', '7', '8', '9']",4135186.4791666665,10761.229166666666,384.875,33,528,1985/06,38,CHOI PO COURT,彩蒲苑,True,4.0,2096.0,POINT Z (22.5022275 114.1246592 0),22.5022275,114.1246592
159,"YUNG WUI HSE(Block A,YUNG SHING COURT),FAI MING RD|雍盛苑,A座(雍薈閣),暉明路",NSS,2209114.5837230375,4808.0,206.0,2205017.729972057,4844.0,206.0,5192238.0,9651.0,636.0,8,20,33,"['1', '10', '11', '12', '13', '14', '15', '16', '17', '18', '19', '2', '20', '21', '22', '23', '24', '3', '4', '5', '6', '7', '8', '9']",3745709.0502718654,7223.125,427.5555555555556,40,960,2000/03,23,YUNG SHING COURT,雍盛苑,True,1.0,960.0,POINT Z (22.4824191 114.1372606 0),22.4824191,114.13726059999999
160,"FANLING GARDEN(Block 10),FAN LENG LAU RD|粉嶺花園10座,粉嶺樓路",NSS,4419931.456548073,9201.0,466.0,4372921.012392695,9209.0,466.0,5151972.337636089,9656.0,547.0,1,2,3,"['A', 'C', 'D']",4664229.836849404,9288.111111111111,493.0,3,9,1987/09,36,FANLING GARDEN,粉嶺花園,True,9.0,87.0,POINT Z (22.4990266 114.1394996 0),22.4990266,114.13949960000001
161,"CHOI NGAN HSE(Block D,Phase 2,CHOI PO COURT),2 CHOI YUEN RD|彩蒲苑,2期,D座(彩顏閣),2 彩園路",NSS,3351270.0,9285.0,338.0,3462472.0,9621.0,338.0,4605570.0,11402.0,438.0,6,17,28,"['1', '10', '11', '12', '13', '14', '15', '16', '2', '3', '4', '5', '6', '7', '8', '9']",3937653.5,10260.395833333334,384.875,33,528,1985/06,38,CHOI PO COURT,彩蒲苑,True,4.0,2096.0,POINT Z (22.5024902 114.1241018 0),22.5024902,114.12410179999999
162,"CHOI YING HSE(Block A,Phase 1,CHOI PO COURT),2 CHOI YUEN RD|彩蒲苑,1期,A座(彩瑩閣),2 彩園路",NSS,3582800.0,9342.0,338.0,3558087.0,9814.0,338.0,4605132.0,11239.0,438.0,6,16,26,"['1', '10', '11', '12', '13', '14', '15', '16', '2', '3', '4', '5', '6', '7', '8', '9']",3991233.4375,10391.645833333334,384.875,31,496,1985/06,38,CHOI PO COURT,彩蒲苑,True,4.0,2096.0,POINT Z (22.5024902 114.1241018 0),22.5024902,114.12410179999999
163,"KA YIU HSE(Block C,Phase 2,KA SHING COURT),33 PAK WO RD|嘉盛苑,2期,C座(嘉耀閣),33 百和路",NSS,4029600.0,8303.0,438.0,4179044.9999999995,8787.0,435.0,5995520.000000001,10232.0,640.0,7,20,32,"['1', '10', '11', '12', '13', '14', '15', '16', '2', '3', '4', '5', '6', '7', '8', '9']",4964741.9375,9184.666666666666,543.0625,37,592,1995/06,28,KA SHING COURT,嘉盛苑,True,4.0,2352.0,POINT Z (22.4934588 114.1343206 0),22.493458800000003,114.1343206
164,"CHUN WU HSE(Block E,YUK PO COURT),CHOI YUEN RD|旭埔苑,E座(晉湖閣),彩園路",NSS,,,546.0,,,546.0,,,546.0,5,10,17,"['1', '2', '3', '5', '6', '7', '8']",,,546.0,15,105,1982/12,41,YUK PO COURT,旭埔苑,True,8.0,1059.0,POINT Z (22.499941 114.128293 0),22.499941,114.128293
165,"8 ROYAL GREEN,CHING HIU RD|御景峰,清曉路",NSS,5667840.0,11072.0,432.0,5851440.0,11478.0,432.0,8823960.0,13948.0,762.0,9,22,36,"['A', 'B', 'C', 'D', 'E', 'F', 'G', 'H', 'J', 'K']",7217046.133333333,12450.5,586.2,37,370,2009/09,14,blank,,False,,,POINT Z (22.4956223 114.1278178 0),22.4956223,114.1278178
166,"FANLING GARDEN(Block 4),FAN LENG LAU RD|粉嶺花園4座,粉嶺樓路",NSS,4273676.741398009,8016.0,466.0,4422585.671402353,8118.0,466.0,5495573.298250228,9405.0,604.0,1,2,3,"['A', 'B', 'C', 'D']",4852106.8900623955,8501.75,520.75,3,12,1987/09,36,FANLING GARDEN,粉嶺花園,True,9.0,87.0,POINT Z (22.4994468 114.1401499 0),22.499446799999998,114.14014990000001
167,"KING SHING COURT(Phase 1),Block A,YAT MING RD|景盛苑1期,A座,一鳴路",NSS,2781738.0,6189.0,433.0,2845676.0,6279.0,433.0,4407285.0,7280.0,645.0,7,20,32,"['1', '10', '11', '12', '13', '14', '15', '16', '2', '3', '4', '5', '6', '7', '8', '9']",3613966.1041666665,6683.854166666667,541.0625,38,608,1995/11,28,KING SHING COURT,景盛苑,True,4.0,2384.0,POINT Z (22.4877 114.140872 0),22.4877,114.140872
168,"LUEN WONG HSE,LUEN FAT ST|聯旺樓,聯發街",NSS,2365354.73963533,6856.0,287.0,2389335.833682078,6954.0,287.0,3552236.4943445087,8584.0,473.0,2,3,4,"['A', 'B', 'C', 'D', 'E', 'F', 'G', 'H', 'I', 'J', 'K', 'L', 'M', 'N', 'O', 'P', 'Q']",3072416.4283291004,7615.490196078431,399.8235294117647,5,85,1972/09,51,blank,,False,,,POINT Z (22.4984734 114.1417523 0),22.498473399999998,114.14175230000001
169,"FANLING GARDEN(Block 15),FAN LENG LAU RD|粉嶺花園15座,粉嶺樓路",NSS,4541291.93658305,5950.0,466.0,4553919.015896414,5970.0,466.0,5813933.212817387,6187.0,604.0,1,2,3,"['A', 'B', 'C']",4969484.488054891,6099.555555555556,512.0,3,9,1987/09,36,FANLING GARDEN,粉嶺花園,True,9.0,87.0,POINT Z (22.498248 114.1400105 0),22.498248,114.1400105
170,"WO FUNG BLDG,WO FUNG ST|和豐唐樓,和豐街",NSS,2341351.227637149,10134.0,225.0,2321633.6203538748,8997.0,225.0,2440861.457055657,10271.0,290.0,2,3,4,"['A', 'B', 'C', 'D']",2397692.606272198,10103.166666666666,243.75,5,20,1982/11,41,blank,,False,,,POINT Z (22.4993467 114.1429832 0),22.4993467,114.14298319999999
171,"FANLING GARDEN(Block 9),FAN LENG LAU RD|粉嶺花園9座,粉嶺樓路",NSS,4656408.236238763,9683.0,466.0,4764674.713687513,9713.0,466.0,5978996.0,10221.0,604.0,1,2,3,"['A', 'B', 'C', 'D']",5232015.771491763,9921.916666666666,520.75,3,12,1987/09,36,FANLING GARDEN,粉嶺花園,True,9.0,87.0,POINT Z (22.4991648 114.1394532 0),22.499164800000003,114.1394532
172,"FANLING GARDEN(Block 13),FAN LENG LAU RD|粉嶺花園13座,粉嶺樓路",NSS,4350128.069771906,8722.0,466.0,4371021.60050763,8751.0,466.0,5403867.572923845,9389.0,604.0,1,2,3,"['A', 'B', 'C', 'D']",4791495.075249866,9054.583333333334,520.75,3,12,1987/09,36,FANLING GARDEN,粉嶺花園,True,9.0,87.0,POINT Z (22.4985101 114.1397318 0),22.4985101,114.13973179999999
173,"KA MING HSE(Block A,Phase 1,KA SHING COURT),33 PAK WO RD|嘉盛苑,1期,A座(嘉明閣),33 百和路",NSS,4263930.0,9020.0,438.0,4420905.0,9711.0,435.0,6226560.0,10751.0,645.0,7,20,32,"['1', '10', '11', '12', '13', '14', '15', '16', '2', '3', '4', '5', '6', '7', '8', '9']",4880039.038961039,10017.252525252525,539.125,38,608,1995/06,28,KA SHING COURT,嘉盛苑,True,4.0,2352.0,POINT Z (22.494394 114.1341344 0),22.494394,114.13413440000001
174,"YAN KING HSE(Block C,Phase 2,KING SHING COURT),8 YAT MING RD|景盛苑,2期,C座(欣景閣),8 一鳴路",NSS,2868462.0,6347.0,438.0,2968875.0,6601.0,435.0,4505600.0,7515.0,645.0,7,19,32,"['1', '10', '11', '12', '13', '14', '15', '16', '2', '3', '4', '5', '6', '7', '8', '9']",3689522.6458333335,6798.8125,543.4166666666666,37,592,1996/02,27,KING SHING COURT,景盛苑,True,4.0,2384.0,POINT Z (22.4877037 114.1414736 0),22.487703699999997,114.1414736
175,"KA FAI HSE(Block B,Phase 1,KA SHING COURT),33 PAK WO RD|嘉盛苑,1期,B座(嘉輝閣),33 百和路",NSS,3997626.0,7487.0,435.0,4123365.0,7689.0,433.0,6117120.0,10528.0,640.0,7,20,32,"['1', '10', '11', '12', '13', '14', '15', '16', '2', '3', '4', '5', '6', '7', '8', '9']",5015596.229166667,9304.5,541.5416666666666,37,592,1995/06,28,KA SHING COURT,嘉盛苑,True,4.0,2352.0,POINT Z (22.4940251 114.1345993 0),22.4940251,114.1345993
176,"TSUI LAI GARDEN(Block 1),FUNG NAM RD|翠麗花園1座,鳳南路",NSS,3877587.0,8310.0,427.0,4032588.0,8548.0,427.0,5336730.0,9696.0,591.0,5,14,23,"['A', 'B', 'C', 'D', 'E', 'F', 'G', 'H', 'J', 'K', 'L', 'M']",4797869.611111111,8754.611111111111,549.25,26,312,1989/11,34,TSUI LAI GARDEN,翠麗花園,True,6.0,1956.0,POINT Z (22.5080653 114.1295132 0),22.508065300000002,114.1295132
177,"ON SHING COURT(Block A),TIN PING RD|安盛苑A座,天平路",NSS,3588375.0,8420.0,375.0,3703125.0,8662.0,375.0,5424020.0,10462.0,595.0,7,18,28,"['1', '10', '11', '12', '13', '14', '15', '16', '17', '18', '2', '3', '4', '5', '6', '7', '8', '9']",4269913.611111111,9550.333333333334,451.22222222222223,34,612,1990/02,33,ON SHING COURT,安盛苑,True,1.0,612.0,POINT Z (22.5023564 114.135024 0),22.5023564,114.135024
178,"WING FAI CTR(Block 2),LUEN CHIT ST|榮輝中心2座,聯捷街",NSS,2904927.0,6591.0,419.0,2998364.0,6798.0,419.0,4102476.0,7336.0,588.0,6,18,29,"['A', 'B', 'C', 'D', 'F', 'G', 'H', 'J', 'K']",3693308.3333333335,6913.333333333333,535.4444444444445,32,288,1996/05,27,WING FAI CTR,榮輝中心,True,4.0,1157.0,POINT Z (22.5015382 114.1427742 0),22.5015382,114.1427742
179,"TSUI LAI GARDEN(Block 4),FUNG NAM RD|翠麗花園4座,鳳南路",NSS,3615836.0,8353.0,427.0,3716608.0000000005,7966.0,427.0,5243352.0,9177.0,591.0,5,14,23,"['A', 'B', 'C', 'D', 'E', 'F', 'G', 'H', 'J', 'K', 'L', 'M']",4387834.75,8786.027777777776,500.6666666666667,27,324,1989/11,34,TSUI LAI GARDEN,翠麗花園,True,6.0,1956.0,POINT Z (22.5083546 114.1283752 0),22.5083546,114.12837520000001
180,"TSUI LAI GARDEN(Block 5),FUNG NAM RD|翠麗花園5座,鳳南路",NSS,3658536.0,8078.0,427.0,3717035.0,8267.0,427.0,5192624.0,9087.0,590.0,6,14,23,"['A', 'B', 'C', 'D', 'E', 'F', 'G', 'H', 'J', 'K', 'L', 'M']",4590806.5,8597.944444444445,535.3611111111112,26,312,1989/11,34,TSUI LAI GARDEN,翠麗花園,True,6.0,1956.0,POINT Z (22.5079661 114.1282126 0),22.5079661,114.1282126
181,"WING FOK CTR(Block 2),LUEN CHIT ST|榮福中心2座,聯捷街",NSS,2760956.0,5620.0,431.0,2837117.0000000005,5793.0,431.0,3580531.0,6349.0,592.0,6,15,23,"['A', 'B', 'C', 'D', 'E', 'F', 'H', 'J', 'K']",3302087.0,5923.714285714285,529.8888888888889,25,225,1993/09,30,WING FOK CTR,榮福中心,True,6.0,1465.0,POINT Z (22.5011199 114.1415615 0),22.5011199,114.1415615
182,"FANLING GARDEN(Block 16),FAN LENG LAU RD|粉嶺花園16座,粉嶺樓路",NSS,4509221.747682248,4140.0,466.0,4515400.174374665,4241.0,466.0,5675066.11547874,4423.0,604.0,1,2,3,"['A', 'B', 'C', 'D']",4996157.775542449,4687.75,520.75,3,12,1987/09,36,FANLING GARDEN,粉嶺花園,True,9.0,87.0,POINT Z (22.4982548 114.1402428 0),22.4982548,114.14024280000001
183,"KA YEUNG HSE(Block D,Phase 2,KA SHING COURT),33 PAK WO RD|嘉盛苑,2期,D座(嘉揚閣),33 百和路",NSS,2787480.0,6147.0,435.0,2850768.0,6336.0,432.0,4667520.0,7293.0,640.0,8,21,32,"['1', '10', '11', '12', '13', '14', '15', '16', '2', '3', '4', '5', '6', '7', '8', '9']",3518744.9166666665,6486.791666666667,542.7708333333334,35,560,1995/06,28,KA SHING COURT,嘉盛苑,True,4.0,2352.0,POINT Z (22.4928634 114.1340094 0),22.492863399999997,114.13400940000001
184,"WING FAI CTR(Block 3),LUEN CHIT ST|榮輝中心3座,聯捷街",NSS,2992860.0000000005,6285.0,419.0,2855904.0,6488.0,419.0,3968412.0,7012.0,588.0,7,18,29,"['A', 'C', 'D', 'E', 'F', 'G', 'H', 'J', 'K']",3494883.3333333335,6586.425925925926,518.2222222222222,32,288,1996/05,27,WING FAI CTR,榮輝中心,True,4.0,1157.0,POINT Z (22.5017681 114.1435336 0),22.5017681,114.14353359999998
185,"TSUI LAI GARDEN(Block 6),FUNG NAM RD|翠麗花園6座,鳳南路",NSS,4045398.0,7685.0,427.0,3993731.0,8279.0,427.0,5341860.0,10252.0,590.0,5,14,23,"['A', 'B', 'C', 'D', 'E', 'F', 'G', 'H', 'J', 'K', 'L', 'M']",4728720.555555556,8976.166666666666,531.0833333333334,29,348,1989/11,34,TSUI LAI GARDEN,翠麗花園,True,6.0,1956.0,POINT Z (22.5077294 114.1284681 0),22.5077294,114.12846809999999
186,"YAN SAU HSE(Block A,Phase 1,YAN SHING COURT),15 WAH MING RD|欣盛苑,1期,A座(欣秀閣),15 華明路",NSS,2575614.0,6302.0,402.0,2672496.0,6531.0,402.0,4377615.0,6956.0,645.0,8,18,29,"['1', '2', '3', '4', '5', '7', '8', '9']",3430605.2916666665,6609.5,519.75,34,272,1993/09,30,YAN SHING COURT,欣盛苑,True,7.0,2192.0,POINT Z (22.4865868 114.140266 0),22.4865868,114.140266
187,"TSUI LAI GARDEN(Block 3),FUNG NAM RD|翠麗花園3座,鳳南路",NSS,3664941.0000000005,7809.0,427.0,3904915.0,8035.0,427.0,5331830.0,9388.0,591.0,5,14,23,"['A', 'B', 'C', 'D', 'E', 'F', 'G', 'H', 'J', 'K', 'L', 'M']",4697749.722222223,8575.77777777778,549.5555555555555,28,336,1989/11,34,TSUI LAI GARDEN,翠麗花園,True,6.0,1956.0,POINT Z (22.5085246 114.1288164 0),22.5085246,114.1288164
188,"WING FOK CTR(Block 5),LUEN CHIT ST|榮福中心5座,聯捷街",NSS,2576518.0,5603.0,431.0,2649357.0,5754.0,431.0,3637248.0,6365.0,592.0,6,14,23,"['A', 'B', 'C', 'D', 'E', 'F', 'G', 'H', 'J', 'K']",3181169.4,5956.3,535.6,26,260,1993/09,30,WING FOK CTR,榮福中心,True,6.0,1465.0,POINT Z (22.5015563 114.1410092 0),22.5015563,114.1410092
189,"YIN KING HSE(Block D,Phase 3,KING SHING COURT),8 YAT MING RD|景盛苑,3期,D座(賢景閣),8 一鳴路",NSS,2820282.0,5988.0,438.0,2946132.0,6265.0,433.0,4357120.0,7071.0,640.0,8,20,32,"['1', '10', '11', '12', '13', '14', '15', '16', '2', '3', '4', '5', '6', '7', '8', '9']",3516490.7708333335,6495.833333333333,543.125,37,592,1996/02,27,KING SHING COURT,景盛苑,True,4.0,2384.0,POINT Z (22.4877 114.140872 0),22.4877,114.140872
190,"TAI KONG HSE,SAN KAN ST|大江樓,新勤街",NSS,2824711.4416580866,8692.0,280.0,2820811.701977933,8680.0,280.0,2829911.0945649585,8708.0,327.0,2,3,4,"['B', 'C', 'D']",2825144.7460669926,8693.333333333334,300.0,3,9,1981/04,42,blank,,False,,,POINT Z (22.5043477 114.1276552 0),22.504347699999997,114.12765520000002
191,"KIN FUNG BLDG,WO FUNG ST|建豐樓,和豐街",NSS,3250154.598782411,6728.0,260.0,3256879.984212365,6823.0,260.0,3536617.044727834,7284.0,460.0,2,3,4,"['A', 'B', 'C', 'D', 'E']",3430976.092404543,6997.805555555556,411.0,5,25,1981/07,42,blank,,False,,,POINT Z (22.4991355 114.1432154 0),22.4991355,114.14321540000002
192,"TIN LONG HSE(Block 8,TIN PING EST),TIN PING RD|天平村,8座(天朗樓),天平路",NSS,1763224.8681047987,4483.0,208.0,1818780.627747388,4624.0,208.0,2185304.9626997462,4900.0,443.0,9,19,29,"['1', '10', '12', '13', '14', '18', '19', '20', '21', '5', '6', '9']",1959287.2857983385,4698.077777777778,390.5,29,348,1990/01,33,TIN PING EST,天平村,True,7.0,3089.0,POINT Z (22.5026732 114.1342893 0),22.5026732,114.13428929999999
193,"CHUEN WO BLDG,SAN FUNG AVE|全和大樓,新豐路",NSS,2868483.8806435624,7927.0,335.0,2877359.3514155163,7949.0,335.0,3655094.1315111076,8494.0,450.0,2,3,4,"['A', 'B', 'C', 'D', 'E', 'F']",3243298.611802062,8214.555555555557,388.3333333333333,5,30,1981/12,42,blank,,False,,,POINT Z (22.5052181 114.126703 0),22.5052181,114.126703
194,"CHUNG MING HSE(Block 5,WAH MING EST),WAH MING RD|華明村,5座(頌明樓),華明路",NSS,1959375.0,4931.0,375.0,2022375.0000000002,5233.0,375.0,3090926.0,5857.0,566.0,11,21,30,"['10', '15', '16', '17', '18', '3', '4', '5', '6', '7', '8', '9']",2459044.8888888885,5371.666666666667,459.0833333333333,27,324,1990/07,33,WAH MING EST,華明村,True,7.0,3080.0,POINT Z (22.4840745 114.1411358 0),22.4840745,114.1411358
195,"SHUN MING HSE(Block 2,WAH MING EST),WAH MING RD|華明村,2座(信明樓),華明路",NSS,2319068.4092009985,5295.0,147.0,2367787.299919492,5449.0,147.0,2786781.8307213522,9816.0,485.0,7,17,27,"['1', '10', '12', '14', '16', '17', '19', '20', '21', '23', '24', '25', '27', '28', '30', '31', '4', '5', '6', '7']",2632805.7473471747,7956.952380952382,338.55,31,620,1990/06,33,WAH MING EST,華明村,True,7.0,3080.0,POINT Z (22.4845085 114.1401731 0),22.4845085,114.14017309999998
196,"TIN MING HSE(Block 4,TIN PING EST),TIN PING RD|天平村,4座(天明樓),天平路",NSS,1976640.0,5568.0,348.0,2006105.0,5651.0,348.0,3686847.9999999995,9205.0,704.0,6,11,17,"['1', '12', '16', '18', '19', '2', '20', '22', '23', '24', '34', '35', '36', '39', '40', '42', '46', '48', '49', '51', '52', '8', '9']",3152025.2370026787,8673.469696969696,374.0144927536232,17,391,1989/01,34,TIN PING EST,天平村,True,7.0,3089.0,POINT Z (22.501893 114.133142 0),22.501893,114.13314199999999
197,"TIN MEI HSE(Block 5,TIN PING EST),TIN PING RD|天平村,5座(天美樓),天平路",NSS,1799082.0,4502.0,381.0,1861947.0,4618.0,381.0,2521718.9999999995,5572.0,531.0,8,19,29,"['1', '10', '12', '13', '14', '16', '17', '18', '19', '21', '22', '24', '4', '5', '7', '9']",2319275.9513888885,5044.04861111111,457.5208333333333,31,496,1989/01,34,TIN PING EST,天平村,True,7.0,3089.0,POINT Z (22.5023564 114.135024 0),22.5023564,114.135024
198,"TIN YEE HSE(Block 1,TIN PING EST),TIN PING RD|天平村,1座(天怡樓),天平路",NSS,3219069.0,8122.0,381.0,3278886.0,8367.0,381.0,4166469.9999999995,9086.0,490.0,10,20,30,"['10', '11', '15', '17', '18', '19', '2', '20', '21', '22', '23', '24', '4', '6', '7', '8']",3491651.7083333335,8717.3125,401.4375,30,480,1987/01,36,TIN PING EST,天平村,True,7.0,3089.0,POINT Z (22.50499 114.131411 0),22.50499,114.13141100000001
199,"TIN CHEUNG HSE(Block 2,TIN PING EST),TIN PING RD|天平村,2座(天祥樓),天平路",NSS,1769364.0000000002,4569.0,381.0,1829943.0,4620.0,381.0,2573970.0,5253.0,490.0,8,19,28,"['1', '10', '12', '14', '15', '16', '17', '18', '2', '22', '23', '3', '4', '5', '6', '7']",1955950.8958333333,4876.958333333333,401.4375,27,432,1986/10,37,TIN PING EST,天平村,True,7.0,3089.0,POINT Z (22.5023564 114.135024 0),22.5023564,114.135024
200,"CHEONG CHING HSE(Block A,CHEONG SHING COURT),WAH MING RD|昌盛苑,A座(昌靖閣),華明路",NSS,3683328.0,6971.0,512.0,3762616.0,7231.0,506.0,5184212.0,7988.0,649.0,9,22,33,"['1', '2', '3', '4', '5', '6', '7', '8']",4332866.625,7477.75,580.0,36,288,2000/03,23,CHEONG SHING COURT,昌盛苑,True,4.0,1192.0,POINT Z (22.483789 114.137851 0),22.483789,114.137851
201,"CHEONG WAH BLDG,LUEN CHEONG ST|昌華樓,聯昌街",NSS,2605347.0617098594,7514.0,333.0,2613490.8920668582,7536.0,333.0,3089275.227315573,8528.0,384.0,2,3,4,"['A', 'B', 'C', 'D', 'E', 'F']",2826158.6185047533,7830.611111111112,354.4444444444444,5,30,1977/01,46,blank,,False,,,POINT Z (22.4990262 114.1433548 0),22.4990262,114.1433548
202,"WING FAI CTR(Block 1),LUEN CHIT ST|榮輝中心1座,聯捷街",NSS,3110656.0000000005,6932.0,419.0,3213311.0,6946.0,419.0,4365312.0,7946.0,588.0,8,18,28,"['A', 'C', 'D', 'E', 'F', 'G', 'H', 'J', 'K']",3814327.222222222,7382.259259259259,518.2222222222222,29,261,1996/05,27,WING FAI CTR,榮輝中心,True,4.0,1157.0,POINT Z (22.5015246 114.1423097 0),22.5015246,114.14230970000001
203,"PO CHEUNG BLDG,LUEN ON ST|寶昌大樓,聯安街",NSS,3022934.3950380394,5981.0,440.0,3031021.1615186627,5997.0,440.0,3403213.162192446,6840.0,496.0,2,3,4,"['1', '2', '3', '4', '5', '6', '7', '8']",3193914.25377848,6614.933333333333,479.25,5,40,1975/06,48,blank,,False,,,POINT Z (22.4997403 114.142957 0),22.499740300000003,114.14295700000001
204,"TIM MING HSE(Block 7,WAH MING EST),WAH MING RD|華明村,7座(添明樓),華明路",NSS,1894711.0,4277.0,381.0,2055495.0,4567.0,381.0,2681187.0,5649.0,489.0,6,18,28,"['10', '11', '13', '15', '16', '18', '2', '20', '21', '22', '23', '24', '3', '4', '5', '6', '7', '8', '9']",2420747.3157894737,5284.964912280702,458.43859649122805,32,608,1990/07,33,WAH MING EST,華明村,True,7.0,3080.0,POINT Z (22.4832833 114.1424026 0),22.4832833,114.14240259999998
205,"TIN HOR HSE(Block 3,TIN PING EST),TIN PING RD|天平村,3座(天賀樓),天平路",NSS,2143851.1135064196,5205.0,381.0,2216451.6492227726,5371.0,381.0,2839070.509365438,5905.0,490.0,9,20,30,"['1', '10', '11', '12', '13', '14', '15', '2', '20', '21', '22', '23', '24', '3', '4', '5', '6', '7', '8']",2386524.025475405,5652.298245614034,415.42105263157896,29,551,1986/09,37,TIN PING EST,天平村,True,7.0,3089.0,POINT Z (22.5023564 114.135024 0),22.5023564,114.135024
206,"WING FAI CTR(Block 4),LUEN CHIT ST|榮輝中心4座,聯捷街",NSS,2671963.0,6359.0,419.0,2752830.0,6547.0,419.0,4164216.0000000005,7082.0,588.0,7,18,29,"['A', 'B', 'C', 'D', 'E', 'F', 'G', 'H', 'J', 'K']",3527844.3666666667,6735.2,523.8,32,320,1996/05,27,WING FAI CTR,榮輝中心,True,4.0,1157.0,POINT Z (22.5017681 114.1435336 0),22.5017681,114.14353359999998
207,"PING CHI HSE(Block A,TAI PING EST),PO PING RD|太平村,A座(平治樓),保平路",NSS,2261303.8560538106,5055.0,377.0,2323036.7803140334,5193.0,377.0,2672856.684455296,5975.0,572.0,10,18,23,"['1', '11', '2', '3', '4', '7', '8', '9']",2478785.667729016,5541.166666666667,445.875,18,144,1989/06,34,TAI PING EST,太平村,True,4.0,546.0,POINT Z (22.4984741 114.1263314 0),22.4984741,114.1263314
208,"PO CHEONG BLDG,WO LUNG ST|寶昌樓,和隆街",NSS,2919810.79944762,6653.0,405.0,2928477.3756721285,6672.0,405.0,3455421.5140869445,7152.0,500.0,2,3,4,"['A', 'C', 'D']",3235297.971597212,6867.888888888888,464.3333333333333,5,15,1973/03,50,blank,,False,,,POINT Z (22.4991224 114.1424723 0),22.499122399999997,114.1424723
209,"WING FOK CTR(Block 6),LUEN CHIT ST|榮福中心6座,聯捷街",NSS,2843742.614243671,5912.0,431.0,2910060.0095719793,6184.0,431.0,3920884.4206962646,6804.0,592.0,6,14,23,"['B', 'C', 'D', 'E', 'F', 'G', 'H', 'J', 'K']",3442749.2952811024,6399.0370370370365,529.6666666666666,26,234,1993/09,30,WING FOK CTR,榮福中心,True,6.0,1465.0,POINT Z (22.5014827 114.1414736 0),22.5014827,114.1414736
210,"YIU MING HSE(Block 6,WAH MING EST),WAH MING RD|華明村,6座(耀明樓),華明路",NSS,2151888.0,4435.0,381.0,2208657.0,4607.0,381.0,2706615.0,5937.0,489.0,7,17,27,"['1', '11', '12', '13', '14', '15', '16', '17', '18', '19', '20', '21', '3', '4', '5', '6', '7', '9']",2549874.4814814813,5531.0,461.8888888888889,29,522,1990/07,33,WAH MING EST,華明村,True,7.0,3080.0,POINT Z (22.4824137 114.1414465 0),22.4824137,114.14144650000001
211,"CHEUNG YUE HSE(CHEUNG WAH EST),SAN WAN RD|祥華村(祥裕樓),新運路",NSS,1891672.0,5121.0,358.0,1924966.0,5204.0,358.0,,,424.0,7,15,21,"['1', '11', '13', '4', '6', '8']",2048609.5,5246.5,401.6666666666667,19,114,1984/03,39,CHEUNG WAH EST,祥華村,True,13.0,1467.0,POINT Z (22.4928965 114.1415218 0),22.4928965,114.14152179999999
212,"WO TAI BLDG,WO TAI ST|和泰樓,和泰街",NSS,3753712.0,6632.0,564.0,3774654.0,6669.0,564.0,3825028.0,6758.0,566.0,2,3,4,"['A', 'B', 'C', 'D', 'E', 'F', 'G', 'H', 'I', 'J', 'K', 'L']",3792872.0909090913,6704.424242424243,565.75,5,60,1974/01,49,blank,,False,,,POINT Z (22.4991359 114.1419171 0),22.4991359,114.14191709999999
213,"CHEUNG SHUN HSE(CHEUNG WAH EST),SAN WAN RD|祥華村(祥順樓),新運路",NSS,2537061.0000000005,5727.0,423.0,2594208.0,5856.0,423.0,2646925.0,5975.0,476.0,8,16,23,"['11', '14', '2', '5', '7', '9']",2515000.8333333335,5700.277777777777,441.8333333333333,23,138,1984/03,39,CHEUNG WAH EST,祥華村,True,13.0,1467.0,POINT Z (22.4928938 114.1427045 0),22.4928938,114.1427045
214,"WING FOK CTR(Block 1),LUEN CHIT ST|榮福中心1座,聯捷街",NSS,4197509.0,9011.0,431.0,4278537.0,9185.0,431.0,5575474.000000001,10177.0,592.0,7,16,24,"['A', 'B', 'C', 'D', 'E', 'G', 'H', 'J', 'K']",5113463.0,9471.62962962963,542.1111111111111,24,216,1993/09,30,WING FOK CTR,榮福中心,True,6.0,1465.0,POINT Z (22.5010183 114.1411021 0),22.501018300000002,114.1411021
215,"CHEUNG WO HSE(CHEUNG WAH EST),SAN WAN RD|祥華村(祥和樓),新運路",NSS,2001825.0,4305.0,423.0,2037165.0,4381.0,423.0,2241137.0,5135.0,465.0,11,18,25,"['11', '12', '2', '3', '4', '5', '9']",2113837.8095238097,4900.0,432.0,18,126,1984/03,39,CHEUNG WAH EST,祥華村,True,13.0,1467.0,POINT Z (22.491917 114.141289 0),22.491917,114.14128899999999
216,"CHEUNG LAI HSE(CHEUNG WAH EST),SAN WAN RD|祥華村(祥禮樓),新運路",NSS,,,277.0,,,277.0,,,277.0,5,10,16,"['10', '14', '21', '27', '5', '7', '8']",,,277.0,14,98,1984/06,39,CHEUNG WAH EST,祥華村,True,13.0,1467.0,POINT Z (22.4934764 114.140266 0),22.4934764,114.140266
217,"TIN HEE HSE(Block 6,TIN PING EST),TIN PING RD|天平村,6座(天喜樓),天平路",NSS,1962912.0,4803.0,381.0,2020062.0000000002,4944.0,381.0,2690577.0,5433.0,531.0,11,20,29,"['1', '10', '11', '12', '13', '16', '18', '19', '20', '22', '23', '24', '3', '5', '6', '8']",2314351.0416666665,5127.541666666667,452.0,28,448,1989/01,34,TIN PING EST,天平村,True,7.0,3089.0,POINT Z (22.501606 114.134638 0),22.501606,114.134638
218,"CHEONG SIU HSE(Block B,CHEONG SHING COURT),WAH MING RD|昌盛苑,B座(昌兆閣),華明路",NSS,3580456.0,6833.0,506.0,3762176.0,7348.0,512.0,5172530.0,7970.0,649.0,8,20,33,"['1', '2', '3', '4', '5', '6', '7', '8']",4327752.333333333,7459.625,579.75,40,320,2000/03,23,CHEONG SHING COURT,昌盛苑,True,4.0,1192.0,POINT Z (22.4833708 114.1386726 0),22.483370800000003,114.1386726
219,"CHEONG TO HSE(Block C,CHEONG SHING COURT),WAH MING RD|昌盛苑,C座(昌濤閣),華明路",NSS,4829858.0,7442.0,649.0,4924612.0,7588.0,649.0,5269880.0,8120.0,649.0,7,20,33,"['1', '2', '3', '4', '5', '6', '7', '8']",5056737.583333333,7791.583333333333,649.0,38,304,2000/03,23,CHEONG SHING COURT,昌盛苑,True,4.0,1192.0,POINT Z (22.4840021 114.1389655 0),22.4840021,114.1389655
220,"PO WING BLDG,WO LUNG ST|寶榮樓,和隆街",NSS,3196578.1224400527,3310.0,485.0,3196578.1224400527,3310.0,485.0,3793527.4722912037,4161.0,516.0,2,2,4,"['A', 'C']",3491941.424734872,3729.6666666666665,500.5,4,8,1973/03,50,blank,,False,,,POINT Z (22.4990499 114.1423794 0),22.4990499,114.1423794
221,"CHUN KING HSE(Block B,Phase 2,KING SHING COURT),8 YAT MING RD|景盛苑,2期,B座(俊景閣),8 一鳴路",NSS,2928030.0,6152.0,438.0,3042390.0,6355.0,433.0,4280220.0,7495.0,645.0,7,20,32,"['1', '10', '11', '12', '13', '14', '15', '16', '2', '3', '4', '5', '6', '7', '8', '9']",3613298.375,6685.854166666667,543.25,37,592,1996/02,27,KING SHING COURT,景盛苑,True,4.0,2384.0,POINT Z (22.486156 114.142437 0),22.486156,114.14243700000002
222,"SUN KING BLDG,WO FUNG ST|新景樓,和豐街",NSS,3562070.970598505,5694.0,539.0,3562070.970598505,5694.0,539.0,3812929.849982067,6095.0,560.0,2,2,3,"['A', 'D', 'E']",3645690.597059692,5827.666666666667,549.3333333333334,4,12,1976/07,47,blank,,False,,,POINT Z (22.4990131 114.1426116 0),22.499013100000003,114.1426116
223,"SHUN CHUNG LAU,SAN TSOI ST|慎忠樓,新財街",NSS,2953340.92180711,9120.0,297.0,2870562.6361400937,9146.0,297.0,3055052.0,9919.0,323.0,3,4,4,"['B', 'C', 'D']",2976273.2324424423,9510.555555555555,309.3333333333333,4,12,1982/06,41,blank,,False,,,POINT Z (22.5047481 114.1273301 0),22.504748100000004,114.1273301
224,"LUEN CHEUNG BLDG,LUEN CHEONG ST|聯昌大樓,聯昌街",NSS,2704000.0,5234.0,500.0,2712000.0,5249.0,500.0,3035546.0,5771.0,565.0,2,3,4,"['1', '2', '4', '7', '8', 'B', 'C', 'D', 'F', 'H']",2935283.3333333335,5401.518518518518,545.6,5,50,1974/09,49,blank,,False,,,POINT Z (22.4997646 114.14296 0),22.499764600000002,114.14296000000002
225,"PO WAH BLDG,WO LUNG ST|寶華樓,和隆街",NSS,3596105.0,6849.0,505.0,3612791.4571566973,6871.0,505.0,3676773.309544785,7145.0,516.0,3,4,4,"['B', 'C']",3629409.7212700234,7000.333333333333,510.5,4,8,1973/03,50,blank,,False,,,POINT Z (22.4989701 114.1423329 0),22.4989701,114.14233290000001
226,"MAY LUN BLDG,LUEN ON ST|美輪大廈,聯安街",NSS,,,375.0,,,375.0,,,525.0,2,3,4,"['1', '10', '2', '3', '6', '7', '8']",,,467.14285714285717,5,35,1977/02,46,blank,,False,,,POINT Z (22.4998251 114.1432712 0),22.499825100000002,114.1432712
227,"HONG MING HSE(Block 3,WAH MING EST),WAH MING RD|華明村,3座(康明樓),華明路",NSS,1924875.0000000002,4856.0,375.0,1971000.0,4983.0,375.0,2956784.0,5686.0,566.0,8,18,29,"['10', '14', '15', '17', '18', '3', '4', '6', '7', '8']",2428820.1,5160.233333333333,472.6000000000001,30,300,1990/07,33,WAH MING EST,華明村,True,7.0,3080.0,POINT Z (22.483419 114.139756 0),22.483419,114.139756
228,"CHEONG YUN HSE(Block D,CHEONG SHING COURT),WAH MING RD|昌盛苑,D座(昌潤閣),華明路",NSS,4602708.0,7092.0,649.0,4835050.0,7450.0,649.0,5245867.0,8083.0,649.0,8,20,32,"['1', '2', '3', '4', '5', '6', '7', '8']",4905412.416666667,7558.416666666667,649.0,35,280,2000/03,23,CHEONG SHING COURT,昌盛苑,True,4.0,1192.0,POINT Z (22.4833708 114.1386726 0),22.483370800000003,114.1386726
229,"LAI MING HSE(Block 1,WAH MING EST),WAH MING RD|華明村,1座(禮明樓),華明路",NSS,3636607.4735610737,7656.0,381.0,3753975.639291694,7851.0,381.0,3969526.280317303,8598.0,489.0,9,19,29,"['12', '15', '16', '17', '18', '2', '20', '22', '23', '24', '4', '5', '7', '9']",3805713.600789296,8056.277777777778,460.7142857142857,29,406,1990/05,33,WAH MING EST,華明村,True,7.0,3080.0,POINT Z (22.4853081 114.1400802 0),22.4853081,114.14008020000001
230,"TUNG HING HSE,SAN KIN ST|TUNG HING HSE,新健街",NSS,3088639.372693104,5927.0,496.0,3096220.716268689,5940.0,496.0,3742719.7896766528,6142.0,637.0,2,3,4,"['A', 'B']",3344948.566751681,6002.0,548.1666666666666,5,10,1994/07,29,blank,,False,,,POINT Z (22.3251005 114.2109374 0),22.3251005,114.2109374
231,"CHEUNG CHUNG HSE(CHEUNG WAH EST),SAN WAN RD|祥華村(祥頌樓),新運路",NSS,1221847.0,4411.0,277.0,1239298.0,4474.0,277.0,1297311.9999999998,4583.0,284.0,5,10,15,"['12', '15', '2', '20', '26', '4', '6']",1258137.857142857,4509.380952380952,279.0,14,98,1984/05,39,CHEUNG WAH EST,祥華村,True,13.0,1467.0,POINT Z (22.492522 114.140191 0),22.492522,114.14019099999999
232,11 LUEN WO RD|11 聯和道,NSS,3575933.2880071723,5981.0,555.0,3586113.0759534207,5998.0,555.0,3613434.4447637126,6359.0,587.0,2,3,4,"['F.P.', 'R.P.']",3589505.489437343,6173.833333333333,571.0,5,10,1983/04,40,blank,,False,,,POINT Z (22.4979512 114.1430427 0),22.4979512,114.14304270000001
233,"PING HAY HSE(Block C,TAI PING EST),PO PING RD|太平村,C座(平熙樓),保平路",NSS,1747779.758794655,3862.0,360.0,1784966.5621732648,3929.0,360.0,2638577.795233792,4602.0,494.0,6,13,20,"['10', '11', '12', '14', '4', '5', '9']",2109404.0769960857,4267.095238095238,441.85714285714283,22,154,1989/06,34,TAI PING EST,太平村,True,4.0,546.0,POINT Z (22.4980192 114.1266263 0),22.498019199999998,114.1266263
234,"GREEN CODE(Block 1),MA SIK RD|逸峰1座,馬適路",NSS,4219200.0,12602.0,300.0,4358100.0,13163.0,300.0,10279840.0,14873.0,752.0,9,20,29,"['A', 'B', 'C', 'D', 'E']",7107652.2,13849.4,518.0,28,140,2014/06,9,GREEN CODE,逸峰,True,4.0,749.0,POINT Z (22.5010014 114.1458862 0),22.5010014,114.14588619999999
235,"GREEN CODE(Block 3),MA SIK RD|逸峰3座,馬適路",NSS,4654260.0,12949.0,324.0,4561718.0,13377.0,326.0,8501697.0,14366.0,614.0,9,20,30,"['A', 'B', 'C', 'D', 'E', 'F', 'G', 'H']",6747491.541666667,13718.458333333334,493.4166666666667,29,232,2014/06,9,GREEN CODE,逸峰,True,4.0,749.0,POINT Z (22.5010014 114.1458862 0),22.5010014,114.14588619999999
236,"GREEN CODE(Block 2),MA SIK RD|逸峰2座,馬適路",NSS,5955100.0,12401.0,452.0,6179744.0,12601.0,452.0,8674704.0,14007.0,642.0,9,20,30,"['A', 'B', 'C', 'D', 'E']",6757459.066666666,13233.666666666666,511.4666666666667,29,145,2014/06,9,GREEN CODE,逸峰,True,4.0,749.0,POINT Z (22.5010014 114.1458862 0),22.5010014,114.14588619999999
237,"GREEN CODE(Block 5),MA SIK RD|逸峰5座,馬適路",NSS,6041817.0,13163.0,459.0,6276825.0,13675.0,455.0,8837302.0,14402.0,614.0,9,20,30,"['A', 'B', 'C', 'D', 'E', 'F', 'G', 'H']",7117542.791666667,13972.041666666666,509.3333333333333,29,232,2014/06,9,GREEN CODE,逸峰,True,4.0,749.0,POINT Z (22.5010014 114.1458862 0),22.5010014,114.14588619999999
238,"FU MING HSE(Block 4,WAH MING EST),WAH MING RD|華明村,4座(富明樓),華明路",NSS,2923874.9999999995,7119.0,375.0,3010499.9999999995,7316.0,375.0,4239340.0,8226.0,566.0,9,20,29,"['10', '12', '13', '14', '15', '16', '17', '3', '4', '5', '6', '7', '8']",3499271.153846154,7696.948717948719,457.9230769230769,30,390,1990/07,33,WAH MING EST,華明村,True,7.0,3080.0,POINT Z (22.4824137 114.1414465 0),22.4824137,114.14144650000001
239,"TAI CHEUNG BLDG,WO TAI ST|泰昌樓,和泰街",NSS,3742337.665504496,7159.0,513.0,3742337.665504496,7159.0,513.0,3758020.041529798,7189.0,587.0,2,2,4,"['B', 'E', 'G', 'J']",3747565.1241795965,7169.0,532.0,4,16,1977/04,46,blank,,False,,,POINT Z (22.5002132 114.1425894 0),22.500213199999997,114.1425894
240,41-53 WO TAI ST|41-53 和泰街,NSS,4152750.0000000005,5507.0,750.0,4158750.0,5508.0,750.0,4400892.0,5570.0,799.0,3,4,4,"['A', 'B', 'D', 'E']",4225218.916666667,5543.666666666667,762.25,4,16,1971/01,52,blank,,False,,,POINT Z (22.5002343 114.1428224 0),22.5002343,114.14282240000001
241,"PING CHING HSE(Block B,TAI PING EST),PO PING RD|太平村,B座(平靜樓),保平路",NSS,3399180.987927851,8643.0,357.0,3444289.9822025783,8764.0,357.0,4486669.69796465,9625.0,494.0,6,11,17,"['13', '14', '3', '4', '5', '6']",3946221.4045278006,9008.444444444443,430.8333333333333,15,90,1989/06,34,TAI PING EST,太平村,True,4.0,546.0,POINT Z (22.497981 114.12669 0),22.497981,114.12669
242,"CHEUNG FUNG HSE(CHEUNG WAH EST),SAN WAN RD|祥華村(祥豐樓),新運路",NSS,2131904.3833881197,4345.0,358.0,2155180.330962515,5000.0,358.0,2151301.0063667824,4991.0,465.0,16,21,26,"['10', '13', '15', '4', '9']",2181641.114003559,4878.833333333333,418.6000000000001,15,75,1984/03,39,CHEUNG WAH EST,祥華村,True,13.0,1467.0,POINT Z (22.4917437 114.1418452 0),22.4917437,114.1418452
243,"PING YEE HSE(Block D,TAI PING EST),PO PING RD|太平村,D座(平易樓),保平路",NSS,1822128.0,4650.0,357.0,1861755.0,4750.0,357.0,2760472.0,5759.0,572.0,8,16,22,"['10', '11', '12', '14', '2', '5', '7', '9']",2269519.5,5063.125,450.0,22,176,1989/06,34,TAI PING EST,太平村,True,4.0,546.0,POINT Z (22.4972344 114.1265869 0),22.4972344,114.12658689999999
244,"MOUNT ONE,LUEN HING ST|瓏山1號,聯興街",NSS,6819806.0,10937.0,511.0,6907697.999999999,11218.0,511.0,14064672.0,13826.0,1226.0,11,20,28,"['1A', '1B', '1C', '2A', '2B', '2C', '2D']",9415551.904761905,12309.0,774.8571428571428,23,161,2014/07,9,blank,,False,,,POINT Z (22.499556 114.140689 0),22.499556,114.140689
245,"FU HING BLDG,FU HING ST|富興樓,符興街",NSS,2742761.197807997,7030.0,319.0,2702034.4521602,7050.0,319.0,3206663.7730020415,8940.0,352.0,3,4,4,"['A', 'B', 'C', 'D', 'H']",2957226.8512633755,8166.733333333333,338.8,4,20,1981/01,42,blank,,False,,,POINT Z (22.5041995 114.1291416 0),22.5041995,114.1291416
246,"CHEUNG KING HSE(CHEUNG WAH EST),SAN WAN RD|祥華村(祥景樓),新運路",NSS,2144592.0,5058.0,271.0,2202680.0,5195.0,271.0,2271510.0,5370.0,424.0,4,11,18,"['10', '107', '11', '12', '13', '4']",2211607.2,5225.933333333333,397.8333333333333,23,138,1984/03,39,CHEUNG WAH EST,祥華村,True,13.0,1467.0,POINT Z (22.4927783 114.1423329 0),22.4927783,114.14233290000001
247,"CHEUNG TAK HSE - WING A(CHEUNG WAH EST),SAN WAN RD|祥華村(祥德樓 - A翼),新運路",NSS,1949196.0000000002,4960.0,381.0,1981961.9999999998,5030.0,381.0,2725869.9999999995,5573.0,490.0,13,21,30,"['3', '4', '5', '6', '7', '8']",2211568.0555555555,5303.777777777778,417.3333333333333,25,150,1985/01,38,CHEUNG WAH EST,祥華村,True,13.0,1467.0,POINT Z (22.493687 114.141726 0),22.493686999999998,114.141726
248,"CHEUNG CHI HSE - WING A(CHEUNG WAH EST),SAN WAN RD|祥華村(祥智樓 - A翼),新運路",NSS,2535936.0,6260.0,381.0,2569083.0000000005,6340.0,381.0,3165890.0,6876.0,490.0,16,20,26,"['2', '3', '4', '5', '7']",2844110.8333333335,6556.0,402.8,16,80,1986/02,37,CHEUNG WAH EST,祥華村,True,13.0,1467.0,POINT Z (22.4928965 114.1415218 0),22.4928965,114.14152179999999
249,"CHEUNG CHI HSE - WING C(CHEUNG WAH EST),SAN WAN RD|祥華村(祥智樓 - C翼),新運路",NSS,1879473.0,4233.0,381.0,1924049.9999999998,4385.0,381.0,2180500.0,5238.0,490.0,7,16,23,"['1', '2', '4', '5', '6', '7', '8']",1988452.0,5011.333333333333,412.14285714285717,21,147,1986/02,37,CHEUNG WAH EST,祥華村,True,13.0,1467.0,POINT Z (22.4928965 114.1415218 0),22.4928965,114.14152179999999
250,39 WO TAI ST|39 和泰街,NSS,4675200.593526523,5602.0,819.0,4687718.981406368,5617.0,819.0,4693560.895750296,5624.0,819.0,2,3,4,['whole floor'],4685493.490227729,5614.333333333333,819.0,5,5,1970/01,53,blank,,False,,,POINT Z (22.5002343 114.1428224 0),22.5002343,114.14282240000001
251,"CHEUNG CHI HSE - WING B(CHEUNG WAH EST),SAN WAN RD|祥華村(祥智樓 - B翼),新運路",NSS,2830240.0,5776.0,381.0,2909130.0,5937.0,381.0,2964990.0,6051.0,490.0,6,16,24,"['1', '2', '5', '8']",2901453.3333333335,5921.333333333333,408.25,26,104,1986/02,37,CHEUNG WAH EST,祥華村,True,13.0,1467.0,POINT Z (22.4928965 114.1415218 0),22.4928965,114.14152179999999
252,"TUNG LOK MANSION,JOCKEY CLUB RD|同樂樓,馬會道",NSS,3108688.1542589143,7459.0,409.0,,,409.0,,,527.0,1,2,2,"['B', 'E', 'F']",3108688.1542589143,7459.0,448.3333333333333,2,6,1973/09/20,50,blank,,False,,,POINT Z (22.5058967 114.1285848 0),22.5058967,114.1285848
253,"COMMUNE MODERN(Block 2),WO FUNG ST|囍逸2座,和豐街",NSS,4456188.0,12007.0,294.0,4504962.0,12396.0,294.0,10010496.0,15959.0,796.0,8,16,21,"['A', 'B', 'C', 'D', 'DH', 'E', 'EF', 'F', 'G', 'H', 'J']",6335382.3939393945,14326.09090909091,452.8181818181818,18,198,2018/07,5,COMMUNE MODERN,囍逸,True,2.0,342.0,POINT Z (22.4984733 114.1428658 0),22.4984733,114.14286580000001
254,"COMMUNE MODERN(Block 1),WO FUNG ST|囍逸1座,和豐街",NSS,3830372.0,12421.0,235.0,3925572.0,12879.0,235.0,8436600.0,17065.0,645.0,8,16,21,"['A', 'B', 'C', 'D', 'E', 'F', 'G', 'H']",5602742.958333333,14735.416666666666,393.125,18,144,2018/07,5,COMMUNE MODERN,囍逸,True,2.0,342.0,POINT Z (22.4984733 114.1428658 0),22.4984733,114.14286580000001
255,"CHEUNG TAK HSE - WING B(CHEUNG WAH EST),SAN WAN RD|祥華村(祥德樓 - B翼),新運路",NSS,2218392.8400173276,5270.0,381.0,2049897.4790499632,5156.0,381.0,2644340.0312344986,6486.0,490.0,10,20,29,"['1', '2', '3', '4', '6', '7', '8']",2356256.197165529,5673.952380952381,412.14285714285717,28,196,1985/01,38,CHEUNG WAH EST,祥華村,True,13.0,1467.0,POINT Z (22.493687 114.141726 0),22.493686999999998,114.141726
256,"FANLING GARDEN(Block 19),FAN LENG LAU RD|粉嶺花園19座,粉嶺樓路",NSS,4277636.061528825,7909.0,466.0,4290075.766853793,7932.0,466.0,5653440.000000001,9360.0,604.0,1,2,3,"['A', 'B', 'D']",5052919.421933311,8882.888888888889,539.0,3,9,1987/09,36,FANLING GARDEN,粉嶺花園,True,9.0,87.0,POINT Z (22.4986325 114.1403357 0),22.498632500000003,114.14033570000001
257,"EDEN MANOR(Block 2),CASTLE PEAK RD KWU TUNG|高爾夫御苑2座,青山公路古洞段",NSS,16262116.0,14677.0,1108.0,16660996.0,15037.0,1108.0,21942486.0,16699.0,1314.0,7,16,23,"['A', 'B']",19303376.333333332,15891.166666666666,1211.0,21,42,2019/05,4,EDEN MANOR,高爾夫御苑,True,6.0,492.0,POINT Z (22.5001325 114.1197882 0),22.5001325,114.1197882
258,"EDEN MANOR(Block 1),CASTLE PEAK RD KWU TUNG|高爾夫御苑1座,青山公路古洞段",NSS,17003368.0,13554.0,1108.0,17877580.0,13849.0,1108.0,34251924.0,17235.0,2422.0,9,16,20,"['A', 'AB', 'B']",24445286.666666668,15544.0,1614.6666666666667,16,48,2019/05,4,EDEN MANOR,高爾夫御苑,True,6.0,492.0,POINT Z (22.5001325 114.1197882 0),22.5001325,114.1197882
259,"EDEN MANOR(Block 7),CASTLE PEAK RD KWU TUNG|高爾夫御苑7座,青山公路古洞段",NSS,4018008.0,14243.0,276.0,4086180.0,14679.0,276.0,7189094.0,17142.0,487.0,6,16,23,"['A', 'B', 'C', 'D', 'E', 'F', 'G', 'H', 'J', 'K']",5579779.5,15602.9,358.06666666666666,24,240,2019/05,4,EDEN MANOR,高爾夫御苑,True,6.0,492.0,POINT Z (22.5001325 114.1197882 0),22.5001325,114.1197882
260,"EDEN MANOR(Block 9),CASTLE PEAK RD KWU TUNG|高爾夫御苑9座,青山公路古洞段",NSS,13949759.999999998,11806.0,960.0,14328039.0,12148.0,960.0,24041252.000000004,15893.0,1927.0,7,16,23,"['A', 'AB', 'B']",17518229.666666668,14134.444444444445,1284.6666666666667,21,63,2019/05,4,EDEN MANOR,高爾夫御苑,True,6.0,492.0,POINT Z (22.5001325 114.1197882 0),22.5001325,114.1197882
261,"EDEN MANOR(Block 3),CASTLE PEAK RD KWU TUNG|高爾夫御苑3座,青山公路古洞段",NSS,13524480.0,11532.0,960.0,14046642.0,11853.0,960.0,23351386.0,15993.0,1927.0,7,16,23,"['A', 'AB', 'B']",17113336.333333332,13816.555555555555,1284.6666666666667,21,63,2019/05,4,EDEN MANOR,高爾夫御苑,True,6.0,492.0,POINT Z (22.5001325 114.1197882 0),22.5001325,114.1197882
262,"CHEUNG LOK HSE(CHEUNG WAH EST),SAN WAN RD|祥華村(祥樂樓),新運路",NSS,,,423.0,,,423.0,,,443.0,7,14,21,"['11', '14', '3', '5', '6', '7']",,,430.0,22,132,1984/03,39,CHEUNG WAH EST,祥華村,True,13.0,1467.0,POINT Z (22.4928965 114.1415218 0),22.4928965,114.14152179999999
263,"MARIN POINT(Block 3),SHUN LUNG ST|尚澄3座,順隆街",NSS,3374575.0,9522.0,337.0,3384985.0,9566.0,345.0,5650075.999999999,10902.0,538.0,2,3,5,"['A', 'B', 'C', 'D', 'E', 'F', 'G', 'H', 'J', 'K', 'M']",4256166.121212121,10073.181818181818,421.7878787878788,5,55,2018/08,5,MARIN POINT,尚澄,True,4.0,230.0,POINT Z (22.5438993 114.2253145 0),22.543899300000003,114.2253145
264,"MARIN POINT(Block 5),SHUN LUNG ST|尚澄5座,順隆街",NSS,3077100.0,9662.0,300.0,2969776.0,9197.0,300.0,5012778.0,10925.0,467.0,2,3,5,"['A', 'B', 'C', 'D', 'E', 'F', 'G', 'H', 'J', 'K', 'L', 'M', 'N']",3757214.307692308,10167.48717948718,368.4615384615384,5,65,2018/08,5,MARIN POINT,尚澄,True,4.0,230.0,POINT Z (22.5438993 114.2253145 0),22.543899300000003,114.2253145
265,"MARIN POINT(Block 2),SHUN LUNG ST|尚澄2座,順隆街",NSS,2678670.0668610362,9245.0,277.0,2669246.375276761,9311.0,277.0,4486936.0,10012.0,467.0,2,3,5,"['A', 'B', 'C', 'D', 'E', 'F', 'G', 'H', 'J', 'K', 'L', 'N', 'P']",3489453.7406975296,9619.102564102564,362.5128205128205,5,65,2018/08,5,MARIN POINT,尚澄,True,4.0,230.0,POINT Z (22.5438993 114.2253145 0),22.543899300000003,114.2253145
266,"MARIN POINT(Block 1),SHUN LUNG ST|尚澄1座,順隆街",NSS,3529401.0,9627.0,337.0,3633437.0,9656.0,345.0,5391684.0,10657.0,523.0,2,3,5,"['C', 'D', 'E', 'F', 'G', 'H', 'J', 'K', 'L']",4242558.592592592,10191.77777777778,417.4814814814815,5,45,2018/08,5,MARIN POINT,尚澄,True,4.0,230.0,POINT Z (22.5438993 114.2253145 0),22.543899300000003,114.2253145
267,29 WO TAI ST|29 和泰街,NSS,,,803.0,,,803.0,,,803.0,2,2,4,['whole floor'],,,803.0,4,4,1970/01,53,blank,,False,,,POINT Z (22.5002343 114.1428224 0),22.5002343,114.14282240000001
268,"EDEN MANOR(Block 6),CASTLE PEAK RD KWU TUNG|高爾夫御苑6座,青山公路古洞段",NSS,13542412.0,14092.0,961.0,14164179.0,14739.0,961.0,16082250.0,15375.0,1046.0,8,16,21,"['A', 'B']",14939803.5,14876.833333333334,1003.5,18,36,2019/05,4,EDEN MANOR,高爾夫御苑,True,6.0,492.0,POINT Z (22.5001325 114.1197882 0),22.5001325,114.1197882
