,final_address,district,lowZone_value,lowZone_npsf_min,lowZone_nfa_min,midZone_value,midZone_npsf_min,midZone_nfa_min,highZone_value,highZone_npsf_max,highZone_nfa_max,oneSixth_floor,middle_floor,fifthSixth_floor,unit_list,value_avg,npsf_avg,unitSize_avg,noStorey,noFlat,op_date,bldgAge,est_name_en,est_name_ch,est_orNot,est_bldgNo,est_flatNo,final_coords,lat,long
0,"FLORA PLAZA(Block 9),PAK WO RD|花都廣場9座,百和路",NSS,4870319.999999999,11625.0,390,4665180.0,11792.0,390,6497928.0,13372.0,536,9.0,20.0,30.0,"['A', 'B', 'C', 'D', 'E', 'F', 'G', 'H']",5456722.708333333,12481.75,438.75,34,272,1995/11,26,FLORA PLAZA,花都廣場,True,10.0,2720.0,POINT Z (22.4854804 114.141195 0),22.485480399999997,114.141195
1,"FLORA PLAZA(Block 6),PAK WO RD|花都廣場6座,百和路",NSS,5089500.000000001,11561.0,390,5158140.0,11807.0,390,6548848.0,13798.0,536,9.0,20.0,30.0,"['A', 'B', 'C', 'D', 'E', 'F', 'G', 'H']",5719091.625,12687.166666666666,453.75,34,272,1995/11,26,FLORA PLAZA,花都廣場,True,10.0,2720.0,POINT Z (22.4854804 114.141195 0),22.485480399999997,114.141195
2,"FLORA PLAZA(Block 1),PAK WO RD|花都廣場1座,百和路",NSS,4782570.0,11890.0,390,4957290.0,12336.0,390,6846328.0,13657.0,536,9.0,20.0,30.0,"['A', 'B', 'C', 'D', 'E', 'F', 'G', 'H']",5765512.541666667,12748.5,453.75,34,272,1995/11,26,FLORA PLAZA,花都廣場,True,10.0,2720.0,POINT Z (22.4854804 114.141195 0),22.485480399999997,114.141195
3,"FLORA PLAZA(Block 7),PAK WO RD|花都廣場7座,百和路",NSS,4717440.0,11894.0,390,5066490.0,12056.0,390,6694640.0,13812.0,536,9.0,20.0,30.0,"['A', 'B', 'C', 'D', 'E', 'F', 'G', 'H']",5592460.791666667,12790.5,438.75,34,272,1995/11,26,FLORA PLAZA,花都廣場,True,10.0,2720.0,POINT Z (22.4854804 114.141195 0),22.485480399999997,114.141195
4,"FLORA PLAZA(Block 10),PAK WO RD|花都廣場10座,百和路",NSS,4609020.0,11792.0,390,5190510.0,12206.0,390,7101464.0,13726.0,536,9.0,20.0,30.0,"['A', 'B', 'C', 'D', 'E', 'F', 'G', 'H']",5833160.583333333,12899.791666666666,453.75,34,272,1995/11,26,FLORA PLAZA,花都廣場,True,10.0,2720.0,POINT Z (22.4854804 114.141195 0),22.485480399999997,114.141195
5,"SHEUNG SHUI CTR(Block 1),CHI CHEONG RD|上水中心1座,智昌路",NSS,4513990.0,13355.0,338,4664400.0,13800.0,338,5467349.999999999,15674.0,355,5.0,12.0,20.0,"['1A', '1B', '1C', '1D', '1E', '1F', '1H', 'A', 'B', 'C', 'D', 'E', 'F', 'G', 'H']",5198200.911111112,14866.422222222222,349.68888888888887,24,360,1993/11,28,SHEUNG SHUI CTR,上水中心,True,6.0,2117.0,POINT Z (22.5011544 114.1290951 0),22.5011544,114.12909509999999
6,"SHEUNG SHUI CTR(Block 3),CHI CHEONG RD|上水中心3座,智昌路",NSS,4421378.0,12526.0,323,4149288.0,12276.0,338,5435760.0,15476.0,355,5.0,12.0,20.0,"['3A', '3B', '3C', '3D', '3E', '3F', '3G', '3H', 'A', 'B', 'C', 'D', 'E', 'F', 'G', 'H']",4975036.770833333,14247.729166666666,349.1875,24,384,1993/11,28,SHEUNG SHUI CTR,上水中心,True,6.0,2117.0,POINT Z (22.5008858 114.1299577 0),22.500885800000002,114.1299577
7,"SHEUNG SHUI CTR(Block 2),CHI CHEONG RD|上水中心2座,智昌路",NSS,4666704.0,13865.0,323,4916800.0,13891.0,338,5419400.0,15968.0,355,5.0,12.0,20.0,"['2A', '2B', '2C', '2D', '2E', '2F', '2G', '2H', 'A', 'B', 'C', 'D', 'E', 'F', 'G', 'H']",5098886.0625,14634.020833333334,348.5625,24,384,1993/11,28,SHEUNG SHUI CTR,上水中心,True,6.0,2117.0,POINT Z (22.5009432 114.1293274 0),22.500943200000002,114.1293274
8,"WOODLAND CREST(Block 1),TIN PING RD|奕翠園1座,天平路",NSS,9147560.0,9066.0,920,9259800.0,9363.0,920,11357086.853963515,10441.0,1030,2.0,6.0,9.0,"['A', 'B', 'C', 'D', 'E', 'F', 'G', 'H']",10429639.923094966,9884.892857142857,977.5,9,72,1996/04,25,WOODLAND CREST,奕翠園,True,8.0,558.0,POINT Z (22.5070388 114.1322769 0),22.5070388,114.13227690000001
9,"FLORA PLAZA(Block 8),PAK WO RD|花都廣場8座,百和路",NSS,5038410.0,11671.0,390,5136768.0,11861.0,390,6659800.0,13846.0,536,9.0,20.0,30.0,"['A', 'B', 'C', 'D', 'E', 'F', 'G', 'H']",5619466.291666667,12846.75,439.125,34,272,1995/11,26,FLORA PLAZA,花都廣場,True,10.0,2720.0,POINT Z (22.4854804 114.141195 0),22.485480399999997,114.141195
10,"UNION PLAZA(Block 2),WO MUK RD|海聯廣場2座,和睦路",NSS,4913272.0,9979.0,442,5018910.0,10238.0,442,7302384.000000001,11839.0,684,7.0,14.0,21.0,"['A', 'B', 'C', 'D', 'E', 'F', 'G', 'H']",5890956.125,10916.583333333334,543.375,20,160,1994/05,27,UNION PLAZA,海聯廣場,True,1.0,160.0,POINT Z (22.4999531 114.1413575 0),22.499953100000003,114.1413575
11,"FLORA PLAZA(Block 5),PAK WO RD|花都廣場5座,百和路",NSS,4981080.0,11691.0,390,5026709.999999999,11773.0,390,6757888.0,14321.0,536,9.0,20.0,30.0,"['A', 'B', 'C', 'D', 'E', 'F', 'G', 'H']",5723261.166666667,12686.583333333334,453.75,34,272,1995/11,26,FLORA PLAZA,花都廣場,True,10.0,2720.0,POINT Z (22.4854804 114.141195 0),22.485480399999997,114.141195
12,"LUNG FUNG GARDEN(Block B),LUNG SUM AVE|龍豐花園B座,龍琛路",NSS,4431796.0,11965.0,314,4543266.0,12281.0,314,6457940.0,15683.0,505,5.0,13.0,21.0,"['1', '2', '3', '4', '5', '6', '7', '8']",5566846.958333333,13656.166666666666,415.75,25,200,1991/07,30,LUNG FUNG GARDEN,龍豐花園,True,0.0,0.0,POINT Z (22.5027962 114.1294667 0),22.5027962,114.12946670000001
13,"FLORA PLAZA(Block 4),PAK WO RD|花都廣場4座,百和路",NSS,5013820.0,11560.0,390,5050577.000000001,11929.0,390,6614240.0,14238.0,540,9.0,20.0,30.0,"['A', 'B', 'C', 'D', 'E', 'F', 'G', 'H']",5533674.291666667,12660.875,439.25,34,272,1995/11,26,FLORA PLAZA,花都廣場,True,10.0,2720.0,POINT Z (22.4848953 114.1414485 0),22.4848953,114.14144850000001
14,"AVON PARK(Block 7),YAT MING RD|碧湖花園7座,一鳴路",NSS,4922800.0,12282.0,397,4997833.000000001,12435.0,397,6254075.0,13963.0,485,5.0,12.0,20.0,"['A', 'B', 'C', 'D', 'E', 'F', 'G', 'H']",5498525.333333333,12824.75,429.25,20,160,1994/03,27,AVON PARK,碧湖花園,True,7.0,1328.0,POINT Z (22.4869506 114.1432201 0),22.486950600000004,114.1432201
15,"VENICE GARDEN(Block 2),PO WING RD|威尼斯花園2座,保榮路",NSS,4835584.999999999,10776.0,439,4921629.0,10968.0,439,5543668.0,11615.0,494,4.0,10.0,15.0,"['A', 'B', 'C', 'D', 'E', 'F', 'G', 'H']",5091606.958333333,11233.625,453.5,18,144,1993/03,28,VENICE GARDEN,威尼斯花園,True,0.0,0.0,POINT Z (22.4975126 114.1274462 0),22.4975126,114.12744620000001
16,"AVON PARK(Block 3),YAT MING RD|碧湖花園3座,一鳴路",NSS,4907714.0,11869.0,397,4546444.0,11452.0,397,6301604.999999999,13434.0,488,6.0,16.0,25.0,"['A', 'B', 'C', 'D', 'E', 'F', 'G', 'H']",5445211.5,12684.416666666666,429.625,25,200,1994/03,27,AVON PARK,碧湖花園,True,7.0,1328.0,POINT Z (22.4871342 114.1432932 0),22.4871342,114.1432932
17,"FOO HOO COURT,LUEN ON ST|富好閣,聯安街",NSS,3665856.0,11712.0,284,3710743.9999999995,12026.0,284,4050943.0,13186.0,317,3.0,6.0,9.0,"['A', 'B', 'C', 'D']",3815886.3333333335,12683.25,301.25,11,44,1991/12,30,blank,,False,,,POINT Z (22.4995899 114.1437714 0),22.499589899999997,114.14377140000002
18,"SHEUNG SHUI CTR(Block 6),CHI CHEONG RD|上水中心6座,智昌路",NSS,6369376.000000001,13008.0,488,6474784.0,13257.0,480,8829912.0,14196.0,622,6.0,13.0,20.0,"['6A', '6B', '6C', '6D', '6E', '6G', '6H', 'A', 'B', 'C', 'D', 'E', 'F', 'G', 'H']",7589070.266666667,13504.199999999999,562.0888888888888,23,345,1993/11,28,SHEUNG SHUI CTR,上水中心,True,6.0,2117.0,POINT Z (22.5010553 114.13077 0),22.5010553,114.13077
19,"PARKFORD GARDEN,CHI FUK CIRT|百褔花園,置福圍",NSS,8360604.0,10537.0,756,8425620.0,10618.0,756,13980764.0,11274.0,1484,3.0,6.0,8.0,"['A', 'B', 'C', 'D', 'E', 'F', 'G', 'H']",9506486.041666666,10816.5,883.7083333333334,8,64,1995/08,26,blank,,False,,,POINT Z (22.4922175 114.1354122 0),22.4922175,114.13541219999999
20,"GALAXY COURT(Block 7,FANLING TOWN CTR),FANLING STATION RD|粉嶺名都,7座(嘉麗閣),粉嶺車站路",NSS,4647750.0,12061.0,375,4815750.0,12299.0,375,5995488.0,13527.0,456,4.0,10.0,17.0,"['A', 'B', 'C', 'D', 'E', 'F', 'G', 'H']",5216761.791666667,12854.875,406.25,20,160,1993/05,28,FANLING TOWN CTR,粉嶺名都,True,0.0,0.0,POINT Z (22.4927378 114.1388726 0),22.4927378,114.1388726
21,"AVON PARK(Block 2),YAT MING RD|碧湖花園2座,一鳴路",NSS,4999421.0,11904.0,397,5132019.000000001,12412.0,397,6334728.0,13359.0,488,6.0,16.0,25.0,"['A', 'B', 'C', 'D', 'E', 'F', 'G', 'H']",5516519.083333333,12828.125,430.8333333333333,25,200,1994/03,27,AVON PARK,碧湖花園,True,7.0,1328.0,POINT Z (22.4873464 114.1432845 0),22.487346399999996,114.1432845
22,"AVON PARK(Block 5),YAT MING RD|碧湖花園5座,一鳴路",NSS,4941459.0,11792.0,397,5083188.0,12083.0,397,6156120.000000001,13435.0,488,6.0,16.0,25.0,"['A', 'B', 'C', 'D', 'E', 'F', 'G', 'H']",5451261.0,12713.458333333334,429.625,25,200,1994/03,27,AVON PARK,碧湖花園,True,7.0,1328.0,POINT Z (22.4872337 114.143256 0),22.4872337,114.14325600000001
23,"ROME COURT(Block 4,SHEUNG SHUI TOWN CTR),CHI CHEONG RD|上水名都,4座(羅馬閣),智昌路",NSS,4771689.0,12158.0,377,4862169.0,12330.0,377,5874984.0,13714.0,461,5.0,13.0,21.0,"['A', 'B', 'C', 'D', 'E', 'F', 'G', 'H']",5201267.708333333,12832.25,405.9166666666667,25,200,1992/08,29,SHEUNG SHUI TOWN CTR,上水名都,True,0.0,0.0,POINT Z (22.5009022 114.1313868 0),22.5009022,114.1313868
24,"GREENPARK VILLA(Block 2),KAT CHEUNG CRES|蔚翠花園2座,吉祥街",NSS,7059195.0,9792.0,715,7139275.0,9905.0,715,7502145.0,10255.0,742,4.0,8.0,11.0,"['A', 'B', 'C', 'D', 'E', 'F', 'G', 'H']",7232967.083333333,10015.625,722.1666666666666,11,88,1994/01,27,GREENPARK VILLA,蔚翠花園,True,6.0,544.0,POINT Z (22.495581 114.133057 0),22.495581,114.13305700000001
25,"SAN FUNG BLDG,SAN FUNG AVE|新豐大廈,新豐路",NSS,4322912.0,11376.0,352,4341568.0,12050.0,352,4785550.0,12653.0,385,6.0,12.0,17.0,"['A', 'B', 'C', 'D']",4565063.583333333,12194.416666666666,374.6666666666667,18,72,1993/10,28,blank,,False,,,POINT Z (22.5055529 114.1271392 0),22.505552899999998,114.1271392
26,"WING HAY COURT,WO FUNG ST|榮熙閣,和豐街",NSS,5638689.0,10619.0,402,5690196.0,10716.0,402,5740641.0,10811.0,531,3.0,6.0,9.0,"['A', 'B', 'C', 'D']",5689842.0,10715.333333333334,466.5,10,40,1993/09,28,blank,,False,,,POINT Z (22.4983675 114.1420078 0),22.4983675,114.1420078
27,"CHEERFUL PARK(Block 1),KAT CHEUNG CRES|欣翠花園1座,吉祥街",NSS,5793829.1732413145,8409.0,614,6674180.0,8540.0,614,8113826.891011403,11210.0,793,3.0,6.0,10.0,"['A', 'B', 'C', 'D', 'E', 'F', 'G', 'H']",7145059.616590406,9703.291666666666,681.0,12,96,1992/04,29,CHEERFUL PARK,欣翠花園,True,4.0,384.0,POINT Z (22.496055 114.1315569 0),22.496055,114.1315569
28,"LUNG FUNG GARDEN(Block A),LUNG SUM AVE|龍豐花園A座,龍琛路",NSS,4660943.0,12253.0,328,4764907.0,12383.0,328,6847295.0,15454.0,505,5.0,13.0,21.0,"['1', '2', '3', '4', '5', '6', '7', '8']",5713499.738095238,13585.863095238097,418.5,25,200,1991/07,30,LUNG FUNG GARDEN,龍豐花園,True,0.0,0.0,POINT Z (22.5030936 114.1297919 0),22.503093600000003,114.1297919
29,"FLORA PLAZA(Block 2),PAK WO RD|花都廣場2座,百和路",NSS,4854720.0,11490.0,390,5008224.0,11762.0,390,6607808.0,13756.0,536,9.0,20.0,30.0,"['A', 'B', 'C', 'D', 'E', 'F', 'G', 'H']",5511193.333333333,12633.833333333334,438.375,34,272,1995/11,26,FLORA PLAZA,花都廣場,True,10.0,2720.0,POINT Z (22.4854804 114.141195 0),22.485480399999997,114.141195
30,"FORUM COURT(Block 6,FANLING TOWN CTR),FANLING STATION RD|粉嶺名都,6座(富臨閣),粉嶺車站路",NSS,4820185.0,12203.0,375,5220319.999999999,13216.0,375,,,912,13.0,39.0,76.0,"['A', 'B', 'C', 'D', 'E', 'F', 'G', 'H']",5598126.125,13785.0625,425.25,73,584,1993/05,28,FANLING TOWN CTR,粉嶺名都,True,0.0,0.0,POINT Z (22.49297 114.1390583 0),22.49297,114.13905829999999
31,"FLORA PLAZA(Block 3),PAK WO RD|花都廣場3座,百和路",NSS,4852337.0,11749.0,390,4995648.0,12096.0,390,6775576.0,13677.0,536,9.0,20.0,30.0,"['A', 'B', 'C', 'D', 'E', 'F', 'G', 'H']",5608564.875,12828.833333333334,438.75,34,272,1995/11,26,FLORA PLAZA,花都廣場,True,10.0,2720.0,POINT Z (22.4854804 114.141195 0),22.485480399999997,114.141195
32,"WOODLAND CREST(Block 2),TIN PING RD|奕翠園2座,天平路",NSS,10355736.119713994,7270.0,935,10465418.60681413,7347.0,935,11811201.92811714,10143.0,1030,2.0,6.0,9.0,"['A', 'B', 'C', 'D', 'E', 'F', 'G', 'H']",11130647.02530209,7776.75,981.25,9,72,1996/04,25,WOODLAND CREST,奕翠園,True,8.0,558.0,POINT Z (22.5071872 114.1325788 0),22.5071872,114.13257879999999
33,"VENICE GARDEN(Block 1),PO WING RD|威尼斯花園1座,保榮路",NSS,4436520.0,10083.0,439,4490200.0,10205.0,439,5587634.0,11664.0,494,4.0,10.0,15.0,"['A', 'B', 'C', 'D', 'E', 'F', 'G', 'H']",5031304.25,11096.083333333334,453.5,18,144,1993/03,28,VENICE GARDEN,威尼斯花園,True,0.0,0.0,POINT Z (22.4976429 114.1277249 0),22.4976429,114.1277249
34,"LUNG FUNG GARDEN(Block C),LUNG SUM AVE|龍豐花園C座,龍琛路",NSS,4753392.0,12126.0,328,4859988.0,12220.0,328,6761445.0,15527.0,505,5.0,13.0,21.0,"['1', '2', '3', '4', '5', '6', '7', '8']",5722662.125,13882.541666666666,418.5,25,200,1991/07,30,LUNG FUNG GARDEN,龍豐花園,True,0.0,0.0,POINT Z (22.5026247 114.1298615 0),22.502624700000002,114.1298615
35,"WOODLAND CREST(Block 6),TIN PING RD|奕翠園6座,天平路",NSS,9595600.0,10229.0,920,9706920.0,10348.0,920,10751140.0,10857.0,1030,2.0,6.0,9.0,"['A', 'B', 'C', 'D', 'E', 'F', 'G', 'H']",10243057.0,10485.583333333334,977.5,9,72,1996/04,25,WOODLAND CREST,奕翠園,True,8.0,558.0,POINT Z (22.506152 114.1323698 0),22.506152,114.13236979999999
36,"NEW YORK COURT(Block 2,SHEUNG SHUI TOWN CTR),CHI CHEONG RD|上水名都,2座(紐約閣),智昌路",NSS,4703538.0,12009.0,371,4752461.999999999,12361.0,371,6123924.0,13756.0,461,5.0,12.0,20.0,"['A', 'B', 'C', 'D', 'E', 'F', 'G', 'H']",5286801.625,12962.791666666666,407.7916666666667,24,192,1992/08,29,SHEUNG SHUI TOWN CTR,上水名都,True,0.0,0.0,POINT Z (22.5007424 114.1316963 0),22.5007424,114.1316963
37,"METROPOLIS PLAZA(Block 3),LUNG WAN ST|新都廣場3座,龍運街",NSS,5561676.0,12245.0,414,5704140.0,12745.0,414,8264732.0,14337.0,596,8.0,16.0,24.0,"['A', 'B', 'C', 'D', 'E', 'F', 'G', 'H']",6450530.916666667,13355.166666666666,483.25,25,200,1991/03,30,METROPOLIS PLAZA,新都廣場,True,3.0,592.0,POINT Z (22.5016194 114.1292912 0),22.5016194,114.1292912
38,"BERLIN COURT(Block 1,SHEUNG SHUI TOWN CTR),CHI CHEONG RD|上水名都,1座(柏林閣),智昌路",NSS,4674971.0,12123.0,371,4704280.0,12135.0,371,6184815.0,13671.0,455,5.0,12.0,20.0,"['A', 'B', 'C', 'D', 'E', 'F', 'G', 'H']",5241269.833333333,12911.708333333334,405.75,24,192,1992/08,29,SHEUNG SHUI TOWN CTR,上水名都,True,0.0,0.0,POINT Z (22.500728 114.131714 0),22.500728,114.13171399999999
39,"VIENNA GARDEN(Block 3),KAT CHEUNG CRES|維也納花園3座,吉祥街",NSS,4729063.380055762,6494.0,478,4839312.658817534,9022.0,478,7073316.0,9936.0,736,3.0,6.0,10.0,"['A', 'B', 'C', 'D', 'E', 'F', 'G', 'H']",6234884.026322894,9438.375,638.25,12,96,1993/03,28,VIENNA GARDEN,維也納花園,True,0.0,0.0,POINT Z (22.4960815 114.1309763 0),22.4960815,114.1309763
40,"GREENPARK VILLA(Block 3),KAT CHEUNG CRES|蔚翠花園3座,吉祥街",NSS,7195045.0,10063.0,715,6019764.0,10045.0,554,7908896.999999999,10939.0,730,3.0,8.0,11.0,"['A', 'B', 'C', 'D', 'E', 'F', 'G', 'H']",7436788.916666667,10531.5,706.5416666666666,12,96,1994/01,27,GREENPARK VILLA,蔚翠花園,True,6.0,544.0,POINT Z (22.4953512 114.1328343 0),22.495351199999998,114.13283429999998
41,"AVON PARK(Block 6),YAT MING RD|碧湖花園6座,一鳴路",NSS,4940268.0,12115.0,397,4942650.0,12237.0,397,6328765.0,13615.0,488,6.0,16.0,25.0,"['A', 'B', 'C', 'D', 'E', 'F', 'G', 'H']",5490847.875,12792.875,429.625,25,200,1994/03,27,AVON PARK,碧湖花園,True,7.0,1328.0,POINT Z (22.4873999 114.1433122 0),22.4873999,114.1433122
42,"WOODLAND CREST(Block 7),TIN PING RD|奕翠園7座,天平路",NSS,10641235.0,11381.0,935,11009670.0,10689.0,935,,,1030,2.0,6.0,9.0,"['A', 'B', 'C', 'D', 'E', 'F', 'G', 'H']",10932831.5,11158.25,981.25,9,72,1996/04,25,WOODLAND CREST,奕翠園,True,8.0,558.0,POINT Z (22.5063694 114.1326485 0),22.5063694,114.13264850000002
43,"SHEUNG SHUI CTR(Block 4),CHI CHEONG RD|上水中心4座,智昌路",NSS,5219458.0,12972.0,353,5310532.0,13190.0,353,7484115.0,15459.0,535,6.0,13.0,20.0,"['4B', '4E', '4F', '4G', '4H', 'A', 'B', 'C', 'D', 'E', 'F', 'G', 'H']",6189657.692307693,14228.794871794873,440.3846153846154,23,299,1993/11,28,SHEUNG SHUI CTR,上水中心,True,6.0,2117.0,POINT Z (22.5008858 114.1299577 0),22.500885800000002,114.1299577
44,"GREENPARK VILLA(Block 5),KAT CHEUNG CRES|蔚翠花園5座,吉祥街",NSS,5974890.0,10024.0,554,6051896.0,10214.0,554,7513160.0,10967.0,730,3.0,8.0,11.0,"['A', 'B', 'C', 'D', 'E', 'F', 'G', 'H']",7196548.583333333,10302.541666666666,699.6666666666666,12,96,1994/01,27,GREENPARK VILLA,蔚翠花園,True,6.0,544.0,POINT Z (22.4948766 114.1333337 0),22.4948766,114.13333370000001
45,"METROPOLIS PLAZA(Block 1),LUNG WAN ST|新都廣場1座,龍運街",NSS,5782455.0,12883.0,435,5938185.0,13228.0,435,6851746.0,13970.0,506,8.0,16.0,23.0,"['A', 'B', 'C', 'D', 'E', 'F', 'G', 'H']",6395160.125,13400.333333333334,477.5,24,192,1991/03,30,METROPOLIS PLAZA,新都廣場,True,3.0,592.0,POINT Z (22.5024264 114.1290487 0),22.5024264,114.1290487
46,"CHEERFUL PARK(Block 4),KAT CHEUNG CRES|欣翠花園4座,吉祥街",NSS,6151052.0,9587.0,614,6203242.0,9666.0,614,7767435.0,10729.0,793,3.0,6.0,10.0,"['A', 'B', 'C', 'D', 'E', 'F', 'G', 'H']",6859674.583333333,10102.0,681.0,12,96,1992/04,29,CHEERFUL PARK,欣翠花園,True,4.0,384.0,POINT Z (22.4957045 114.132393 0),22.495704500000002,114.132393
47,"PARIS COURT(Block 3,SHEUNG SHUI TOWN CTR),CHI CHEONG RD|上水名都,3座(巴黎閣),智昌路",NSS,4204304.0,10968.0,377,4402269.0,11259.0,377,5886509.0,13263.0,461,5.0,13.0,21.0,"['A', 'B', 'C', 'D', 'E', 'F', 'G', 'H']",4918501.708333333,12093.125,406.8333333333333,25,200,1992/08,29,SHEUNG SHUI TOWN CTR,上水名都,True,0.0,0.0,POINT Z (22.5009463 114.1315105 0),22.500946300000003,114.1315105
48,"WOODLAND CREST(Block 9),TIN PING RD|奕翠園9座,天平路",NSS,10239112.71082972,8807.0,937,10453610.45092104,8911.0,937,14907007.171283318,10265.0,1478,2.0,6.0,9.0,"['A', 'B', 'C', 'D', 'E', 'F', 'G']",11513082.630893737,9714.333333333334,1062.4285714285713,9,63,1996/04,25,WOODLAND CREST,奕翠園,True,8.0,558.0,POINT Z (22.5065026 114.133322 0),22.5065026,114.13332199999999
49,"WOODLAND CREST(Block 8),TIN PING RD|奕翠園8座,天平路",NSS,9269816.28903185,8835.0,935,9378934.66979691,8939.0,935,11659911.68153714,10088.0,1030,2.0,6.0,9.0,"['A', 'B', 'C', 'D', 'E', 'F', 'G', 'H']",10789089.124755582,9631.666666666666,981.25,9,72,1996/04,25,WOODLAND CREST,奕翠園,True,8.0,558.0,POINT Z (22.5063978 114.1330201 0),22.506397800000002,114.13302009999998
50,"AMBER COURT(Block 1,FANLING TOWN CTR),FANLING STATION RD|粉嶺名都,1座(雅碧閣),粉嶺車站路",NSS,4740608.0,11534.0,376,4832728.0,12007.0,376,5938488.0,13742.0,456,5.0,12.0,18.0,"['A', 'B', 'C', 'D', 'E', 'F', 'G', 'H']",5237184.083333333,12878.208333333334,407.5,22,176,1993/05,28,FANLING TOWN CTR,粉嶺名都,True,0.0,0.0,POINT Z (22.4918335 114.1401071 0),22.4918335,114.1401071
51,"GREENPARK VILLA(Block 6),KAT CHEUNG CRES|蔚翠花園6座,吉祥街",NSS,7232940.0,10095.0,715,7363070.0,10237.0,715,7721568.0,10708.0,729,3.0,8.0,11.0,"['A', 'B', 'C', 'D', 'E', 'F', 'G', 'H']",7457921.958333333,10329.875,722.0,12,96,1994/01,27,GREENPARK VILLA,蔚翠花園,True,6.0,544.0,POINT Z (22.4951099 114.1336136 0),22.4951099,114.13361359999999
52,"EDEN GARDEN,WAI HON RD|海裕苑,維翰路",NSS,11085817.033250375,7157.0,1077,11216453.863928545,7239.0,1077,13833177.515784588,9567.0,1193,2.0,6.0,10.0,"['10A', '10B', '11B', '12A', '15B', '16B', '18B', '1A', '2A', '3A', '3B', '4A', '5A', '7B', '8A', '9A', 'A', 'B']",12936115.395732736,7703.351851851851,1164.111111111111,12,216,1992/12,29,blank,,False,,,POINT Z (22.4951548 114.1300125 0),22.4951548,114.1300125
53,"ELEGANT COURT(Block 5,FANLING TOWN CTR),FANLING STATION RD|粉嶺名都,5座(怡景閣),粉嶺車站路",NSS,4855664.0,12034.0,376,4969216.0,12294.0,376,5765664.0,13556.0,456,5.0,12.0,19.0,"['A', 'B', 'C', 'D', 'E', 'F', 'G', 'H']",5248666.875,12905.708333333334,407.5,23,184,1993/05,28,FANLING TOWN CTR,粉嶺名都,True,0.0,0.0,POINT Z (22.4918335 114.1401071 0),22.4918335,114.1401071
54,"COMFORT COURT,LUEN WO RD|錦福大廈,聯和道",NSS,3808193.6244112775,7127.0,342,3868632.871973421,7236.0,342,4763201.378124237,7705.0,428,3.0,8.0,11.0,"['A', 'B', 'C', 'D']",4180883.6974773803,7418.888888888888,385.0,12,48,1994/02,27,blank,,False,,,POINT Z (22.4990197 114.1438773 0),22.499019699999998,114.1438773
55,"SHEUNG SHUI CTR(Block 5),CHI CHEONG RD|上水中心5座,智昌路",NSS,4816332.0,13499.0,353,4912348.0,13775.0,353,7744125.0,15816.0,535,6.0,13.0,20.0,"['5A', '5B', '5C', '5D', '5E', '5F', '5G', 'A', 'B', 'C', 'D', 'E', 'F', 'G', 'H']",6192639.888888889,14066.4,440.8666666666666,23,345,1993/11,28,SHEUNG SHUI CTR,上水中心,True,6.0,2117.0,POINT Z (22.5009195 114.1303028 0),22.500919500000002,114.1303028
56,"DRAGON COURT(Block 4,FANLING TOWN CTR),FANLING STATION RD|粉嶺名都,4座(龍騰閣),粉嶺車站路",NSS,4780464.0,11920.0,376,4880104.0,11745.0,376,5851392.0,13519.0,456,5.0,13.0,21.0,"['A', 'B', 'C', 'D', 'E', 'F', 'G', 'H']",5253998.541666667,12904.375,407.75,25,200,1993/05,28,FANLING TOWN CTR,粉嶺名都,True,0.0,0.0,POINT Z (22.4918335 114.1401071 0),22.4918335,114.1401071
57,"GREENPARK VILLA(Block 4),KAT CHEUNG CRES|蔚翠花園4座,吉祥街",NSS,7285850.0,10190.0,715,7387380.0,10332.0,715,8101938.0,11206.0,730,3.0,8.0,11.0,"['A', 'B', 'C', 'D', 'E', 'F', 'G', 'H']",7756398.625,10777.833333333334,719.625,12,96,1994/01,27,GREENPARK VILLA,蔚翠花園,True,6.0,544.0,POINT Z (22.4951326 114.133113 0),22.4951326,114.133113
58,"GREENPARK VILLA(Block 1),KAT CHEUNG CRES|蔚翠花園1座,吉祥街",NSS,5815242.0,10172.0,538,5916386.0,10315.0,538,8786310.0,11102.0,845,3.0,8.0,11.0,"['A', 'B', 'C', 'D', 'E', 'F']",7735664.333333333,10595.444444444445,732.3333333333334,12,72,1994/01,27,GREENPARK VILLA,蔚翠花園,True,6.0,544.0,POINT Z (22.4959617 114.1328343 0),22.4959617,114.13283429999998
59,"METROPOLIS PLAZA(Block 2),LUNG WAN ST|新都廣場2座,龍運街",NSS,5619180.0,12245.0,414,5848578.0,12751.0,414,7833224.0,14563.0,602,8.0,16.0,24.0,"['A', 'B', 'C', 'D', 'E', 'F', 'G', 'H']",6424528.541666667,13428.875,480.75,25,200,1991/03,30,METROPOLIS PLAZA,新都廣場,True,3.0,592.0,POINT Z (22.5020588 114.1297509 0),22.5020588,114.1297509
60,"CANARY COURT(Block 3,FANLING TOWN CTR),FANLING STATION RD|粉嶺名都,3座(嘉蘭閣),粉嶺車站路",NSS,4789488.0,11667.0,376,4909056.0,11950.0,376,5778888.0,13743.0,456,5.0,13.0,21.0,"['A', 'B', 'C', 'D', 'E', 'F', 'G', 'H']",5277294.75,12979.375,407.5,25,200,1993/05,28,FANLING TOWN CTR,粉嶺名都,True,0.0,0.0,POINT Z (22.492305 114.13987 0),22.492304999999998,114.13987
61,"GRAND TOWER(Block B),LUEN WO RD|嘉宏中心B座,聯和道",NSS,3870048.779523182,11612.0,297,3823722.8425309565,11473.0,297,3851199.0000000005,12967.0,297,4.0,10.0,15.0,"['A', 'B']",3856899.362549064,12284.166666666666,297.0,18,36,1992/11,29,GRAND TOWER,嘉宏中心,True,2.0,64.0,POINT Z (22.4978627 114.1427858 0),22.4978627,114.1427858
62,"AVON PARK(Block 8),YAT MING RD|碧湖花園8座,一鳴路",NSS,5139165.0,11894.0,397,5223726.000000001,12006.0,397,6065895.0,13891.0,485,5.0,12.0,21.0,"['A', 'B', 'C', 'D', 'E', 'F', 'G', 'H']",5525802.208333333,12912.958333333334,429.25,21,168,1994/03,27,AVON PARK,碧湖花園,True,7.0,1328.0,POINT Z (22.4868427 114.1433249 0),22.4868427,114.14332490000001
63,"VIENNA GARDEN(Block 2),KAT CHEUNG CRES|維也納花園2座,吉祥街",NSS,4884204.0,9022.0,478,4941564.0,9095.0,478,6771000.0,10455.0,732,3.0,6.0,10.0,"['A', 'B', 'C', 'D', 'E', 'F', 'G', 'H']",6050258.166666667,9557.875,637.75,12,96,1993/03,28,VIENNA GARDEN,維也納花園,True,0.0,0.0,POINT Z (22.4958096 114.1306279 0),22.4958096,114.13062790000001
64,"VIENNA GARDEN(Block 1),KAT CHEUNG CRES|維也納花園1座,吉祥街",NSS,4971200.0,9115.0,476,5122248.0,9358.0,476,7094544.0,10948.0,732,3.0,6.0,10.0,"['A', 'B', 'C', 'D', 'E', 'F', 'G', 'H']",6196177.458333333,9797.75,637.5,12,96,1993/03,28,VIENNA GARDEN,維也納花園,True,0.0,0.0,POINT Z (22.4959228 114.130326 0),22.4959228,114.130326
65,"GRAND TOWER(Block A),LUEN WO RD|嘉宏中心A座,聯和道",NSS,3825657.0,12881.0,297,3826548.0,12884.0,297,4117608.0,13864.0,297,4.0,8.0,13.0,"['A', 'B']",3923271.0,13209.666666666666,297.0,14,28,1992/11,29,GRAND TOWER,嘉宏中心,True,2.0,64.0,POINT Z (22.4977503 114.1426697 0),22.4977503,114.1426697
66,"BRILLIANT COURT(Block 2,FANLING TOWN CTR),FANLING STATION RD|粉嶺名都,2座(百利閣),粉嶺車站路",NSS,4939135.999999999,11995.0,376,5024487.999999999,12241.0,376,5850480.0,13713.0,456,5.0,12.0,19.0,"['A', 'B', 'C', 'D', 'E', 'F', 'G', 'H']",5247474.041666667,12899.25,407.5,23,184,1993/05,28,FANLING TOWN CTR,粉嶺名都,True,0.0,0.0,POINT Z (22.4918335 114.1401071 0),22.4918335,114.1401071
67,"WOODLAND CREST(Block 5),TIN PING RD|奕翠園5座,天平路",NSS,9583368.921213804,8822.0,865,9689171.333085809,8910.0,865,14823366.204307746,10065.0,1472,2.0,6.0,9.0,"['A', 'B', 'C', 'D', 'E', 'F', 'G']",11129945.309253724,9656.142857142857,1033.2857142857142,9,63,1996/04,25,WOODLAND CREST,奕翠園,True,8.0,558.0,POINT Z (22.507535 114.1331362 0),22.507535,114.1331362
68,"AVON PARK(Block 1),YAT MING RD|碧湖花園1座,一鳴路",NSS,5075645.0,11459.0,397,5220153.0,12696.0,397,6495605.0,13775.0,488,6.0,16.0,25.0,"['A', 'B', 'C', 'D', 'E', 'F', 'G', 'H']",5574295.583333333,12999.416666666666,429.625,25,200,1994/03,27,AVON PARK,碧湖花園,True,7.0,1328.0,POINT Z (22.4872208 114.142796 0),22.487220800000003,114.14279599999999
69,"CHEERFUL PARK(Block 2),KAT CHEUNG CRES|欣翠花園2座,吉祥街",NSS,4497668.0,10311.0,382,4540070.0,10404.0,382,7310940.0,12326.0,676,3.0,6.0,10.0,"['A', 'B', 'C', 'D', 'E', 'F', 'G', 'H']",5842568.0,11333.75,524.75,12,96,1992/04,29,CHEERFUL PARK,欣翠花園,True,4.0,384.0,POINT Z (22.4957894 114.1317195 0),22.495789399999996,114.1317195
70,"OTB BLDG FANLING,LUEN HING ST|粉嶺海外大廈,聯興街",NSS,,,315,,,315,,,396,2.0,2.0,4.0,"['A', 'D']",,,355.5,4,8,1984/01,37,blank,,False,,,POINT Z (22.498096 114.142534 0),22.498096,114.14253400000001
71,"FORTUNE HSE,CHI FUK CIRT|廣福苑,置福圍",NSS,,,908,11299665.172875635,8062.0,908,11728369.141033016,8269.0,1816,3.0,6.0,9.0,"['A', 'B', 'C', 'D', 'E']",11514017.156954326,8165.5,982.5333333333333,9,45,1996/09,25,blank,,False,,,POINT Z (22.4919322 114.1363876 0),22.491932199999997,114.13638759999999
72,"WO FUNG COURT,WO FUNG ST|和豐閣,和豐街",NSS,4664983.589621589,6839.0,428,4690438.560305202,6913.0,428,5854233.670549032,9848.0,537,4.0,6.0,9.0,"['A', 'B', 'C', 'D']",5243360.5814335,8427.666666666666,482.5,10,40,1991/03,30,blank,,False,,,POINT Z (22.4981563 114.14224 0),22.498156299999998,114.14223999999999
73,"CHEERFUL PARK(Block 3),KAT CHEUNG CRES|欣翠花園3座,吉祥街",NSS,4605774.0,10217.0,382,4715026.0,10312.0,382,7055412.0,12668.0,676,3.0,6.0,10.0,"['A', 'B', 'C', 'D', 'E', 'F', 'G', 'H']",5828354.208333333,11392.25,524.75,12,96,1992/04,29,CHEERFUL PARK,欣翠花園,True,4.0,384.0,POINT Z (22.4956433 114.1320911 0),22.4956433,114.13209109999998
74,"WOODLAND CREST(Block 3),TIN PING RD|奕翠園3座,天平路",NSS,9374737.808998253,7390.0,935,9483856.189763315,7480.0,935,12628635.438721502,10270.0,1030,2.0,6.0,9.0,"['A', 'B', 'C', 'D', 'E', 'F', 'G', 'H']",10968237.828543503,8165.041666666667,981.25,9,72,1996/04,25,WOODLAND CREST,奕翠園,True,8.0,558.0,POINT Z (22.5073866 114.1328343 0),22.5073866,114.13283429999998
75,"CHOW WU HSE(Block F,YUK PO COURT),CHOI YUEN RD|旭埔苑,F座(周湖閣),彩園路",NSS,3881256.374829338,4666.0,546,3949465.338124667,4748.0,546,4063424.2158253994,4885.0,546,4.0,10.0,16.0,"['1', '2', '3', '4', '5', '6', '7', '8']",3971986.482469175,4857.714285714286,546.0,18,144,1982/12,39,YUK PO COURT,旭埔苑,True,0.0,0.0,POINT Z (22.499941 114.128293 0),22.499941,114.128293
76,"HON WU HSE(Block D,YUK PO COURT),CHOI YUEN RD|旭埔苑,D座(漢湖閣),彩園路",NSS,5195190.0,9515.0,546,5284734.0,9679.0,546,5448534.0,9979.0,546,4.0,10.0,16.0,"['1', '2', '3', '4', '5', '6', '7', '8']",5335057.0,9771.166666666666,546.0,19,152,1982/12,39,YUK PO COURT,旭埔苑,True,0.0,0.0,POINT Z (22.499941 114.128293 0),22.499941,114.128293
77,"TONG WU HSE(Block C,YUK PO COURT),CHOI YUEN RD|旭埔苑,C座(唐湖閣),彩園路",NSS,4880742.632263092,4090.0,546,4952428.156738962,4162.0,546,5319535.994598867,8179.0,546,4.0,10.0,15.0,"['3', '4', '5', '6', '7']",5166824.707306392,5137.25,546.0,16,80,1982/12,39,YUK PO COURT,旭埔苑,True,0.0,0.0,POINT Z (22.499941 114.128293 0),22.499941,114.128293
78,"GOOD VIEW NEW VILLAGE(Block 9C),LING SHAN RD|美景新村9C座,靈山路",NSS,,,350,,,350,,,453,0.0,1.0,2.0,"['2', '3', '4', '5', '6']",,,405.6000000000001,3,15,1983/06,38,GOOD VIEW NEW VILLAGE,美景新村,True,3.0,40.0,POINT Z (22.5028465 114.1381642 0),22.5028465,114.1381642
79,"SEUNG WU HSE(Block G,YUK PO COURT),CHOI YUEN RD|旭埔苑,G座(商湖閣),彩園路",NSS,3677461.3015689035,4421.0,546,,,546,,,546,4.0,8.0,15.0,"['1', '2', '3', '4', '5', '6', '7', '8']",3677461.3015689035,4421.0,546.0,16,128,1982/12,39,YUK PO COURT,旭埔苑,True,0.0,0.0,POINT Z (22.499941 114.128293 0),22.499941,114.128293
80,"GOOD VIEW NEW VILLAGE(Block 4B),LING SHAN RD|美景新村4B座,靈山路",NSS,3420283.710800465,6216.0,350,3325615.0567494566,5948.0,350,3708386.59928318,9442.0,367,0.0,1.0,2.0,"['1', '3', '4', '5', '6']",3490578.118154064,7023.333333333333,359.0,3,15,1983/06,38,GOOD VIEW NEW VILLAGE,美景新村,True,3.0,40.0,POINT Z (22.502541 114.1383036 0),22.502541,114.13830359999999
81,"GOOD VIEW NEW VILLAGE(Block 13B),LING SHAN RD|美景新村13B座,靈山路",NSS,3187030.7505955454,5977.0,350,,,350,,,367,1.0,2.0,2.0,"['1', '2', '4', '5', '6']",3267786.281326296,6016.0,358.6000000000001,2,10,1983/06,38,GOOD VIEW NEW VILLAGE,美景新村,True,3.0,40.0,POINT Z (22.5029623 114.1375023 0),22.502962300000004,114.13750230000001
82,"TSUN WU HSE(Block H,YUK PO COURT),CHOI YUEN RD|旭埔苑,H座(秦湖閣),彩園路",NSS,4421220.039469052,7216.0,546,4501483.319010411,7347.0,546,5171166.0,9471.0,546,3.0,9.0,15.0,"['1', '2', '4', '5', '6', '7']",4792191.730451349,8328.333333333334,546.0,19,114,1982/12,39,YUK PO COURT,旭埔苑,True,0.0,0.0,POINT Z (22.499941 114.128293 0),22.499941,114.128293
83,6-20 SAN LOK ST|6-20 新樂街,NSS,6542877.618915459,6817.0,630,6588947.46279223,6865.0,630,6609348.800048424,9349.0,630,1.0,2.0,2.0,"['A', 'C', 'E', 'F']",6580391.293918704,7677.0,630.0,2,8,1974/04,47,blank,,False,,,POINT Z (22.5039286 114.1286449 0),22.503928600000002,114.1286449
84,"MING WU HSE(Block B,YUK PO COURT),CHOI YUEN RD|旭埔苑,B座(明湖閣),彩園路",NSS,4790676.20407546,5937.0,546,5062100.8822191395,8262.0,546,5281446.333179494,8620.0,546,3.0,10.0,16.0,"['1', '2', '3', '4', '5', '6', '8']",5069631.8394287685,7867.0,546.0,18,126,1982/12,39,YUK PO COURT,旭埔苑,True,0.0,0.0,POINT Z (22.499941 114.128293 0),22.499941,114.128293
85,"YAN HEI HSE(Block C,Phase 1,YAN SHING COURT),15 WAH MING RD|欣盛苑,1期,C座(欣喜閣),15 華明路",NSS,2946147.0,6660.0,401,3047600.0,6899.0,401,4591110.0,7842.0,645,6.0,18.0,29.0,"['1', '10', '2', '3', '4', '5', '6', '7', '8', '9']",3686122.0666666664,7266.333333333333,511.0,32,320,1993/09,28,YAN SHING COURT,欣盛苑,True,0.0,0.0,POINT Z (22.487455 114.139492 0),22.487454999999997,114.13949199999999
86,"YAN YIU HSE(Block E,Phase 2,YAN SHING COURT),15 WAH MING RD|欣盛苑,2期,E座(欣耀閣),15 華明路",NSS,2825847.0,6446.0,401,2923691.0,6677.0,401,4459530.0,7564.0,645,7.0,18.0,30.0,"['1', '10', '2', '3', '4', '5', '6', '7', '8', '9']",3577407.5666666664,7045.333333333333,511.0,33,330,1993/09,28,YAN SHING COURT,欣盛苑,True,0.0,0.0,POINT Z (22.4871847 114.1392441 0),22.487184699999997,114.13924409999998
87,"YAN CHOI HSE(Block F,Phase 2,YAN SHING COURT),15 WAH MING RD|欣盛苑,2期,F座(欣彩閣),15 華明路",NSS,2791252.4441603716,6203.0,401,2884849.1729021673,6411.0,401,4928445.0,7641.0,645,6.0,18.0,30.0,"['1', '10', '2', '3', '4', '5', '6', '7', '8', '9']",3638227.161872802,6818.900000000001,511.0,33,330,1993/09,28,YAN SHING COURT,欣盛苑,True,0.0,0.0,POINT Z (22.487063 114.138537 0),22.487063,114.13853700000001
88,"SUNNINGDALE GARDEN(Block 4),CHI CHEONG RD|順欣花園4座,智昌路",NSS,3470355.0,6211.0,428,3530730.0,6314.0,428,4673068.718513117,8240.0,583,6.0,12.0,18.0,"['A', 'B', 'C', 'D', 'E', 'F', 'G', 'H', 'J', 'K']",4234475.60966014,7132.133333333334,530.1,19,190,1992/05,29,SUNNINGDALE GARDEN,順欣花園,True,0.0,0.0,POINT Z (22.5019123 114.1316496 0),22.5019123,114.1316496
89,"SUNNINGDALE GARDEN(Block 3),CHI CHEONG RD|順欣花園3座,智昌路",NSS,4592868.0,10282.0,428,4669052.0,10447.0,428,6256756.0,11218.0,583,4.0,10.0,18.0,"['A', 'B', 'C', 'D', 'E', 'F', 'G', 'H', 'J']",5604283.666666667,10674.851851851852,526.2222222222222,20,180,1992/05,29,SUNNINGDALE GARDEN,順欣花園,True,0.0,0.0,POINT Z (22.5015557 114.1320679 0),22.5015557,114.1320679
90,"WING FOK CTR(Block 4),LUEN CHIT ST|榮福中心4座,聯捷街",NSS,4126394.0,8968.0,431,4235437.0,9210.0,431,5570720.0,10085.0,592,5.0,15.0,24.0,"['A', 'B', 'C', 'E', 'F', 'H', 'J', 'K']",4895388.196428572,9459.55357142857,522.625,27,216,1993/09,28,WING FOK CTR,榮福中心,True,6.0,1303.0,POINT Z (22.5017465 114.1403589 0),22.5017465,114.14035890000001
91,"YAN YUET HSE(Block D,Phase 1,YAN SHING COURT),15 WAH MING RD|欣盛苑,1期,D座(欣悅閣),15 華明路",NSS,2727201.0,6454.0,401,2808604.0,6661.0,401,4679475.0,7693.0,645,10.0,20.0,30.0,"['1', '10', '3', '4', '5', '6', '7', '8', '9']",3509502.9629629627,6973.666666666667,506.22222222222223,27,243,1993/09,28,YAN SHING COURT,欣盛苑,True,0.0,0.0,POINT Z (22.4874713 114.1394996 0),22.487471300000003,114.13949960000001
92,"YAN FAI HSE(Block G,Phase 2,YAN SHING COURT),15 WAH MING RD|欣盛苑,2期,G座(欣輝閣),15 華明路",NSS,2769653.1990661114,6155.0,401,2873599.56608224,6265.0,401,4656865.918226541,6656.0,645,7.0,19.0,30.0,"['1', '10', '2', '3', '4', '5', '6', '7', '8', '9']",3526724.525781347,6431.083333333333,511.0,31,310,1993/09,28,YAN SHING COURT,欣盛苑,True,0.0,0.0,POINT Z (22.486115 114.139083 0),22.486114999999998,114.13908300000001
93,"LUEN WO CTR,WO FUNG ST|聯和中心,和豐街",NSS,2978591.7818321516,8269.0,321,2984715.3832701906,8286.0,321,3228218.593394575,8962.0,321,3.0,4.0,5.0,"['A', 'C']",3115352.2139483616,8648.666666666666,321.0,3,6,1991/04,30,blank,,False,,,POINT Z (22.4989831 114.1430761 0),22.4989831,114.14307609999999
94,"SUNNINGDALE GARDEN(Block 1),CHI CHEONG RD|順欣花園1座,智昌路",NSS,3099576.0,6725.0,428,3159496.0,6862.0,428,4126474.0,8211.0,583,6.0,11.0,17.0,"['A', 'B', 'C', 'E', 'F', 'G', 'J', 'K']",3727324.3333333335,7216.625,519.0,17,136,1992/05,29,SUNNINGDALE GARDEN,順欣花園,True,0.0,0.0,POINT Z (22.5015399 114.1327181 0),22.501539899999997,114.13271809999999
95,"SUNNINGDALE GARDEN(Block 2),CHI CHEONG RD|順欣花園2座,智昌路",NSS,3235251.9999999995,7224.0,428,3269064.0,7300.0,428,4327026.0,7879.0,583,7.0,12.0,18.0,"['A', 'B', 'C', 'E', 'F', 'G', 'H', 'J', 'K']",3926509.37037037,7486.333333333333,526.1111111111111,17,153,1992/05,29,SUNNINGDALE GARDEN,順欣花園,True,0.0,0.0,POINT Z (22.5012935 114.1323466 0),22.5012935,114.1323466
96,"WING FOK CTR(Block 3),LUEN CHIT ST|榮福中心3座,聯捷街",NSS,2880804.0,6269.0,431,2959677.0,6438.0,431,4031705.0,7130.0,592,5.0,14.0,23.0,"['A', 'B', 'C', 'D', 'E', 'F', 'G', 'H', 'J', 'K']",3553458.9,6653.966666666667,535.6,27,270,1993/09,28,WING FOK CTR,榮福中心,True,6.0,1303.0,POINT Z (22.501383 114.1404518 0),22.501382999999997,114.1404518
97,"YAN LAI HSE(Block B,Phase 1,YAN SHING COURT),15 WAH MING RD|欣盛苑,1期,B座(欣麗閣),15 華明路",NSS,2909656.0,7256.0,401,3005896.0,7496.0,401,5169030.0,8014.0,645,6.0,18.0,30.0,"['1', '10', '2', '3', '4', '5', '6', '7', '8', '9']",3888963.1999999997,7600.966666666667,511.0,33,330,1993/09,28,YAN SHING COURT,欣盛苑,True,0.0,0.0,POINT Z (22.487046 114.140489 0),22.487046,114.14048899999999
98,"FANLING CTR(Phase 2),Block K,SAN WAN RD|粉嶺中心2期,K座,新運路",NSS,4856172.0,11886.0,361,4949671.0,12206.0,361,6989312.0,14409.0,512,7.0,15.0,23.0,"['1', '2', '3', '4', '5', '6', '7', '8']",6083584.458333333,13400.934523809525,454.4166666666667,25,200,1991/12,30,FANLING CTR,粉嶺中心,True,11.0,2200.0,POINT Z (22.4910725 114.1412646 0),22.4910725,114.1412646
99,"FANLING CTR(Phase 1),Block A,SAN WAN RD|粉嶺中心1期,A座,新運路",NSS,4976625.0,11685.0,375,4983000.0,11812.0,375,6681952.0,13958.0,544,7.0,15.0,23.0,"['1', '2', '3', '4', '5', '6', '7', '8']",5988444.0,12575.25,479.3333333333333,25,200,1990/12,31,FANLING CTR,粉嶺中心,True,11.0,2200.0,POINT Z (22.4900018 114.1425187 0),22.4900018,114.1425187
100,"FANLING CTR(Phase 1),Block D,SAN WAN RD|粉嶺中心1期,D座,新運路",NSS,5049750.0,11794.0,375,5147625.0,11068.0,375,6616672.0,14236.0,544,7.0,15.0,23.0,"['1', '2', '3', '4', '5', '6', '7', '8']",5938383.291666667,12481.583333333334,479.6666666666667,25,200,1990/12,31,FANLING CTR,粉嶺中心,True,11.0,2200.0,POINT Z (22.4906428 114.1417756 0),22.4906428,114.1417756
101,"FANLING CTR(Phase 1),Block G,SAN WAN RD|粉嶺中心1期,G座,新運路",NSS,4828500.0,11912.0,375,4944750.0,12263.0,375,6892480.0,14024.0,544,7.0,15.0,23.0,"['1', '2', '3', '4', '5', '6', '7', '8']",5822084.583333333,12926.458333333334,454.0,25,200,1990/12,31,FANLING CTR,粉嶺中心,True,11.0,2200.0,POINT Z (22.4904219 114.1413807 0),22.490421899999998,114.1413807
102,"SIN HUA BANK BLDG,LUEN SHING ST|新華銀行大廈,聯盛街",NSS,4762587.883560532,3307.0,492,4804352.337332305,3336.0,492,5426594.876116548,9829.0,492,4.0,7.0,10.0,"['A', 'B']",5096958.275650363,6549.5,492.0,11,22,1989/02,32,blank,,False,,,POINT Z (22.4988738 114.1432154 0),22.498873800000002,114.14321540000002
103,"DAWNING VIEWS(Block 5),YAT MING RD|牽晴間5座,一鳴路",NSS,5151527.0,12315.0,389,5403964.0,12583.0,389,7349249.0,14340.0,577,8.0,17.0,26.0,"['A', 'B', 'C', 'D', 'E', 'F', 'G', 'H']",6015154.625,13501.958333333334,448.5,29,232,1999/06,22,DAWNING VIEWS,牽晴間,True,12.0,2784.0,POINT Z (22.4868693 114.1445392 0),22.4868693,114.1445392
104,"DAWNING VIEWS(Block 4),YAT MING RD|牽晴間4座,一鳴路",NSS,5173311.0,12332.0,388,5315685.0,12612.0,388,7475274.0,14709.0,578,8.0,17.0,26.0,"['A', 'B', 'C', 'D', 'E', 'F', 'G', 'H']",5885791.208333333,13673.333333333334,432.625,29,232,1999/06,22,DAWNING VIEWS,牽晴間,True,12.0,2784.0,POINT Z (22.4866087 114.1439818 0),22.4866087,114.14398179999999
105,"DAWNING VIEWS(Block 7),YAT MING RD|牽晴間7座,一鳴路",NSS,5115350.0,12015.0,389,5387261.0,12602.0,389,9128916.0,14206.0,724,8.0,17.0,26.0,"['A', 'B', 'C', 'D', 'E', 'F', 'G', 'H']",6226606.916666667,13485.291666666666,466.125,29,232,1999/06,22,DAWNING VIEWS,牽晴間,True,12.0,2784.0,POINT Z (22.4864469 114.1450037 0),22.486446899999997,114.1450037
106,"DAWNING VIEWS(Block 6),YAT MING RD|牽晴間6座,一鳴路",NSS,5042297.0,12402.0,389,5342429.0,12779.0,389,7881243.0,14644.0,577,8.0,17.0,26.0,"['A', 'B', 'C', 'D', 'E', 'F', 'G', 'H']",6121658.208333333,13712.375,448.5,29,232,1999/06,22,DAWNING VIEWS,牽晴間,True,12.0,2784.0,POINT Z (22.48664 114.1447482 0),22.486639999999998,114.14474820000001
107,"DAWNING VIEWS(Block 3),YAT MING RD|牽晴間3座,一鳴路",NSS,5227912.0,11955.0,388,5417256.0,12339.0,388,7450420.000000001,14435.0,578,8.0,17.0,26.0,"['A', 'B', 'C', 'D', 'E', 'F', 'G', 'H']",6035201.791666667,13478.125,451.5,29,232,1999/06,22,DAWNING VIEWS,牽晴間,True,12.0,2784.0,POINT Z (22.4867509 114.1437728 0),22.4867509,114.1437728
108,"DAWNING VIEWS(Block 1),YAT MING RD|牽晴間1座,一鳴路",NSS,5399019.999999999,12226.0,388,5461100.0,12721.0,388,7613000.0,14664.0,575,8.0,17.0,26.0,"['A', 'B', 'C', 'D', 'E', 'F', 'G', 'H']",6120079.541666667,13769.125,447.5,29,232,1999/06,22,DAWNING VIEWS,牽晴間,True,12.0,2784.0,POINT Z (22.4870983 114.1432881 0),22.4870983,114.1432881
109,"DAWNING VIEWS(Block 11),YAT MING RD|牽晴間11座,一鳴路",NSS,5298569.0,12257.0,389,5456114.0,12630.0,389,8354925.0,14759.0,639,8.0,17.0,26.0,"['A', 'B', 'C', 'D', 'E', 'F', 'G', 'H']",6149231.625,13722.833333333334,451.625,29,232,1999/06,22,DAWNING VIEWS,牽晴間,True,12.0,2784.0,POINT Z (22.4877572 114.1438889 0),22.487757199999997,114.1438889
110,"DAWNING VIEWS(Block 12),YAT MING RD|牽晴間12座,一鳴路",NSS,5399940.0,11964.0,387,5604534.0,12288.0,387,9070904.0,14982.0,719,8.0,17.0,26.0,"['A', 'B', 'C', 'D', 'E', 'F', 'G', 'H']",6773625.041666667,13643.416666666666,506.125,29,232,1999/06,22,DAWNING VIEWS,牽晴間,True,12.0,2784.0,POINT Z (22.4877927 114.1438772 0),22.4877927,114.1438772
111,"DAWNING VIEWS(Block 2),YAT MING RD|牽晴間2座,一鳴路",NSS,5024034.999999999,12321.0,388,5281688.0,12442.0,388,7475852.0,14695.0,578,8.0,17.0,26.0,"['A', 'B', 'C', 'D', 'E', 'F', 'G', 'H']",5971781.083333333,13302.208333333334,451.5,29,232,1999/06,22,DAWNING VIEWS,牽晴間,True,12.0,2784.0,POINT Z (22.4869439 114.1435173 0),22.4869439,114.1435173
112,"MOON WAH BLDG,SAN FUNG AVE|滿華大廈,新豐路",NSS,3381873.073458317,6870.0,415,3381873.073458317,6870.0,415,3990110.418712974,7288.0,516,4.0,4.0,5.0,"['A', 'B', 'D', 'F', 'G', 'H']",3700524.8416370708,7108.444444444444,464.6666666666667,2,12,1981/07,40,blank,,False,,,POINT Z (22.5033435 114.1264243 0),22.5033435,114.1264243
113,"DAWNING VIEWS(Block 9),YAT MING RD|牽晴間9座,一鳴路",NSS,5175644.999999999,12155.0,389,5243310.000000001,12470.0,389,8045649.0,14601.0,639,8.0,17.0,26.0,"['A', 'B', 'C', 'D', 'E', 'F', 'G', 'H']",6114364.041666667,13595.416666666666,452.625,29,232,1999/06,22,DAWNING VIEWS,牽晴間,True,12.0,2784.0,POINT Z (22.4874678 114.144848 0),22.4874678,114.144848
114,"DAWNING VIEWS(Block 10),YAT MING RD|牽晴間10座,一鳴路",NSS,5293749.0,12699.0,389,5456795.999999999,13244.0,389,7650720.0,14432.0,560,8.0,17.0,26.0,"['A', 'B', 'C', 'D', 'E', 'F', 'G', 'H']",6081287.375,13790.416666666666,442.75,29,232,1999/06,22,DAWNING VIEWS,牽晴間,True,12.0,2784.0,POINT Z (22.4875808 114.1445403 0),22.487580800000003,114.14454029999999
115,"FANLING CTR(Phase 1),Block C,SAN WAN RD|粉嶺中心1期,C座,新運路",NSS,4814250.0,11803.0,375,4969500.0,12057.0,375,6744512.0,13954.0,544,7.0,15.0,23.0,"['1', '2', '3', '4', '5', '6', '7', '8']",5978597.458333333,12543.166666666666,479.3333333333333,25,200,1990/12,31,FANLING CTR,粉嶺中心,True,11.0,2200.0,POINT Z (22.4904752 114.1420078 0),22.4904752,114.1420078
116,"FANLING CTR(Phase 1),Block B,SAN WAN RD|粉嶺中心1期,B座,新運路",NSS,4912500.0,11385.0,375,5146875.0,11663.0,375,6629184.0,14114.0,544,7.0,15.0,23.0,"['1', '2', '3', '4', '5', '6', '7', '8']",5884551.458333333,12374.875,479.3333333333333,25,200,1990/12,31,FANLING CTR,粉嶺中心,True,11.0,2200.0,POINT Z (22.490162 114.1423329 0),22.490161999999998,114.14233290000001
117,"DAWNING VIEWS(Block 8),YAT MING RD|牽晴間8座,一鳴路",NSS,5515524.0,12104.0,387,5604147.0,12372.0,387,9121953.0,14908.0,719,8.0,17.0,26.0,"['A', 'B', 'C', 'D', 'E', 'F', 'G', 'H']",6765925.25,13627.208333333334,506.125,29,232,1999/06,22,DAWNING VIEWS,牽晴間,True,12.0,2784.0,POINT Z (22.4874137 114.1452468 0),22.487413699999998,114.14524679999998
118,"FANLING CTR(Phase 2),Block H,SAN WAN RD|粉嶺中心2期,H座,新運路",NSS,4844981.0,12393.0,361,4966638.0,12725.0,361,6872439.0,14921.0,511,7.0,15.0,23.0,"['1', '2', '3', '4', '5', '6', '7', '8']",5819724.416666667,13547.083333333334,432.75,25,200,1991/12,30,FANLING CTR,粉嶺中心,True,11.0,2200.0,POINT Z (22.4905714 114.1411253 0),22.490571399999997,114.1411253
119,"FANLING CTR(Phase 1),Block E,SAN WAN RD|粉嶺中心1期,E座,新運路",NSS,4963125.0,11114.0,375,5087250.0,11383.0,375,6777152.000000001,13977.0,544,7.0,15.0,23.0,"['1', '2', '3', '4', '5', '6', '7', '8']",5743438.458333333,12802.833333333334,454.0,25,200,1990/12,31,FANLING CTR,粉嶺中心,True,11.0,2200.0,POINT Z (22.4900465 114.1419613 0),22.4900465,114.14196129999999
120,"FANLING CTR(Phase 2),Block J,SAN WAN RD|粉嶺中心2期,J座,新運路",NSS,4710328.0,12084.0,361,4820433.0,12358.0,361,6525873.0,13740.0,513,7.0,15.0,23.0,"['1', '2', '3', '4', '5', '6', '7', '8']",5799448.75,12823.208333333334,454.0833333333333,25,200,1991/12,30,FANLING CTR,粉嶺中心,True,11.0,2200.0,POINT Z (22.4909049 114.1414969 0),22.4909049,114.1414969
121,"FANLING CTR(Phase 1),Block F,SAN WAN RD|粉嶺中心1期,F座,新運路",NSS,4968375.000000001,11836.0,375,4998375.0,11940.0,375,6650400.0,13982.0,544,7.0,15.0,23.0,"['1', '2', '3', '4', '5', '6', '7', '8']",5758577.583333333,12814.791666666666,454.0,25,200,1990/12,31,FANLING CTR,粉嶺中心,True,11.0,2200.0,POINT Z (22.4901778 114.1416827 0),22.4901778,114.1416827
122,"FANLING CTR(Phase 2),Block L,SAN WAN RD|粉嶺中心2期,L座,新運路",NSS,4994074.0,12399.0,361,5075660.0,12783.0,361,6771087.0,14575.0,513,7.0,15.0,23.0,"['1', '2', '3', '4', '5', '6', '7', '8']",6006639.083333333,13299.375,454.0833333333333,25,200,1991/12,30,FANLING CTR,粉嶺中心,True,11.0,2200.0,POINT Z (22.4912838 114.1410324 0),22.4912838,114.1410324
123,"BELAIR MONTE(Block 5),MA SIK RD|綠悠軒5座,馬適路",NSS,5279595.0,11389.0,435,5421840.0,11589.0,435,7431095.0,13956.0,619,6.0,16.0,25.0,"['A', 'B', 'C', 'D', 'E', 'F', 'G', 'H']",6413972.958333333,12163.375,531.0416666666666,30,240,1998/12,23,BELAIR MONTE,綠悠軒,True,7.0,1680.0,POINT Z (22.5015235 114.1446553 0),22.501523499999998,114.14465530000001
124,"BELAIR MONTE(Block 3),MA SIK RD|綠悠軒3座,馬適路",NSS,4939425.0,10521.0,435,4923765.0,10713.0,435,7205779.0,13000.0,619,6.0,16.0,25.0,"['A', 'B', 'C', 'D', 'E', 'F', 'G', 'H']",6056747.333333333,11574.666666666666,527.0,30,240,1998/12,23,BELAIR MONTE,綠悠軒,True,7.0,1680.0,POINT Z (22.501173 114.1454914 0),22.501173,114.14549140000001
125,"BELAIR MONTE(Block 2),MA SIK RD|綠悠軒2座,馬適路",NSS,5376600.0,11017.0,435,5488830.0,11266.0,435,7419334.0,13339.0,634,6.0,16.0,25.0,"['A', 'B', 'C', 'D', 'E', 'F', 'G', 'H']",6347809.875,12146.333333333334,527.625,30,240,1998/12,23,BELAIR MONTE,綠悠軒,True,7.0,1680.0,POINT Z (22.501434 114.14577 0),22.501434,114.14577
126,"BELAIR MONTE(Block 7),MA SIK RD|綠悠軒7座,馬適路",NSS,5270362.0,11111.0,449,5423021.999999999,11405.0,449,8813805.0,12698.0,715,6.0,16.0,25.0,"['A', 'B', 'C', 'D', 'E', 'F', 'G', 'H']",6685001.583333333,11839.166666666666,567.25,30,240,1998/12,23,BELAIR MONTE,綠悠軒,True,7.0,1680.0,POINT Z (22.5018854 114.1453985 0),22.5018854,114.14539850000001
127,"SAN FUNG HSE,SAN FUNG AVE|新豐樓,新豐路",NSS,,,355,,,355,,,360,1.0,1.0,1.0,"['E', 'F']",,,357.5,1,2,1966/07,55,blank,,False,,,POINT Z (22.5034443 114.1268888 0),22.503444299999998,114.1268888
128,"BELAIR MONTE(Block 6),MA SIK RD|綠悠軒6座,馬適路",NSS,5398350.0,10864.0,435,5521455.0,11086.0,435,7243538.0,13324.0,619,6.0,16.0,25.0,"['A', 'B', 'C', 'D', 'E', 'F', 'G', 'H']",6287745.458333333,11966.458333333334,530.5,30,240,1998/12,23,BELAIR MONTE,綠悠軒,True,7.0,1680.0,POINT Z (22.5018282 114.144934 0),22.501828200000002,114.144934
129,"BELAIR MONTE(Block 4),MA SIK RD|綠悠軒4座,馬適路",NSS,5004675.0,11247.0,435,5160840.0,11460.0,435,7344434.999999999,13198.0,619,6.0,16.0,25.0,"['A', 'B', 'C', 'D', 'E', 'F', 'G', 'H']",6208608.541666667,11833.958333333334,527.0,30,240,1998/12,23,BELAIR MONTE,綠悠軒,True,7.0,1680.0,POINT Z (22.5008938 114.1451895 0),22.5008938,114.1451895
130,"BELAIR MONTE(Block 1),MA SIK RD|綠悠軒1座,馬適路",NSS,5449245.0,10899.0,435,5574525.0,11226.0,435,7440380.0,13193.0,619,6.0,16.0,25.0,"['A', 'B', 'C', 'D', 'E', 'F', 'G', 'H']",6348350.583333333,12167.083333333334,527.0,30,240,1998/12,23,BELAIR MONTE,綠悠軒,True,7.0,1680.0,POINT Z (22.5017206 114.1460255 0),22.501720600000002,114.1460255
131,"PEARL VISTA,SAN LOK ST|明珠華軒,新樂街",NSS,5260968.121223698,10568.0,441,5382706.260422365,10810.0,441,5592709.768562183,11213.0,449,5.0,10.0,16.0,"['A', 'B', 'C']",5418951.128307231,10884.77777777778,443.6666666666667,15,45,1998/12,23,blank,,False,,,POINT Z (22.503701 114.1276087 0),22.503701,114.12760870000001
132,"LOUVER MANSION,LUEN ON ST|聯發大廈,聯安街",NSS,4166790.381076556,4598.0,389,4214200.881785719,4534.0,389,4486018.166289883,6810.0,428,4.0,8.0,10.0,"['A', 'B', 'C']",4298988.63687599,5401.222222222222,404.1111111111111,10,30,1999/05,22,blank,,False,,,POINT Z (22.4993597 114.1437264 0),22.4993597,114.14372639999999
133,"REGENTVILLE(Block 2),WO MUN ST|帝庭軒2座,和滿街",NSS,5530732.000000001,12308.0,422,5682230.0,12763.0,422,8221872.0,14197.0,618,7.0,19.0,30.0,"['A', 'B', 'C', 'D', 'E', 'F', 'G', 'H']",6423936.083333333,13339.75,483.5,31,248,2000/09,21,REGENTVILLE,帝庭軒,True,4.0,1000.0,POINT Z (22.4997748 114.144285 0),22.4997748,114.14428500000001
134,"ROYAL JUBILEE(Block 1),SAN SHING AVE|海禧華庭1座,新成路",NSS,4898646.0,11620.0,387,4836726.0,11812.0,387,6507794.0,13067.0,542,8.0,14.0,20.0,"['A', 'B', 'C', 'D', 'E', 'F', 'G', 'H']",5361772.583333333,12543.291666666666,429.5,18,144,2001/01,20,ROYAL JUBILEE,海禧華庭,True,2.0,280.0,POINT Z (22.5047596 114.1289093 0),22.504759600000003,114.12890929999999
135,"REGENTVILLE(Block 1),WO MUN ST|帝庭軒1座,和滿街",NSS,5422278.0,11875.0,422,5636232.0,12426.0,422,8003099.999999999,14133.0,618,7.0,19.0,30.0,"['A', 'B', 'C', 'D', 'E', 'F', 'G', 'H']",6329343.75,13162.333333333334,483.5,31,248,2000/09,21,REGENTVILLE,帝庭軒,True,4.0,1000.0,POINT Z (22.5003493 114.1437134 0),22.500349300000003,114.14371340000001
136,"REGENTVILLE(Block 5),WO MUN ST|帝庭軒5座,和滿街",NSS,5497816.0,12415.0,422,5774648.0,13095.0,422,6590970.0,14331.0,474,7.0,20.0,31.0,"['A', 'B', 'C', 'D', 'E', 'F', 'G', 'H']",6002608.333333333,13422.0,447.8333333333333,32,256,2000/09,21,REGENTVILLE,帝庭軒,True,4.0,1000.0,POINT Z (22.5001992 114.1446688 0),22.5001992,114.1446688
137,"REGENTVILLE(Block 3),WO MUN ST|帝庭軒3座,和滿街",NSS,5431984.0,11960.0,422,5621040.0,12117.0,422,7725000.0,14046.0,618,7.0,19.0,30.0,"['A', 'B', 'C', 'D', 'E', 'F', 'G', 'H']",6273599.75,13069.208333333334,483.5,31,248,2000/09,21,REGENTVILLE,帝庭軒,True,4.0,1000.0,POINT Z (22.5003493 114.1437134 0),22.500349300000003,114.14371340000001
138,"ROYAL JUBILEE(Block 2),SAN SHING AVE|海禧華庭2座,新成路",NSS,4854330.0,10524.0,387,4920240.0,10832.0,387,6622494.849314803,13234.0,542,8.0,13.0,19.0,"['A', 'B', 'C', 'D', 'E', 'F', 'G', 'H']",5438940.084328932,12082.916666666666,429.5,17,136,2001/01,20,ROYAL JUBILEE,海禧華庭,True,2.0,280.0,POINT Z (22.5049816 114.1287468 0),22.5049816,114.12874679999999
139,"KENTWOOD PLACE,SAN SHING AVE|金湖居,新成路",NSS,4866374.0622189,8046.0,397,5166364.310150863,8542.0,397,6904472.275840986,11250.0,643,7.0,12.0,18.0,"['A', 'B', 'C', 'D']",5731221.074158934,9393.666666666666,487.5,15,60,2000/03,21,blank,,False,,,POINT Z (22.5061567 114.1280732 0),22.5061567,114.1280732
140,"GRAND REGENTVILLE(Block 7),WO MUN ST|御庭軒7座,和滿街",NSS,5520996.0,12643.0,423,5724036.0,12942.0,423,7077780.0,13922.0,510,12.0,22.0,32.0,"['A', 'B', 'C', 'D', 'E', 'F', 'G', 'H']",6100839.541666667,13405.583333333334,455.4166666666667,28,224,2002/10,19,GRAND REGENTVILLE,御庭軒,True,3.0,672.0,POINT Z (22.4998734 114.1448875 0),22.4998734,114.1448875
141,"GRAND REGENTVILLE(Block 8),WO MUN ST|御庭軒8座,和滿街",NSS,5527341.0,12848.0,423,5682158.999999999,13182.0,423,7973884.0,14035.0,596,12.0,22.0,32.0,"['A', 'B', 'C', 'D', 'E', 'F', 'G', 'H']",6395015.666666667,13434.0,477.125,28,224,2002/10,19,GRAND REGENTVILLE,御庭軒,True,3.0,672.0,POINT Z (22.4995325 114.1445624 0),22.4995325,114.14456240000001
142,"GRAND REGENTVILLE(Block 6),WO MUN ST|御庭軒6座,和滿街",NSS,5624631.0,12557.0,423,5637321.0,12928.0,423,6778410.0,14345.0,510,12.0,22.0,32.0,"['A', 'B', 'C', 'D', 'E', 'F', 'G', 'H']",6127853.041666667,13476.375,455.4166666666667,28,224,2002/10,19,GRAND REGENTVILLE,御庭軒,True,3.0,672.0,POINT Z (22.5001961 114.1451895 0),22.5001961,114.1451895
143,"KENSINGTON GREEN(Block A),KA SIU CLOSE|嘉兆軒A座,嘉兆里",NSS,7421148.68670202,3372.0,567,7445017.878384394,3382.0,567,13734098.363747366,10046.0,995,1.0,2.0,3.0,"['A', 'B', 'C', 'D', 'E']",10806614.391933555,5381.933333333333,827.4,3,15,2000/12,21,KENSINGTON GREEN,嘉兆軒,True,1.0,15.0,POINT Z (22.4970309 114.1380597 0),22.4970309,114.13805970000001
144,"BELAIR VILLA,YU TAI RD|萬豪居,裕泰路",NSS,10207295.119630495,6773.0,1192,10207295.119630495,6773.0,1192,16866252.0,8651.0,2183,0.0,0.0,0.0,"['12A', '15B', '16A', '19A', '19B', '1B', '23B', '29', '31', '36', '3B', '40', '45', '47', '49', '6B']",13469229.999889841,7370.25,1685.9375,1,16,1997/12,24,blank,,False,,,POINT Z (22.493251 114.13148 0),22.493251,114.13148000000001
145,"NOBLE HILL(Block 6),MA SIK RD|皇府山6座,馬適路",NSS,6376258.0,10464.0,511,6479480.0,10619.0,511,14072450.0,12990.0,1297,5.0,10.0,17.0,"['A', 'B', 'C', 'D', 'E', 'E & F', 'F']",9811778.809523808,12016.952380952382,828.0,18,126,2006/01,15,NOBLE HILL,皇府山,True,7.0,814.0,POINT Z (22.503499 114.135916 0),22.503498999999998,114.135916
146,"NOBLE HILL(Block 2),MA SIK RD|皇府山2座,馬適路",NSS,5816590.000000001,12457.0,443,6008852.0,12912.0,443,6876807.0,14168.0,489,4.0,10.0,15.0,"['A', 'B', 'C', 'D', 'E', 'F', 'G', 'H']",6242232.875,13407.291666666666,466.0,16,128,2006/01,15,NOBLE HILL,皇府山,True,7.0,814.0,POINT Z (22.5037634 114.1347851 0),22.5037634,114.1347851
147,"NOBLE HILL(Block 3),MA SIK RD|皇府山3座,馬適路",NSS,6360420.0,12496.0,500,6657205.0,12748.0,500,8135100.0,13720.0,621,5.0,10.0,17.0,"['A', 'B', 'C', 'D', 'E', 'F']",6921430.722222221,13225.388888888889,524.0,18,108,2006/01,15,NOBLE HILL,皇府山,True,7.0,814.0,POINT Z (22.5039701 114.1349941 0),22.5039701,114.13499409999999
148,"NOBLE HILL(Block 1),MA SIK RD|皇府山1座,馬適路",NSS,5910506.0,12907.0,443,6015497.0,13134.0,443,6590742.0,14167.0,489,4.0,10.0,15.0,"['A', 'B', 'C', 'D', 'E', 'F', 'G', 'H']",6265113.791666667,13456.125,466.0,16,128,2006/01,15,NOBLE HILL,皇府山,True,7.0,814.0,POINT Z (22.5036184 114.1345993 0),22.503618399999997,114.1345993
149,"NOBLE HILL(Block 7),MA SIK RD|皇府山7座,馬適路",NSS,6801104.0,12902.0,508,6814820.0,13049.0,508,9672950.0,13886.0,725,5.0,10.0,17.0,"['A', 'B', 'C', 'D', 'E', 'F']",8001081.777777779,13367.77777777778,599.0,18,108,2006/01,15,NOBLE HILL,皇府山,True,7.0,814.0,POINT Z (22.503499 114.135916 0),22.503498999999998,114.135916
150,"NOBLE HILL(Block 5),MA SIK RD|皇府山5座,馬適路",NSS,6659352.0,12178.0,511,6752354.0,12345.0,511,11027258.0,13468.0,874,5.0,10.0,17.0,"['A', 'B', 'C', 'D', 'E', 'F']",9450250.5,12649.111111111111,749.8333333333334,18,108,2006/01,15,NOBLE HILL,皇府山,True,7.0,814.0,POINT Z (22.504024 114.1353425 0),22.504023999999998,114.13534250000001
151,"MAGDALENE GARDEN,PAK WO RD|禎祥園,百和路",NSS,17641312.080989726,3318.0,1398,,,1398,,,1398,17.0,54.0,81.0,['whole floor'],17641312.080989726,3318.0,1398.0,74,74,1999/09,22,MAGDALENE GARDEN,禎祥園,True,0.0,0.0,POINT Z (22.4914296 114.1360508 0),22.4914296,114.13605079999999
152,"ROYAL GREEN(Phase 1),Block 2,CHING HIU RD|御皇庭1期,2座,清曉路",NSS,5069984.0,12033.0,376,4943224.0,12158.0,377,7346937.0,14141.0,559,9.0,22.0,37.0,"['A', 'B', 'C', 'D', 'E', 'F', 'G', 'H']",6011433.375,13020.375,464.25,40,320,2005/05,16,ROYAL GREEN,御皇庭,True,3.0,952.0,POINT Z (22.4948909 114.1272951 0),22.494890899999998,114.12729509999998
153,"TSUI LAI GARDEN(Block 2),FUNG NAM RD|翠麗花園2座,鳳南路",NSS,4056500.0,8462.0,427,4153002.0,8628.0,427,5369935.0,9950.0,601,4.0,14.0,23.0,"['A', 'B', 'C', 'D', 'E', 'F', 'G', 'H', 'J', 'K', 'L', 'M']",4910444.527777779,8947.666666666666,551.4722222222222,26,312,1989/11,32,TSUI LAI GARDEN,翠麗花園,True,0.0,0.0,POINT Z (22.5082913 114.129188 0),22.5082913,114.12918799999998
154,"ROYAL GREEN(Phase 1),Block 1,CHING HIU RD|御皇庭1期,1座,清曉路",NSS,4963200.0,11976.0,376,5120128.0,11650.0,377,8829100.0,14258.0,700,9.0,22.0,37.0,"['A', 'B', 'C', 'D', 'E', 'F', 'G', 'H']",6184782.5,12972.291666666666,481.7916666666667,40,320,2005/05,16,ROYAL GREEN,御皇庭,True,3.0,952.0,POINT Z (22.4948909 114.1272951 0),22.494890899999998,114.12729509999998
155,"ROYAL GREEN(Phase 2),Block 3,CHING HIU RD|御皇庭2期,3座,清曉路",NSS,5156840.0,11507.0,376,5239169.0,11858.0,377,11050650.0,14052.0,975,9.0,23.0,38.0,"['A', 'B', 'C', 'D', 'E', 'F', 'G', 'H']",6745338.416666667,12832.5,536.0833333333334,39,312,2006/12,15,ROYAL GREEN,御皇庭,True,3.0,952.0,POINT Z (22.4947566 114.1262617 0),22.494756600000002,114.12626170000001
156,"NOBLE HILL(Block 8),MA SIK RD|皇府山8座,馬適路",NSS,6590493.0,12115.0,501,6552975.0,12133.0,501,9649849.999999998,13517.0,790,5.0,10.0,17.0,"['A', 'B', 'C', 'D', 'E', 'F']",8122334.611111111,12850.333333333334,637.1666666666666,18,108,2006/01,15,NOBLE HILL,皇府山,True,7.0,814.0,POINT Z (22.503499 114.135916 0),22.503498999999998,114.135916
157,"GLORIOUS PEAK,CHING HIU RD|顯峰,清曉路",NSS,5296656.0,12000.0,408,5487600.0,12014.0,408,7070394.0,14132.0,569,9.0,22.0,36.0,"['A', 'B', 'C', 'D', 'E', 'F']",6309870.722222223,12931.833333333334,490.1666666666667,37,222,2007/04,14,blank,,False,,,POINT Z (22.4951137 114.1277249 0),22.495113699999997,114.1277249
158,"CHOI PIK HSE(Block C,Phase 1,CHOI PO COURT),2 CHOI YUEN RD|彩蒲苑,1期,C座(彩碧閣),2 彩園路",NSS,3856579.9999999995,10396.0,338,3981978.0,10978.0,338,5191614.0,12702.0,438,8.0,18.0,29.0,"['1', '10', '11', '12', '13', '14', '15', '16', '2', '3', '4', '5', '6', '7', '8', '9']",4440016.3125,11561.729166666666,384.875,34,544,1984/11,37,CHOI PO COURT,彩蒲苑,True,0.0,0.0,POINT Z (22.502893 114.124813 0),22.502893,114.12481299999999
159,"CHOI CHING HSE(Block B,Phase 1,CHOI PO COURT),2 CHOI YUEN RD|彩蒲苑,1期,B座(彩晶閣),2 彩園路",NSS,3880916.0,10732.0,338,3982316.0,10934.0,338,5007216.0,12521.0,438,6.0,17.0,28.0,"['1', '10', '11', '12', '13', '14', '15', '16', '2', '3', '4', '5', '6', '7', '8', '9']",4475693.416666667,11661.6875,384.875,33,528,1985/06,36,CHOI PO COURT,彩蒲苑,True,0.0,0.0,POINT Z (22.5022275 114.1246592 0),22.5022275,114.1246592
160,"YUNG WUI HSE(Block A,YUNG SHING COURT),FAI MING RD|雍盛苑,A座(雍薈閣),暉明路",NSS,2355056.362586651,4863.0,206,2330806.842196601,4902.0,206,5400912.0,8858.0,636,8.0,20.0,33.0,"['1', '10', '11', '12', '13', '14', '15', '16', '17', '18', '19', '2', '20', '21', '22', '23', '24', '3', '4', '5', '6', '7', '8', '9']",3746357.1773568937,7175.986111111112,427.36111111111114,40,960,2000/03,21,YUNG SHING COURT,雍盛苑,True,0.0,0.0,POINT Z (22.4824191 114.1372606 0),22.4824191,114.13726059999999
161,"FANLING GARDEN(Block 10),FAN LENG LAU RD|粉嶺花園10座,粉嶺樓路",NSS,,,466,4622720.0,9920.0,466,,,547,1.0,2.0,3.0,"['A', 'C', 'D']",4622720.0,9920.0,493.0,3,9,1987/09,34,FANLING GARDEN,粉嶺花園,True,0.0,0.0,POINT Z (22.4990266 114.1394996 0),22.4990266,114.13949960000001
162,"CHOI NGAN HSE(Block D,Phase 2,CHOI PO COURT),2 CHOI YUEN RD|彩蒲苑,2期,D座(彩顏閣),2 彩園路",NSS,3944122.0,10714.0,338,4076618.0,11038.0,338,5082990.0,13178.0,438,6.0,17.0,28.0,"['1', '10', '11', '12', '13', '14', '15', '16', '2', '3', '4', '5', '6', '7', '8', '9']",4449234.666666667,11592.791666666666,384.875,33,528,1985/06,36,CHOI PO COURT,彩蒲苑,True,0.0,0.0,POINT Z (22.5024902 114.1241018 0),22.5024902,114.12410179999999
163,"CHOI YING HSE(Block A,Phase 1,CHOI PO COURT),2 CHOI YUEN RD|彩蒲苑,1期,A座(彩瑩閣),2 彩園路",NSS,3805191.0,9502.0,338,3931278.0,10031.0,338,4990572.0,12626.0,438,6.0,16.0,26.0,"['1', '10', '11', '12', '13', '14', '15', '16', '2', '3', '4', '5', '6', '7', '8', '9']",4300983.8125,11229.6875,384.875,31,496,1985/06,36,CHOI PO COURT,彩蒲苑,True,0.0,0.0,POINT Z (22.5024902 114.1241018 0),22.5024902,114.12410179999999
164,"KA YIU HSE(Block C,Phase 2,KA SHING COURT),33 PAK WO RD|嘉盛苑,2期,C座(嘉耀閣),33 百和路",NSS,3306024.0,7023.0,438,3356895.0,7287.0,435,5284480.0,8676.0,640,7.0,20.0,32.0,"['1', '10', '11', '12', '13', '14', '15', '16', '2', '3', '4', '5', '6', '7', '8', '9']",4293156.395833333,7923.3125,543.375,37,592,1995/06,26,KA SHING COURT,嘉盛苑,True,0.0,0.0,POINT Z (22.4934588 114.1343206 0),22.493458800000003,114.1343206
165,"MAN SHANG COURT,MAN SHANG ST|民生閣,民生街",NSS,3056260.0,14993.0,202,3170960.0,15045.0,208,3260905.0,15313.0,215,3.0,4.0,5.0,"['A', 'B']",3208297.8333333335,15148.833333333334,211.83333333333334,3,6,1996/04,25,blank,,False,,,POINT Z (22.5374253 114.1244094 0),22.5374253,114.1244094
166,"CHUN WU HSE(Block E,YUK PO COURT),CHOI YUEN RD|旭埔苑,E座(晉湖閣),彩園路",NSS,5023200.0,9200.0,546,5088174.0,9319.0,546,5288010.0,9685.0,546,5.0,10.0,17.0,"['1', '2', '3', '5', '6', '8']",5154604.0,9440.666666666666,546.0,15,90,1982/12,39,YUK PO COURT,旭埔苑,True,0.0,0.0,POINT Z (22.499941 114.128293 0),22.499941,114.128293
167,"8 ROYAL GREEN,CHING HIU RD|御景峰,清曉路",NSS,5654880.0,11176.0,432,5812128.000000001,11367.0,432,9246302.0,13829.0,762,9.0,22.0,36.0,"['A', 'B', 'C', 'D', 'E', 'F', 'G', 'H', 'J', 'K']",7329567.333333333,12640.1,586.2,37,370,2009/09,12,blank,,False,,,POINT Z (22.4956223 114.1278178 0),22.4956223,114.1278178
168,"FANLING GARDEN(Block 4),FAN LENG LAU RD|粉嶺花園4座,粉嶺樓路",NSS,4627880.646988763,8739.0,466,4669191.671973183,8767.0,466,5963802.035586889,9527.0,604,1.0,2.0,3.0,"['A', 'B', 'C', 'D']",5235168.6488649,8975.25,520.75,3,12,1987/09,34,FANLING GARDEN,粉嶺花園,True,0.0,0.0,POINT Z (22.4994468 114.1401499 0),22.499446799999998,114.14014990000001
169,"KING SHING COURT(Phase 1),Block A,YAT MING RD|景盛苑1期,A座,一鳴路",NSS,3145716.0,6664.0,433,3323982.0,7294.0,433,5047770.0,8116.0,645,7.0,20.0,32.0,"['1', '10', '11', '12', '13', '14', '15', '16', '2', '3', '4', '5', '6', '7', '8', '9']",4139423.3958333335,7713.583333333333,536.6666666666666,38,608,1995/11,26,KING SHING COURT,景盛苑,True,1.0,608.0,POINT Z (22.4877 114.140872 0),22.4877,114.140872
170,"LUEN WONG HSE,LUEN FAT ST|聯旺樓,聯發街",NSS,2518425.0,7437.0,287,2528757.0,7506.0,287,3749471.0,9221.0,473,2.0,3.0,4.0,"['B', 'C', 'D', 'E', 'F', 'G', 'H', 'I', 'J', 'K', 'L', 'M', 'N', 'O', 'P', 'Q']",3247550.4166666665,8284.520833333334,395.8125,5,80,1972/09,49,blank,,False,,,POINT Z (22.4984734 114.1417523 0),22.498473399999998,114.14175230000001
171,"FANLING GARDEN(Block 15),FAN LENG LAU RD|粉嶺花園15座,粉嶺樓路",NSS,4697154.719512752,4250.0,466,4712213.150030998,4264.0,466,6270093.56383903,6885.0,604,1.0,2.0,3.0,"['A', 'B', 'C']",5201490.132645004,5438.555555555556,512.0,3,9,1987/09,34,FANLING GARDEN,粉嶺花園,True,0.0,0.0,POINT Z (22.498248 114.1400105 0),22.498248,114.1400105
172,"WO FUNG BLDG,WO FUNG ST|和豐唐樓,和豐街",NSS,2344575.163013984,9286.0,225,2502574.628375158,9490.0,225,3214548.497606011,10075.0,290,2.0,3.0,4.0,"['A', 'B', 'C', 'D']",2642309.8486598204,9713.611111111111,243.75,5,20,1982/11,39,blank,,False,,,POINT Z (22.4993467 114.1429832 0),22.4993467,114.14298319999999
173,"CHING WU HSE(Block A,YUK PO COURT),CHOI YUEN RD|旭埔苑,A座(清湖閣),彩園路",NSS,5168982.0,9467.0,546,5250882.0,9617.0,546,5725902.0,10487.0,546,5.0,10.0,17.0,"['1', '2', '3', '4', '5', '6', '7', '8']",5504703.75,10081.875,546.0,15,120,1982/12,39,YUK PO COURT,旭埔苑,True,0.0,0.0,POINT Z (22.499941 114.128293 0),22.499941,114.128293
174,"FANLING GARDEN(Block 9),FAN LENG LAU RD|粉嶺花園9座,粉嶺樓路",NSS,4875758.000000001,10168.0,466,4966162.0,10165.0,466,6181940.0,11022.0,604,1.0,2.0,3.0,"['A', 'B', 'C', 'D']",5460720.5,10504.75,520.75,3,12,1987/09,34,FANLING GARDEN,粉嶺花園,True,0.0,0.0,POINT Z (22.4991648 114.1394532 0),22.499164800000003,114.1394532
175,"FANLING GARDEN(Block 13),FAN LENG LAU RD|粉嶺花園13座,粉嶺樓路",NSS,4628312.0,9458.0,466,4656738.0,9490.0,466,5751288.0,10196.0,604,1.0,2.0,3.0,"['A', 'B', 'C', 'D']",5099936.666666667,9820.666666666666,520.75,3,12,1987/09,34,FANLING GARDEN,粉嶺花園,True,0.0,0.0,POINT Z (22.4985101 114.1397318 0),22.4985101,114.13973179999999
176,"KA MING HSE(Block A,Phase 1,KA SHING COURT),33 PAK WO RD|嘉盛苑,1期,A座(嘉明閣),33 百和路",NSS,4743978.0,9605.0,438,4701054.0,9997.0,435,6673170.0,11602.0,645,7.0,20.0,32.0,"['1', '10', '11', '12', '13', '14', '15', '16', '2', '3', '4', '5', '6', '7', '8', '9']",5656395.1875,10539.645833333334,539.1875,38,608,1995/06,26,KA SHING COURT,嘉盛苑,True,0.0,0.0,POINT Z (22.494394 114.1341344 0),22.494394,114.13413440000001
177,"YAN KING HSE(Block C,Phase 2,KING SHING COURT),8 YAT MING RD|景盛苑,2期,C座(欣景閣),8 一鳴路",NSS,3387492.0,7388.0,438,3338625.0,7675.0,435,5190315.0,8761.0,645,7.0,19.0,32.0,"['1', '10', '11', '12', '13', '14', '15', '16', '2', '3', '4', '5', '6', '7', '8', '9']",4291062.416666667,7921.333333333333,542.9375,37,592,1996/02,25,KING SHING COURT,景盛苑,True,1.0,608.0,POINT Z (22.4877037 114.1414736 0),22.487703699999997,114.1414736
178,"KA FAI HSE(Block B,Phase 1,KA SHING COURT),33 PAK WO RD|嘉盛苑,1期,B座(嘉輝閣),33 百和路",NSS,3171996.0,6898.0,433,3189855.0,6989.0,433,4875520.0,7983.0,640,8.0,20.0,32.0,"['1', '10', '11', '12', '13', '14', '15', '16', '2', '3', '4', '5', '6', '7', '8', '9']",4099845.375,7557.979166666667,543.5625,36,576,1995/06,26,KA SHING COURT,嘉盛苑,True,0.0,0.0,POINT Z (22.4940251 114.1345993 0),22.4940251,114.1345993
179,"TSUI LAI GARDEN(Block 1),FUNG NAM RD|翠麗花園1座,鳳南路",NSS,4000030.271509798,7062.0,427,4058487.8293828443,7474.0,427,5446147.309954993,9081.0,591,5.0,13.0,22.0,"['A', 'B', 'C', 'D', 'E', 'F', 'G', 'H', 'J', 'K', 'L', 'M']",4815327.345223348,8057.666666666667,549.25,25,300,1989/11,32,TSUI LAI GARDEN,翠麗花園,True,0.0,0.0,POINT Z (22.5080653 114.1295132 0),22.508065300000002,114.1295132
180,"ON SHING COURT(Block A),TIN PING RD|安盛苑A座,天平路",NSS,3722496.0,9179.0,375,4003500.0,9417.0,375,5721520.0,11160.0,595,7.0,18.0,28.0,"['1', '10', '11', '12', '14', '15', '17', '18', '2', '3', '4', '5', '6', '7', '8', '9']",4521972.229166667,10019.625,454.8125,34,544,1990/02,31,ON SHING COURT,安盛苑,True,1.0,544.0,POINT Z (22.5023564 114.135024 0),22.5023564,114.135024
181,"FANLING GARDEN(Block 12),FAN LENG LAU RD|粉嶺花園12座,粉嶺樓路",NSS,,,466,,,466,,,604,2.0,2.0,3.0,"['A', 'B', 'C']",,,512.0,2,6,1987/09,34,FANLING GARDEN,粉嶺花園,True,0.0,0.0,POINT Z (22.4986557 114.1396389 0),22.4986557,114.1396389
182,"WING FAI CTR(Block 2),LUEN CHIT ST|榮輝中心2座,聯捷街",NSS,,,419,,,419,,,588,6.0,18.0,29.0,"['A', 'B', 'C', 'D', 'E', 'F', 'G', 'H', 'J', 'K']",,,523.8,32,320,1996/05,25,WING FAI CTR,榮輝中心,True,4.0,1189.0,POINT Z (22.5015382 114.1427742 0),22.5015382,114.1427742
183,"TSUI LAI GARDEN(Block 4),FUNG NAM RD|翠麗花園4座,鳳南路",NSS,3808840.0,8237.0,427,3870755.0,8448.0,427,5268765.0,10133.0,591,6.0,15.0,23.0,"['A', 'B', 'C', 'D', 'E', 'F', 'G', 'H', 'J', 'K', 'L', 'M']",4481498.305555556,8988.194444444445,500.6666666666667,25,300,1989/11,32,TSUI LAI GARDEN,翠麗花園,True,0.0,0.0,POINT Z (22.5083546 114.1283752 0),22.5083546,114.12837520000001
184,"TSUI LAI GARDEN(Block 5),FUNG NAM RD|翠麗花園5座,鳳南路",NSS,4047533.0,8564.0,427,4147878.0,8574.0,427,5426230.0,10101.0,590,6.0,14.0,22.0,"['A', 'B', 'C', 'E', 'F', 'G', 'H', 'J', 'K', 'L', 'M']",4894621.303030304,9295.060606060606,530.4545454545455,25,275,1989/11,32,TSUI LAI GARDEN,翠麗花園,True,0.0,0.0,POINT Z (22.5079661 114.1282126 0),22.5079661,114.1282126
185,"WING FOK CTR(Block 2),LUEN CHIT ST|榮福中心2座,聯捷街",NSS,2782105.0000000005,6070.0,431,2863995.0,6183.0,431,3849184.0,6812.0,592,6.0,15.0,23.0,"['A', 'C', 'D', 'E', 'H', 'J', 'K']",3392949.7619047617,6442.285714285714,528.2857142857143,25,175,1993/09,28,WING FOK CTR,榮福中心,True,6.0,1303.0,POINT Z (22.5011199 114.1415615 0),22.5011199,114.1415615
186,"FANLING GARDEN(Block 16),FAN LENG LAU RD|粉嶺花園16座,粉嶺樓路",NSS,4804714.937500221,4271.0,466,4804714.937500221,4285.0,466,5990568.648971246,4493.0,604,1.0,2.0,3.0,"['A', 'B', 'D']",5439442.812525184,4392.444444444444,539.0,3,9,1987/09,34,FANLING GARDEN,粉嶺花園,True,0.0,0.0,POINT Z (22.4982548 114.1402428 0),22.4982548,114.14024280000001
187,"KA YEUNG HSE(Block D,Phase 2,KA SHING COURT),33 PAK WO RD|嘉盛苑,2期,D座(嘉揚閣),33 百和路",NSS,3274488.0,7117.0,435,3349935.0,7351.0,432,4876800.0,8043.0,640,8.0,21.0,32.0,"['1', '10', '11', '12', '13', '14', '15', '16', '2', '3', '4', '5', '6', '7', '8', '9']",4119608.7083333335,7605.395833333333,543.0208333333334,35,560,1995/06,26,KA SHING COURT,嘉盛苑,True,0.0,0.0,POINT Z (22.4928634 114.1340094 0),22.492863399999997,114.13400940000001
188,"WING FAI CTR(Block 3),LUEN CHIT ST|榮輝中心3座,聯捷街",NSS,3073784.0,6778.0,419,3199902.9999999995,7039.0,419,4293810.0,7816.0,588,7.0,18.0,29.0,"['A', 'C', 'D', 'E', 'F', 'G', 'H', 'J', 'K']",3788344.5370370373,7310.342592592592,518.2222222222222,32,288,1996/05,25,WING FAI CTR,榮輝中心,True,4.0,1189.0,POINT Z (22.5017681 114.1435336 0),22.5017681,114.14353359999998
189,"TSUI LAI GARDEN(Block 6),FUNG NAM RD|翠麗花園6座,鳳南路",NSS,4046679.0,8341.0,427,4147024.0,8634.0,427,5448060.0,10107.0,590,6.0,14.0,23.0,"['A', 'B', 'C', 'D', 'E', 'F', 'G', 'H', 'J', 'K', 'L', 'M']",4846550.5,9176.388888888889,531.0833333333334,28,336,1989/11,32,TSUI LAI GARDEN,翠麗花園,True,0.0,0.0,POINT Z (22.5077294 114.1284681 0),22.5077294,114.12846809999999
190,"YAN SAU HSE(Block A,Phase 1,YAN SHING COURT),15 WAH MING RD|欣盛苑,1期,A座(欣秀閣),15 華明路",NSS,2890380.0,6481.0,402,2976006.0,6673.0,402,4436310.0,7638.0,645,8.0,18.0,29.0,"['1', '2', '3', '4', '5', '7', '8', '9']",3638936.3333333335,7056.833333333333,519.75,34,272,1993/09,28,YAN SHING COURT,欣盛苑,True,0.0,0.0,POINT Z (22.4865868 114.140266 0),22.4865868,114.140266
191,"TSUI LAI GARDEN(Block 3),FUNG NAM RD|翠麗花園3座,鳳南路",NSS,4114572.0,8258.0,427,4150867.0000000005,8412.0,427,5240988.0,9942.0,591,5.0,14.0,23.0,"['A', 'B', 'C', 'D', 'E', 'F', 'G', 'H', 'J', 'K', 'L', 'M']",4802160.611111112,8775.583333333334,549.5555555555555,28,336,1989/11,32,TSUI LAI GARDEN,翠麗花園,True,0.0,0.0,POINT Z (22.5085246 114.1288164 0),22.5085246,114.1288164
192,"FANLING GARDEN(Block 2),FAN LENG LAU RD|粉嶺花園2座,粉嶺樓路",NSS,4836004.545011534,9152.0,466,4880976.040564193,9178.0,466,6453272.708860751,9658.0,624,1.0,2.0,3.0,"['A', 'B', 'C']",5514506.516772321,9507.77777777778,518.6666666666666,3,9,1987/09,34,FANLING GARDEN,粉嶺花園,True,0.0,0.0,POINT Z (22.4990833 114.1402428 0),22.499083300000002,114.14024280000001
193,"WING FOK CTR(Block 5),LUEN CHIT ST|榮福中心5座,聯捷街",NSS,2985564.8548275656,5774.0,431,3009263.652476448,5908.0,431,4093514.7847222174,6645.0,592,8.0,16.0,23.0,"['A', 'B', 'D', 'F', 'G', 'H', 'J', 'K']",3713544.0647876863,6155.75,541.625,24,192,1993/09,28,WING FOK CTR,榮福中心,True,6.0,1303.0,POINT Z (22.5015563 114.1410092 0),22.5015563,114.1410092
194,"YIN KING HSE(Block D,Phase 3,KING SHING COURT),8 YAT MING RD|景盛苑,3期,D座(賢景閣),8 一鳴路",NSS,3432168.0,7241.0,438,3484350.0,7350.0,433,4861989.0,9074.0,640,8.0,20.0,32.0,"['1', '10', '11', '12', '13', '14', '15', '16', '2', '3', '4', '5', '6', '7', '8', '9']",4186748.9583333335,7742.145833333333,543.1666666666666,37,592,1996/02,25,KING SHING COURT,景盛苑,True,1.0,608.0,POINT Z (22.4877 114.140872 0),22.4877,114.140872
195,"TAI KONG HSE,SAN KAN ST|大江樓,新勤街",NSS,,,280,,,280,,,327,2.0,3.0,4.0,"['B', 'C', 'D']",,,300.0,3,9,1981/04,40,blank,,False,,,POINT Z (22.5043477 114.1276552 0),22.504347699999997,114.12765520000002
196,"KIN FUNG BLDG,WO FUNG ST|建豐樓,和豐街",NSS,3568947.5824807696,6914.0,260,3537459.9049379104,6853.0,260,3793103.7131854664,7610.0,460,2.0,3.0,4.0,"['A', 'B', 'C', 'D', 'E']",3680999.931774303,7315.583333333333,411.0,5,25,1981/07,40,blank,,False,,,POINT Z (22.4991355 114.1432154 0),22.4991355,114.14321540000002
197,"TIN LONG HSE(Block 8,TIN PING EST),TIN PING RD|天平村,8座(天朗樓),天平路",NSS,2441330.7589077093,4911.0,208,2516395.092973086,5062.0,208,3681573.157012799,5879.0,443,9.0,18.0,28.0,"['1', '10', '12', '14', '18', '19', '20', '21', '5', '6', '9']",,,391.8181818181818,28,308,1990/01,31,TIN PING EST,天平村,True,0.0,0.0,POINT Z (22.5026732 114.1342893 0),22.5026732,114.13428929999999
198,"CHUEN WO BLDG,SAN FUNG AVE|全和大樓,新豐路",NSS,3002113.27894462,7580.0,335,3011887.251553255,7600.0,335,3853425.171001446,8163.0,450,2.0,3.0,4.0,"['A', 'B', 'C', 'D', 'E', 'F']",3461794.5943707656,7891.055555555555,388.3333333333333,5,30,1981/12,40,blank,,False,,,POINT Z (22.5052181 114.126703 0),22.5052181,114.126703
199,"CHUNG MING HSE(Block 5,WAH MING EST),WAH MING RD|華明村,5座(頌明樓),華明路",NSS,2302500.0,5586.0,375,2376000.0,5749.0,375,3382982.0,6493.0,566,11.0,22.0,30.0,"['10', '15', '16', '17', '18', '3', '4', '5', '6', '7', '8', '9']",2799057.97979798,6070.868686868686,459.0833333333333,26,312,1990/07,31,WAH MING EST,華明村,True,0.0,0.0,POINT Z (22.4840745 114.1411358 0),22.4840745,114.1411358
200,"FANLING GARDEN(Block 14),FAN LENG LAU RD|粉嶺花園14座,粉嶺樓路",NSS,4701457.128232251,4159.0,466,4558516.596238669,4170.0,466,5831638.040178432,6661.0,604,1.0,2.0,3.0,"['A', 'B', 'C', 'D']",5147567.700514701,4852.166666666667,520.75,3,12,1987/09,34,FANLING GARDEN,粉嶺花園,True,0.0,0.0,POINT Z (22.4983572 114.1398712 0),22.498357199999997,114.1398712
201,"SHUN MING HSE(Block 2,WAH MING EST),WAH MING RD|華明村,2座(信明樓),華明路",NSS,2278576.721566881,7646.0,147,2329724.5598563864,7862.0,147,4427979.902958653,10041.0,485,7.0,17.0,27.0,"['10', '12', '14', '16', '17', '19', '23', '24', '25', '27', '28', '30', '31', '4', '5', '6', '7']",,,321.29411764705884,31,527,1990/06,31,WAH MING EST,華明村,True,0.0,0.0,POINT Z (22.4845085 114.1401731 0),22.4845085,114.14017309999998
202,"TIN MING HSE(Block 4,TIN PING EST),TIN PING RD|天平村,4座(天明樓),天平路",NSS,3265942.0,9231.0,348,3318292.0,9381.0,348,3511404.0000000005,9786.0,366,6.0,11.0,17.0,"['1', '12', '16', '18', '19', '2', '20', '22', '23', '36', '40', '46', '48', '49', '52', '8', '9']",3371376.392156863,9513.450980392156,354.4117647058824,17,289,1989/01,32,TIN PING EST,天平村,True,0.0,0.0,POINT Z (22.501893 114.133142 0),22.501893,114.13314199999999
203,"TIN MEI HSE(Block 5,TIN PING EST),TIN PING RD|天平村,5座(天美樓),天平路",NSS,2116836.0,5119.0,381,2188464.0,5288.0,381,2912535.0,5903.0,531,9.0,20.0,29.0,"['1', '10', '12', '13', '14', '16', '17', '19', '21', '22', '24', '4', '5', '7', '9']",2498810.044444444,5460.2,458.4888888888889,30,450,1989/01,32,TIN PING EST,天平村,True,0.0,0.0,POINT Z (22.5023564 114.135024 0),22.5023564,114.135024
204,"TIN YEE HSE(Block 1,TIN PING EST),TIN PING RD|天平村,1座(天怡樓),天平路",NSS,3460518.2050660765,7829.0,381,3561417.920459651,8091.0,381,4373555.371211373,10390.0,490,10.0,20.0,30.0,"['10', '15', '17', '19', '21', '22', '23', '24', '4', '6', '7', '8']",3770219.773005875,8620.666666666666,399.1666666666667,30,360,1987/01,34,TIN PING EST,天平村,True,0.0,0.0,POINT Z (22.50499 114.131411 0),22.50499,114.13141100000001
205,"TIN CHEUNG HSE(Block 2,TIN PING EST),TIN PING RD|天平村,2座(天祥樓),天平路",NSS,3884676.0,9694.0,381,3994023.0,9968.0,381,4987710.0,10733.0,490,8.0,18.0,25.0,"['15', '17', '2', '22', '23', '3', '4', '5', '6', '7']",4169933.766666666,10375.4,402.8,24,240,1986/10,35,TIN PING EST,天平村,True,0.0,0.0,POINT Z (22.5023564 114.135024 0),22.5023564,114.135024
206,"CHEONG CHING HSE(Block A,CHEONG SHING COURT),WAH MING RD|昌盛苑,A座(昌靖閣),華明路",NSS,4242432.0,7789.0,512,4397056.0,8242.0,512,5676154.0,9041.0,649,9.0,22.0,33.0,"['1', '2', '3', '4', '5', '6', '7', '8']",4901161.166666667,8465.208333333334,580.5,36,288,2000/03,21,CHEONG SHING COURT,昌盛苑,True,0.0,0.0,POINT Z (22.483789 114.137851 0),22.483789,114.137851
207,"CHEONG WAH BLDG,LUEN CHEONG ST|昌華樓,聯昌街",NSS,2812851.0,8017.0,333,2821842.0,8005.0,333,3222912.0,9262.0,384,2.0,3.0,4.0,"['A', 'B', 'C', 'D', 'E', 'F']",2975551.9444444445,8405.666666666666,354.4444444444444,5,30,1977/01,44,blank,,False,,,POINT Z (22.4990262 114.1433548 0),22.4990262,114.1433548
208,"WING FAI CTR(Block 1),LUEN CHIT ST|榮輝中心1座,聯捷街",NSS,3175182.0,6978.0,419,3110237.0000000005,7113.0,419,4556412.0,7984.0,588,8.0,18.0,28.0,"['A', 'C', 'D', 'E', 'F', 'G', 'H', 'J', 'K']",3861433.148148148,7459.222222222222,518.2222222222222,29,261,1996/05,25,WING FAI CTR,榮輝中心,True,4.0,1189.0,POINT Z (22.5015246 114.1423097 0),22.5015246,114.14230970000001
209,"PO CHEUNG BLDG,LUEN ON ST|寶昌大樓,聯安街",NSS,3226960.0,6762.0,440,3208480.0000000005,7102.0,440,3696192.0,8212.0,496,2.0,3.0,4.0,"['1', '2', '3', '4', '5', '7', '8']",3522710.8095238097,7397.666666666667,476.85714285714283,5,35,1975/06,46,blank,,False,,,POINT Z (22.4997403 114.142957 0),22.499740300000003,114.14295700000001
210,"TIM MING HSE(Block 7,WAH MING EST),WAH MING RD|華明村,7座(添明樓),華明路",NSS,2052066.0,4714.0,381,2132838.0,4891.0,381,2485098.0,5716.0,489,6.0,18.0,28.0,"['10', '11', '13', '15', '16', '18', '2', '20', '22', '23', '24', '3', '4', '5', '6', '7', '8', '9']",2297474.7363834423,5032.88888888889,456.7407407407407,32,576,1990/07,31,WAH MING EST,華明村,True,0.0,0.0,POINT Z (22.4832833 114.1424026 0),22.4832833,114.14240259999998
211,"TIN HOR HSE(Block 3,TIN PING EST),TIN PING RD|天平村,3座(天賀樓),天平路",NSS,2821910.0,5759.0,381,2910600.0,5940.0,381,4424691.987947941,8447.0,490,10.0,20.0,30.0,"['1', '10', '11', '12', '13', '14', '15', '2', '20', '21', '22', '23', '24', '3', '4', '5', '7', '8']",3532403.4895667024,7971.100086188321,417.3333333333333,28,504,1986/09,35,TIN PING EST,天平村,True,0.0,0.0,POINT Z (22.5023564 114.135024 0),22.5023564,114.135024
212,"WING FAI CTR(Block 4),LUEN CHIT ST|榮輝中心4座,聯捷街",NSS,3302139.0,6859.0,419,3365827.0,7064.0,419,4323368.0,8246.0,588,7.0,18.0,29.0,"['A', 'B', 'C', 'D', 'E', 'F', 'G', 'H', 'J', 'K']",3879224.033333333,7449.666666666667,523.8,32,320,1996/05,25,WING FAI CTR,榮輝中心,True,4.0,1189.0,POINT Z (22.5017681 114.1435336 0),22.5017681,114.14353359999998
213,"PING CHI HSE(Block A,TAI PING EST),PO PING RD|太平村,A座(平治樓),保平路",NSS,2176915.0627288446,4419.0,377,2221251.4183852365,4509.0,377,2735208.642324199,5695.0,496,10.0,18.0,23.0,"['1', '11', '3', '7', '8', '9']",2462713.0539785097,5069.833333333333,426.0,18,108,1989/06,32,TAI PING EST,太平村,True,0.0,0.0,POINT Z (22.4984741 114.1263314 0),22.4984741,114.1263314
214,"PO CHEONG BLDG,WO LUNG ST|寶昌樓,和隆街",NSS,3025350.0,6481.0,405,3033855.0,6500.0,405,3681791.518821108,7747.0,500,2.0,3.0,4.0,"['A', 'C', 'D']",3447152.292029708,6897.666666666667,464.3333333333333,5,15,1973/03,48,blank,,False,,,POINT Z (22.4991224 114.1424723 0),22.499122399999997,114.1424723
215,"WING FOK CTR(Block 6),LUEN CHIT ST|榮福中心6座,聯捷街",NSS,3004070.0,6404.0,431,3075616.0,6746.0,431,4163004.0,7317.0,592,6.0,14.0,23.0,"['B', 'C', 'D', 'E', 'F', 'G', 'H', 'J', 'K']",3700467.0092592593,6898.4537037037035,529.6666666666666,26,234,1993/09,28,WING FOK CTR,榮福中心,True,6.0,1303.0,POINT Z (22.5014827 114.1414736 0),22.5014827,114.1414736
216,"YIU MING HSE(Block 6,WAH MING EST),WAH MING RD|華明村,6座(耀明樓),華明路",NSS,2299278.0,4702.0,381,2797569.0,5721.0,381,2858694.0,5846.0,489,9.0,18.0,27.0,"['1', '12', '13', '14', '16', '17', '18', '20', '4', '5', '6', '9']",2724056.0,5570.666666666667,467.5,25,300,1990/07,31,WAH MING EST,華明村,True,0.0,0.0,POINT Z (22.4824137 114.1414465 0),22.4824137,114.14144650000001
217,"CHEUNG YUE HSE(CHEUNG WAH EST),SAN WAN RD|祥華村(祥裕樓),新運路",NSS,3483012.9300847556,8294.0,358,3548896.9116918957,8452.0,358,4097536.5892950473,9102.0,424,8.0,14.0,19.0,"['1', '11', '13', '6', '8']",3824533.637135873,8595.733333333332,397.3999999999999,14,70,1984/03,37,CHEUNG WAH EST,祥華村,True,0.0,0.0,POINT Z (22.4928965 114.1415218 0),22.4928965,114.14152179999999
218,"WO TAI BLDG,WO TAI ST|和泰樓,和泰街",NSS,,,565,3518822.0,6217.0,565,,,566,2.0,3.0,4.0,"['A', 'B', 'C', 'D', 'E', 'F', 'G', 'H', 'I', 'J', 'K']",3518822.0,6217.0,565.8787878787879,5,55,1974/01,47,blank,,False,,,POINT Z (22.4991359 114.1419171 0),22.4991359,114.14191709999999
219,"CHEUNG SHUN HSE(CHEUNG WAH EST),SAN WAN RD|祥華村(祥順樓),新運路",NSS,2043513.0,4453.0,423,2084121.0,4573.0,423,2399731.0,5417.0,476,8.0,16.0,23.0,"['11', '14', '5', '9']",2187064.1666666665,4964.75,441.25,23,92,1984/03,37,CHEUNG WAH EST,祥華村,True,0.0,0.0,POINT Z (22.4928938 114.1427045 0),22.4928938,114.1427045
220,"WING FOK CTR(Block 1),LUEN CHIT ST|榮福中心1座,聯捷街",NSS,2786846.0,6314.0,431,2857530.0,6456.0,431,3900096.0,6817.0,592,7.0,16.0,24.0,"['A', 'B', 'C', 'D', 'E', 'G', 'H', 'J', 'K']",3526869.259259259,6515.814814814815,542.1111111111111,24,216,1993/09,28,WING FOK CTR,榮福中心,True,6.0,1303.0,POINT Z (22.5010183 114.1411021 0),22.501018300000002,114.1411021
221,"CHEUNG WO HSE(CHEUNG WAH EST),SAN WAN RD|祥華村(祥和樓),新運路",NSS,3233675.6213564756,3266.0,423,3271753.32341955,3304.0,423,3607341.203540452,3421.0,465,16.0,20.0,26.0,"['11', '2', '9']",3425254.8853488048,3345.555555555555,443.6666666666667,14,42,1984/03,37,CHEUNG WAH EST,祥華村,True,0.0,0.0,POINT Z (22.491917 114.141289 0),22.491917,114.14128899999999
222,"CHEUNG LAI HSE(CHEUNG WAH EST),SAN WAN RD|祥華村(祥禮樓),新運路",NSS,,,277,,,277,,,277,16.0,17.0,18.0,"['7', '8']",,,277.0,3,6,1984/06,37,CHEUNG WAH EST,祥華村,True,0.0,0.0,POINT Z (22.4934764 114.140266 0),22.4934764,114.140266
223,"SHUN CHUNG LAU,SAN KAN ST|慎忠樓,新勤街",NSS,6323737.834681053,8945.0,327,6323737.834681053,8945.0,327,,,630,2.0,2.0,3.0,"['A', 'B', 'C']",6323737.834681053,8945.0,440.6666666666667,4,12,1982/06,39,blank,,False,,,POINT Z (22.5047481 114.1273301 0),22.504748100000004,114.1273301
224,"TIN HEE HSE(Block 6,TIN PING EST),TIN PING RD|天平村,6座(天喜樓),天平路",NSS,2704625.4219481098,5984.0,381,2768329.0558194765,6125.0,381,4142941.236791097,7937.0,531,11.0,20.0,29.0,"['1', '11', '12', '13', '16', '19', '22', '24', '3', '5', '6']",3478554.006615579,7105.268518518518,448.09090909090907,28,308,1989/01,32,TIN PING EST,天平村,True,0.0,0.0,POINT Z (22.501606 114.134638 0),22.501606,114.134638
225,"CHEONG SIU HSE(Block B,CHEONG SHING COURT),WAH MING RD|昌盛苑,B座(昌兆閣),華明路",NSS,4233728.0,7760.0,512,4271616.0,7889.0,512,5440567.000000001,8788.0,649,7.0,20.0,33.0,"['1', '2', '3', '4', '5', '6', '7', '8']",4778408.05952381,8210.94642857143,580.5,39,312,2000/03,21,CHEONG SHING COURT,昌盛苑,True,0.0,0.0,POINT Z (22.4833708 114.1386726 0),22.483370800000003,114.1386726
226,"CHEONG TO HSE(Block C,CHEONG SHING COURT),WAH MING RD|昌盛苑,C座(昌濤閣),華明路",NSS,5081021.0,7829.0,649,5280264.0,8136.0,649,5554791.0,8559.0,649,9.0,20.0,32.0,"['1', '2', '3', '4', '5', '6', '7']",5316329.857142857,8191.571428571428,649.0,35,245,2000/03,21,CHEONG SHING COURT,昌盛苑,True,0.0,0.0,POINT Z (22.4840021 114.1389655 0),22.4840021,114.1389655
227,"PO WING BLDG,WO LUNG ST|寶榮樓,和隆街",NSS,,,485,,,485,3433375.2458212352,3067.0,516,2.0,2.0,4.0,"['A', 'C']",3433375.2458212352,3067.0,500.5,4,8,1973/03,48,blank,,False,,,POINT Z (22.4990499 114.1423794 0),22.4990499,114.1423794
228,"CHUN KING HSE(Block B,Phase 2,KING SHING COURT),8 YAT MING RD|景盛苑,2期,B座(俊景閣),8 一鳴路",NSS,3230688.0,7099.0,438,3309045.0,7555.0,433,4858880.0,7988.0,645,7.0,20.0,32.0,"['1', '10', '11', '12', '13', '14', '15', '16', '2', '3', '4', '5', '6', '7', '8', '9']",4127833.125,7604.229166666667,543.25,37,592,1996/02,25,KING SHING COURT,景盛苑,True,1.0,608.0,POINT Z (22.486156 114.142437 0),22.486156,114.14243700000002
229,"SUN KING BLDG,WO FUNG ST|新景樓,和豐街",NSS,3770307.1283927658,6102.0,539,3770307.1283927658,6102.0,539,4062116.879602859,6716.0,560,2.0,2.0,3.0,"['A', 'D', 'E']",3831806.72458327,6218.0,549.3333333333334,4,12,1976/07,45,blank,,False,,,POINT Z (22.4990131 114.1426116 0),22.499013100000003,114.1426116
230,"SHUN CHUNG LAU,SAN TSOI ST|慎忠樓,新財街",NSS,2825215.5962812616,4368.0,297,2802552.547968518,8409.0,297,3306449.5722776535,10070.0,323,3.0,4.0,5.0,"['B', 'C', 'D']",3025394.065572148,8164.777777777777,309.3333333333333,3,9,1982/06,39,blank,,False,,,POINT Z (22.5047481 114.1273301 0),22.504748100000004,114.1273301
231,"LUEN CHEUNG BLDG,LUEN CHEONG ST|聯昌大樓,聯昌街",NSS,3410500.0,6723.0,500,3420000.0,6741.0,500,3818270.0,6932.0,565,2.0,3.0,4.0,"['1', '2', '4', '7', '8', 'C', 'F', 'H']",3680962.1666666665,6794.125,542.0,5,40,1974/09,47,blank,,False,,,POINT Z (22.4997646 114.14296 0),22.499764600000002,114.14296000000002
232,"GOLF PARKVIEW(Block 1),CASTLE PEAK RD KWU TUNG|哥爾夫景園1座,青山公路古洞段",NSS,,,1086,,,1086,,,1107,2.0,2.0,4.0,"['A', 'B']",,,1096.5,4,8,2004/06,17,GOLF PARKVIEW,哥爾夫景園,True,2.0,16.0,POINT Z (22.5018387 114.1167859 0),22.5018387,114.11678590000001
233,"PO WAH BLDG,WO LUNG ST|寶華樓,和隆街",NSS,,,505,,,505,3923148.0,7603.0,516,3.0,4.0,5.0,"['B', 'C']",3923148.0,7603.0,510.5,2,4,1973/03,48,blank,,False,,,POINT Z (22.4989701 114.1423329 0),22.4989701,114.14233290000001
234,"MAY LUN BLDG,LUEN ON ST|美輪大廈,聯安街",NSS,3864113.700174494,6559.0,452,3873539.804642064,6575.0,452,4253533.0,8663.0,525,2.0,3.0,4.0,"['1', '2', '3', '6', '7', '8']",4031809.8677046713,7736.799999999999,485.5,5,30,1977/02,44,blank,,False,,,POINT Z (22.4998251 114.1432712 0),22.499825100000002,114.1432712
235,"HONG MING HSE(Block 3,WAH MING EST),WAH MING RD|華明村,3座(康明樓),華明路",NSS,2091000.0,5495.0,375,2002200.0,5325.0,375,3405622.0000000005,6119.0,566,8.0,19.0,29.0,"['10', '14', '15', '17', '18', '3', '4', '6', '7', '8']",2705919.966666667,5691.833333333333,475.0,29,290,1990/07,31,WAH MING EST,華明村,True,0.0,0.0,POINT Z (22.483419 114.139756 0),22.483419,114.139756
236,"CHEONG YUN HSE(Block D,CHEONG SHING COURT),WAH MING RD|昌盛苑,D座(昌潤閣),華明路",NSS,4555331.0,7019.0,649,5094001.0,7849.0,649,5443811.999999999,8388.0,649,8.0,20.0,32.0,"['1', '3', '4', '5', '6', '7', '8']",5192679.904761906,8001.047619047618,649.0,34,238,2000/03,21,CHEONG SHING COURT,昌盛苑,True,0.0,0.0,POINT Z (22.4833708 114.1386726 0),22.483370800000003,114.1386726
237,"LAI MING HSE(Block 1,WAH MING EST),WAH MING RD|華明村,1座(禮明樓),華明路",NSS,2529973.0,5711.0,443,2596423.0,5861.0,443,2957530.0,6126.0,489,9.0,19.0,29.0,"['12', '15', '16', '2', '20', '22', '23', '4', '5', '7']",2757465.0,5923.599999999999,465.6000000000001,29,290,1990/05,31,WAH MING EST,華明村,True,0.0,0.0,POINT Z (22.4853081 114.1400802 0),22.4853081,114.14008020000001
238,"TUNG HING HSE,SAN KIN ST|TUNG HING HSE,新健街",NSS,3308816.0,6470.0,496,3316752.0,6481.0,496,3995264.0,6703.0,637,2.0,3.0,4.0,"['A', 'B']",3580500.3333333335,6547.333333333333,548.1666666666666,5,10,1994/07,27,blank,,False,,,POINT Z (22.3251005 114.2109374 0),22.3251005,114.2109374
239,"CHEUNG CHUNG HSE(CHEUNG WAH EST),SAN WAN RD|祥華村(祥頌樓),新運路",NSS,2815598.728233779,6648.0,277,2851890.918076121,6733.0,277,3133858.799053024,10082.0,284,4.0,8.0,11.0,"['12', '2', '20', '6']",2957001.0480507296,8250.666666666666,278.75,11,44,1984/05,37,CHEUNG WAH EST,祥華村,True,0.0,0.0,POINT Z (22.492522 114.140191 0),22.492522,114.14019099999999
240,11 LUEN WO RD|11 聯和道,NSS,3964720.533036398,6366.0,555,3976553.6606090795,6385.0,555,3987763.991993725,6403.0,587,2.0,3.0,4.0,"['F.P.', 'R.P.']",3976346.061879734,6384.666666666667,571.0,5,10,1983/04,38,blank,,False,,,POINT Z (22.4979512 114.1430427 0),22.4979512,114.14304270000001
241,"PING HAY HSE(Block C,TAI PING EST),PO PING RD|太平村,C座(平熙樓),保平路",NSS,1851421.5760660071,4239.0,360,1890203.2630182954,4313.0,360,2535572.726943416,4574.0,494,6.0,13.0,20.0,"['10', '11', '14', '4', '5', '9']",2210339.0192310833,4457.38888888889,442.3333333333333,22,132,1989/06,32,TAI PING EST,太平村,True,0.0,0.0,POINT Z (22.4980192 114.1266263 0),22.498019199999998,114.1266263
242,"DRAGON VIEW HSE,WO FUNG ST|龍景樓,和豐街",NSS,,,356,3092741.906934425,6873.0,366,3092741.906934425,6873.0,401,3.0,4.0,4.0,"['A', 'B', 'D']",3092741.906934425,6873.0,388.2222222222222,4,12,1981/04,40,blank,,False,,,POINT Z (22.4987085 114.1423329 0),22.4987085,114.14233290000001
243,"GREEN CODE(Block 1),MA SIK RD|逸峰1座,馬適路",NSS,4437300.0,12416.0,300,4686900.0,12940.0,300,9894064.0,15629.0,752,9.0,20.0,29.0,"['A', 'B', 'C', 'D', 'E']",7122253.733333333,14025.066666666666,518.0,28,140,2014/06,7,GREEN CODE,逸峰,True,4.0,749.0,POINT Z (22.5010014 114.1458862 0),22.5010014,114.14588619999999
244,"GREEN CODE(Block 3),MA SIK RD|逸峰3座,馬適路",NSS,4906980.0,12768.0,324,4857400.0,13331.0,326,8461239.0,15129.0,614,9.0,20.0,30.0,"['A', 'B', 'C', 'D', 'E', 'F', 'G', 'H']",6759270.583333333,13765.75,493.4166666666667,29,232,2014/06,7,GREEN CODE,逸峰,True,4.0,749.0,POINT Z (22.5010014 114.1458862 0),22.5010014,114.14588619999999
245,"GREEN CODE(Block 2),MA SIK RD|逸峰2座,馬適路",NSS,6076236.0,12634.0,452,6247996.0,13034.0,452,8627196.0,14350.0,642,9.0,20.0,30.0,"['A', 'B', 'C', 'D', 'E']",6924499.466666666,13571.6,511.4666666666667,29,145,2014/06,7,GREEN CODE,逸峰,True,4.0,749.0,POINT Z (22.5010014 114.1458862 0),22.5010014,114.14588619999999
246,"GREEN CODE(Block 5),MA SIK RD|逸峰5座,馬適路",NSS,6064308.0,12663.0,459,6070275.0,13007.0,455,8225144.0,14722.0,614,9.0,20.0,30.0,"['A', 'B', 'C', 'D', 'E', 'F', 'G', 'H']",6871503.791666667,13527.75,509.3333333333333,29,232,2014/06,7,GREEN CODE,逸峰,True,4.0,749.0,POINT Z (22.5010014 114.1458862 0),22.5010014,114.14588619999999
247,"FU MING HSE(Block 4,WAH MING EST),WAH MING RD|華明村,4座(富明樓),華明路",NSS,3148448.7798224236,5326.0,375,3243285.0159774814,5485.0,375,3805754.5430605263,5847.0,566,9.0,19.0,29.0,"['10', '12', '15', '16', '17', '3', '4', '5', '6', '7', '8']",3424955.299286602,5725.81746031746,466.72727272727275,29,319,1990/07,31,WAH MING EST,華明村,True,0.0,0.0,POINT Z (22.4824137 114.1414465 0),22.4824137,114.14144650000001
248,"TAI CHEUNG BLDG,WO TAI ST|泰昌樓,和泰街",NSS,,,513,,,513,,,587,2.0,2.0,4.0,"['B', 'E', 'G', 'J']",,,532.0,4,16,1977/04,44,blank,,False,,,POINT Z (22.5002132 114.1425894 0),22.500213199999997,114.1425894
249,41-53 WO TAI ST|41-53 和泰街,NSS,4242588.626876838,5041.0,750,4199666.186890581,4990.0,750,4774406.074471258,5496.0,799,3.0,4.0,4.0,"['A', 'B', 'D', 'E']",4532659.878998076,5298.75,762.25,4,16,1971/01,50,blank,,False,,,POINT Z (22.5002343 114.1428224 0),22.5002343,114.14282240000001
250,"PING CHING HSE(Block B,TAI PING EST),PO PING RD|太平村,B座(平靜樓),保平路",NSS,2365391.143713201,4925.0,357,2400932.0461771153,4999.0,357,,,494,6.0,10.0,16.0,"['13', '14', '3', '4', '5']",2383161.594945158,4962.0,431.3999999999999,14,70,1989/06,32,TAI PING EST,太平村,True,0.0,0.0,POINT Z (22.497981 114.12669 0),22.497981,114.12669
251,"CHEUNG FUNG HSE(CHEUNG WAH EST),SAN WAN RD|祥華村(祥豐樓),新運路",NSS,2399768.371137488,4599.0,358,2431598.306044943,4660.0,358,2461862.8343176055,4718.0,465,16.0,21.0,26.0,"['10', '13', '15', '4', '9']",2431076.5038333456,4659.0,418.6000000000001,15,75,1984/03,37,CHEUNG WAH EST,祥華村,True,0.0,0.0,POINT Z (22.4917437 114.1418452 0),22.4917437,114.1418452
252,"PING YEE HSE(Block D,TAI PING EST),PO PING RD|太平村,D座(平易樓),保平路",NSS,2084370.9156525943,4834.0,357,2151673.3015510445,4976.0,357,3132844.0,5498.0,572,7.0,16.0,23.0,"['10', '11', '14', '2', '5', '9']",2607293.88155147,5128.666666666667,464.0,21,126,1989/06,32,TAI PING EST,太平村,True,0.0,0.0,POINT Z (22.4972344 114.1265869 0),22.4972344,114.12658689999999
253,"MOUNT ONE,LUEN HING ST|瓏山1號,聯興街",NSS,7022673.0,11430.0,511,7242403.0,11582.0,511,14403048.0,14677.0,1226,11.0,20.0,28.0,"['1A', '1B', '1C', '2A', '2B', '2C', '2D']",9996168.809523808,13092.238095238094,774.8571428571428,23,161,2014/07,7,blank,,False,,,POINT Z (22.499556 114.140689 0),22.499556,114.140689
254,"FU HING BLDG,FU HING ST|富興樓,符興街",NSS,3107158.2359933383,8352.0,319,3111811.813996554,8323.0,319,3484283.2098772903,8835.0,352,3.0,4.0,4.0,"['A', 'B', 'C', 'D', 'H']",3287966.2558036796,8622.266666666666,340.06666666666666,4,20,1981/01,40,blank,,False,,,POINT Z (22.5041995 114.1291416 0),22.5041995,114.1291416
255,"CHEUNG KING HSE(CHEUNG WAH EST),SAN WAN RD|祥華村(祥景樓),新運路",NSS,,,271,,,271,,,424,4.0,11.0,19.0,"['10', '107', '11', '13', '4']",,,392.8,21,105,1984/03,37,CHEUNG WAH EST,祥華村,True,0.0,0.0,POINT Z (22.4927783 114.1423329 0),22.4927783,114.14233290000001
256,"GOLF PARKVIEW(Block 3),CASTLE PEAK RD KWU TUNG|哥爾夫景園3座,青山公路古洞段",NSS,9375267.466296908,7743.0,1079,9375267.466296908,7743.0,1079,9438229.355519101,7795.0,1086,2.0,2.0,4.0,"['A', 'B']",9396254.762704305,7760.333333333333,1080.1666666666667,4,8,2004/06,17,GOLF PARKVIEW,哥爾夫景園,True,2.0,16.0,POINT Z (22.5015815 114.1171347 0),22.5015815,114.11713470000001
257,"CHEUNG TAK HSE - WING A(CHEUNG WAH EST),SAN WAN RD|祥華村(祥德樓 - A翼),新運路",NSS,2668050.0,5445.0,381,2722440.0,5556.0,381,2788590.0,5691.0,490,17.0,24.0,31.0,"['3', '5', '7', '8']",2728646.6666666665,5568.666666666667,435.5,20,80,1985/01,36,CHEUNG WAH EST,祥華村,True,0.0,0.0,POINT Z (22.493687 114.141726 0),22.493686999999998,114.141726
258,"CHEUNG CHI HSE - WING A(CHEUNG WAH EST),SAN WAN RD|祥華村(祥智樓 - A翼),新運路",NSS,2285619.0,5678.0,381,2305050.0,5748.0,381,2864540.0,6252.0,490,15.0,20.0,26.0,"['3', '4', '5', '7']",2454730.0833333335,6031.083333333333,408.25,15,60,1986/02,35,CHEUNG WAH EST,祥華村,True,0.0,0.0,POINT Z (22.4928965 114.1415218 0),22.4928965,114.14152179999999
259,"CHEUNG CHI HSE - WING C(CHEUNG WAH EST),SAN WAN RD|祥華村(祥智樓 - C翼),新運路",NSS,,,381,,,381,,,490,8.0,16.0,23.0,"['1', '6', '7', '8']",,,435.5,20,80,1986/02,35,CHEUNG WAH EST,祥華村,True,0.0,0.0,POINT Z (22.4928965 114.1415218 0),22.4928965,114.14152179999999
260,39 WO TAI ST|39 和泰街,NSS,5028096.210352381,5471.0,819,5028096.210352381,5471.0,819,5054748.520734435,5500.0,819,2.0,2.0,4.0,['whole floor'],5036980.313813065,5480.666666666667,819.0,4,4,1970/01,51,blank,,False,,,POINT Z (22.5002343 114.1428224 0),22.5002343,114.14282240000001
261,"KAM WO BLDG & KAM HING BLDG,SHUN LUNG ST|錦和樓及錦興樓,順隆街",NSS,2069092.7713280744,4236.0,404,2069092.7713280744,4236.0,404,2618419.2079710066,4588.0,548,2.0,2.0,4.0,"['B', 'D', 'F']",2351253.1091671395,4391.0,479.0,4,12,1974/09,47,blank,,False,,,POINT Z (22.5453825 114.2241925 0),22.545382500000002,114.2241925
262,"CHEUNG CHI HSE - WING B(CHEUNG WAH EST),SAN WAN RD|祥華村(祥智樓 - B翼),新運路",NSS,3594686.4064843613,6193.0,381,3685235.587723108,6349.0,381,3764756.3430417515,6486.0,490,6.0,16.0,25.0,"['1', '5', '8']",3681559.4457497406,6342.666666666667,417.3333333333333,25,75,1986/02,35,CHEUNG WAH EST,祥華村,True,0.0,0.0,POINT Z (22.4928965 114.1415218 0),22.4928965,114.14152179999999
263,"TUNG LOK MANSION,JOCKEY CLUB RD|同樂樓,馬會道",NSS,,,409,,,409,,,527,1.0,2.0,2.0,"['B', 'E']",,,468.0,2,4,1973/09/20,48,blank,,False,,,POINT Z (22.5058967 114.1285848 0),22.5058967,114.1285848
264,"COMMUNE MODERN(Block 2),WO FUNG ST|囍逸2座,和豐街",NSS,4800900.0,11990.0,294,4809300.0,12302.0,294,10035968.0,17197.0,796,8.0,16.0,21.0,"['A', 'B', 'C', 'D', 'DH', 'E', 'EF', 'F', 'G', 'H', 'J']",6522358.606060606,14844.454545454546,452.8181818181818,18,198,2018/07,3,COMMUNE MODERN,囍逸,True,2.0,342.0,POINT Z (22.4984733 114.1428658 0),22.4984733,114.14286580000001
265,"COMMUNE MODERN(Block 1),WO FUNG ST|囍逸1座,和豐街",NSS,4154290.0,13125.0,235,4306610.0,13489.0,235,8824890.0,18967.0,645,8.0,16.0,21.0,"['A', 'B', 'C', 'D', 'E', 'F', 'G', 'H']",6092087.833333333,16055.125,393.125,18,144,2018/07,3,COMMUNE MODERN,囍逸,True,2.0,342.0,POINT Z (22.4984733 114.1428658 0),22.4984733,114.14286580000001
266,"CHEUNG TAK HSE - WING B(CHEUNG WAH EST),SAN WAN RD|祥華村(祥德樓 - B翼),新運路",NSS,2162556.0,5408.0,381,2188464.0,5473.0,381,2774870.0,5917.0,490,19.0,25.0,31.0,"['3', '4', '6', '7', '8']",2417047.6,5708.266666666666,424.6000000000001,19,95,1985/01,36,CHEUNG WAH EST,祥華村,True,0.0,0.0,POINT Z (22.493687 114.141726 0),22.493686999999998,114.141726
267,"FANLING GARDEN(Block 19),FAN LENG LAU RD|粉嶺花園19座,粉嶺樓路",NSS,4539506.428984119,8228.0,466,4539506.428984119,8228.0,466,5593733.174190089,8699.0,604,2.0,2.0,3.0,"['A', 'B']",5062540.393042528,8461.666666666666,535.0,2,4,1987/09,34,FANLING GARDEN,粉嶺花園,True,0.0,0.0,POINT Z (22.4986325 114.1403357 0),22.498632500000003,114.14033570000001
268,"EDEN MANOR(Block 2),CASTLE PEAK RD KWU TUNG|高爾夫御苑2座,青山公路古洞段",NSS,18403880.0,16610.0,1108,21085240.000000004,17474.0,1108,23205240.0,19725.0,1314,9.0,16.0,20.0,"['A', 'B']",21673171.0,17940.666666666668,1211.0,14,28,2019/05,2,EDEN MANOR,高爾夫御苑,True,6.0,408.0,POINT Z (22.5001325 114.1197882 0),22.5001325,114.1197882
269,"EDEN MANOR(Block 1),CASTLE PEAK RD KWU TUNG|高爾夫御苑1座,青山公路古洞段",NSS,18666476.0,14633.0,1108,18934612.000000004,14889.0,1108,36521338.0,17902.0,2422,10.0,16.0,20.0,"['A', 'AB', 'B']",26013849.333333332,16511.0,1614.6666666666667,13,39,2019/05,2,EDEN MANOR,高爾夫御苑,True,6.0,408.0,POINT Z (22.5001325 114.1197882 0),22.5001325,114.1197882
270,"EDEN MANOR(Block 7),CASTLE PEAK RD KWU TUNG|高爾夫御苑7座,青山公路古洞段",NSS,4951716.0,17812.0,276,5051904.0,18273.0,276,9932868.0,20438.0,487,6.0,16.0,23.0,"['A', 'B', 'C', 'D', 'E', 'F', 'G', 'H', 'J', 'K']",6809876.466666666,18955.166666666668,358.06666666666666,24,240,2019/05,2,EDEN MANOR,高爾夫御苑,True,6.0,408.0,POINT Z (22.5001325 114.1197882 0),22.5001325,114.1197882
271,"EDEN MANOR(Block 9),CASTLE PEAK RD KWU TUNG|高爾夫御苑9座,青山公路古洞段",NSS,15536640.0,13481.0,960,15836160.0,13730.0,960,26835402.0,17670.0,1927,8.0,15.0,20.0,"['A', 'AB', 'B']",19510593.444444448,15679.22222222222,1284.6666666666667,15,45,2019/05,2,EDEN MANOR,高爾夫御苑,True,6.0,408.0,POINT Z (22.5001325 114.1197882 0),22.5001325,114.1197882
272,"EDEN MANOR(Block 3),CASTLE PEAK RD KWU TUNG|高爾夫御苑3座,青山公路古洞段",NSS,15994560.0,12907.0,960,16084800.0,13329.0,960,29544778.989401076,18075.0,1927,9.0,16.0,20.0,"['A', 'AB', 'B']",20623733.702726047,15887.888888888889,1284.6666666666667,16,48,2019/05,2,EDEN MANOR,高爾夫御苑,True,6.0,408.0,POINT Z (22.5001325 114.1197882 0),22.5001325,114.1197882
273,"CHEUNG LOK HSE(CHEUNG WAH EST),SAN WAN RD|祥華村(祥樂樓),新運路",NSS,,,423,,,423,,,443,6.0,11.0,17.0,"['14', '3', '5', '6', '7']",,,431.3999999999999,17,85,1984/03,37,CHEUNG WAH EST,祥華村,True,0.0,0.0,POINT Z (22.4928965 114.1415218 0),22.4928965,114.14152179999999
274,"MARIN POINT(Block 3),SHUN LUNG ST|尚澄3座,順隆街",NSS,3540522.0,10061.0,337,3599778.0,10150.0,345,6184475.0,12013.0,538,2.0,3.0,5.0,"['A', 'B', 'C', 'D', 'E', 'F', 'G', 'H', 'K', 'M']",4516194.466666667,10795.300000000001,416.9666666666667,5,50,2018/08,3,MARIN POINT,尚澄,True,4.0,200.0,POINT Z (22.5438993 114.2253145 0),22.543899300000003,114.2253145
275,"MARIN POINT(Block 5),SHUN LUNG ST|尚澄5座,順隆街",NSS,3100192.0,9709.0,300,3035744.0,9737.0,300,4436036.0,11477.0,451,2.0,3.0,5.0,"['A', 'B', 'D', 'E', 'F', 'G', 'H', 'J', 'K', 'L', 'M', 'N']",3739605.3055555555,10519.611111111111,357.1111111111111,5,60,2018/08,3,MARIN POINT,尚澄,True,4.0,200.0,POINT Z (22.5438993 114.2253145 0),22.543899300000003,114.2253145
276,"MARIN POINT(Block 2),SHUN LUNG ST|尚澄2座,順隆街",NSS,2850330.0,9652.0,277,2843720.0,9850.0,277,4213110.0,11265.0,430,2.0,3.0,5.0,"['D', 'E', 'F', 'G', 'H', 'J', 'K', 'L', 'N']",3398218.5555555555,10154.444444444443,334.962962962963,5,45,2018/08,3,MARIN POINT,尚澄,True,4.0,200.0,POINT Z (22.5438993 114.2253145 0),22.543899300000003,114.2253145
277,"MARIN POINT(Block 1),SHUN LUNG ST|尚澄1座,順隆街",NSS,3597349.0,10328.0,337,3642112.0,10451.0,345,5937096.0,11910.0,523,2.0,3.0,5.0,"['C', 'D', 'E', 'F', 'G', 'H', 'J', 'K', 'L']",4483275.037037037,10771.77777777778,416.0740740740741,5,45,2018/08,3,MARIN POINT,尚澄,True,4.0,200.0,POINT Z (22.5438993 114.2253145 0),22.543899300000003,114.2253145
278,29 WO TAI ST|29 和泰街,NSS,,,803,,,803,,,803,2.0,2.0,4.0,['whole floor'],,,803.0,4,4,1970/01,51,blank,,False,,,POINT Z (22.5002343 114.1428224 0),22.5002343,114.14282240000001
279,"EDEN MANOR(Block 6),CASTLE PEAK RD KWU TUNG|高爾夫御苑6座,青山公路古洞段",NSS,15128062.0,15742.0,961,15307769.0,15929.0,961,15368312.0,15992.0,961,8.0,10.0,14.0,['B'],15268047.666666666,15887.666666666666,961.0,8,8,2019/05,2,EDEN MANOR,高爾夫御苑,True,6.0,408.0,POINT Z (22.5001325 114.1197882 0),22.5001325,114.1197882
