,final_address,district,lowZone_value,lowZone_npsf_min,lowZone_nfa_min,midZone_value,midZone_npsf_min,midZone_nfa_min,highZone_value,highZone_npsf_max,highZone_nfa_max,oneSixth_floor,middle_floor,fifthSixth_floor,unit_list,value_avg,npsf_avg,unitSize_avg,noStorey,noFlat,op_date,bldgAge,est_name_en,est_name_ch,est_orNot,est_bldgNo,est_flatNo,final_coords,lat,long
0,"FLORA PLAZA(Block 9),PAK WO RD|花都廣場9座,百和路",NSS,4714710.0,11179.0,390.0,4450680.0,11412.0,390.0,6361784.000000001,13106.0,536.0,9.0,20.0,30.0,"['A', 'B', 'C', 'D', 'E', 'F', 'G', 'H']",5278997.833333333,12065.541666666666,438.75,34,272,1995/11,26,FLORA PLAZA,花都廣場,True,10.0,2720.0,POINT Z (22.4854804 114.141195 0),22.485480399999997,114.141195
1,"FLORA PLAZA(Block 6),PAK WO RD|花都廣場6座,百和路",NSS,4884750.0,11306.0,390.0,4918290.0,11335.0,390.0,6456120.0,13194.0,536.0,9.0,20.0,30.0,"['A', 'B', 'C', 'D', 'E', 'F', 'G', 'H']",5499005.791666667,12188.958333333334,453.75,34,272,1995/11,26,FLORA PLAZA,花都廣場,True,10.0,2720.0,POINT Z (22.4854804 114.141195 0),22.485480399999997,114.141195
2,"FLORA PLAZA(Block 1),PAK WO RD|花都廣場1座,百和路",NSS,4647240.0,11352.0,390.0,4765410.0,11783.0,390.0,6552064.0,13363.0,536.0,9.0,20.0,30.0,"['A', 'B', 'C', 'D', 'E', 'F', 'G', 'H']",5510467.666666667,12186.208333333334,453.75,34,272,1995/11,26,FLORA PLAZA,花都廣場,True,10.0,2720.0,POINT Z (22.4854804 114.141195 0),22.485480399999997,114.141195
3,"FLORA PLAZA(Block 7),PAK WO RD|花都廣場7座,百和路",NSS,4500990.0,11135.0,390.0,4834050.0,11501.0,390.0,6386440.0,13035.0,536.0,9.0,20.0,30.0,"['A', 'B', 'C', 'D', 'E', 'F', 'G', 'H']",5294695.75,12111.458333333334,438.75,34,272,1995/11,26,FLORA PLAZA,花都廣場,True,10.0,2720.0,POINT Z (22.4854804 114.141195 0),22.485480399999997,114.141195
4,"FLORA PLAZA(Block 10),PAK WO RD|花都廣場10座,百和路",NSS,4397640.0,11246.0,390.0,4991610.0,11652.0,390.0,6783080.0,13302.0,536.0,9.0,20.0,30.0,"['A', 'B', 'C', 'D', 'E', 'F', 'G', 'H']",5577594.583333333,12340.958333333334,453.75,34,272,1995/11,26,FLORA PLAZA,花都廣場,True,10.0,2720.0,POINT Z (22.4854804 114.141195 0),22.485480399999997,114.141195
5,"SHEUNG SHUI CTR(Block 1),CHI CHEONG RD|上水中心1座,智昌路",NSS,4309838.0,12751.0,338.0,4453150.0,13175.0,338.0,5216050.000000001,14940.0,355.0,5.0,12.0,20.0,"['1A', '1B', '1C', '1D', '1E', '1F', '1H', 'A', 'B', 'C', 'D', 'E', 'F', 'G', 'H']",4965827.91111111,14202.333333333334,349.68888888888887,24,360,1993/11,28,SHEUNG SHUI CTR,上水中心,True,6.0,2117.0,POINT Z (22.5011544 114.1290951 0),22.5011544,114.12909509999999
6,"SHEUNG SHUI CTR(Block 3),CHI CHEONG RD|上水中心3座,智昌路",NSS,4218578.0,11985.0,323.0,3933306.0,11637.0,338.0,5184775.0,14818.0,355.0,5.0,12.0,20.0,"['3A', '3B', '3C', '3D', '3E', '3F', '3G', '3H', 'A', 'B', 'C', 'D', 'E', 'F', 'G', 'H']",4757333.1875,13624.354166666666,349.1875,24,384,1993/11,28,SHEUNG SHUI CTR,上水中心,True,6.0,2117.0,POINT Z (22.5008858 114.1299577 0),22.500885800000002,114.1299577
7,"SHEUNG SHUI CTR(Block 2),CHI CHEONG RD|上水中心2座,智昌路",NSS,4671836.0,13330.0,323.0,4727180.0,13316.0,338.0,5290565.0,15270.0,355.0,5.0,12.0,20.0,"['2A', '2B', '2C', '2D', '2E', '2F', '2G', '2H', 'A', 'B', 'C', 'D', 'E', 'F', 'G', 'H']",5043133.875,14470.375,348.5625,24,384,1993/11,28,SHEUNG SHUI CTR,上水中心,True,6.0,2117.0,POINT Z (22.5009432 114.1293274 0),22.500943200000002,114.1293274
8,"WOODLAND CREST(Block 1),TIN PING RD|奕翠園1座,天平路",NSS,8559680.0,9111.0,920.0,8655360.0,9214.0,920.0,9825915.0,9820.0,1030.0,2.0,6.0,9.0,"['A', 'B', 'C', 'D', 'E', 'F', 'G', 'H']",9161092.791666666,9375.75,977.5,9,72,1996/04,25,WOODLAND CREST,奕翠園,True,8.0,558.0,POINT Z (22.5070388 114.1322769 0),22.5070388,114.13227690000001
9,"FLORA PLAZA(Block 8),PAK WO RD|花都廣場8座,百和路",NSS,4819776.0,11008.0,390.0,4899648.0,11230.0,390.0,6353208.0,13367.0,536.0,9.0,20.0,30.0,"['A', 'B', 'C', 'D', 'E', 'F', 'G', 'H']",5333182.666666667,12205.541666666666,439.125,34,272,1995/11,26,FLORA PLAZA,花都廣場,True,10.0,2720.0,POINT Z (22.4854804 114.141195 0),22.485480399999997,114.141195
10,"UNION PLAZA(Block 2),WO MUK RD|海聯廣場2座,和睦路",NSS,4525196.0,9537.0,442.0,4613154.0,9609.0,442.0,6849575.999999999,11065.0,684.0,7.0,14.0,21.0,"['A', 'B', 'C', 'D', 'E', 'F', 'G', 'H']",5504021.833333333,10181.083333333334,543.375,20,160,1994/05,27,UNION PLAZA,海聯廣場,True,1.0,160.0,POINT Z (22.4999531 114.1413575 0),22.499953100000003,114.1413575
11,"FLORA PLAZA(Block 5),PAK WO RD|花都廣場5座,百和路",NSS,4784910.0,11102.0,390.0,4954560.0,11379.0,390.0,6463088.0,13786.0,536.0,9.0,20.0,30.0,"['A', 'B', 'C', 'D', 'E', 'F', 'G', 'H']",5538745.416666667,12287.375,453.75,34,272,1995/11,26,FLORA PLAZA,花都廣場,True,10.0,2720.0,POINT Z (22.4854804 114.141195 0),22.485480399999997,114.141195
12,"LUNG FUNG GARDEN(Block B),LUNG SUM AVE|龍豐花園B座,龍琛路",NSS,4228010.0,11435.0,314.0,4334770.0,11741.0,314.0,6163524.999999999,14981.0,505.0,5.0,13.0,21.0,"['1', '2', '3', '4', '5', '6', '7', '8']",5319974.416666667,13048.625,415.75,25,200,1991/07,30,LUNG FUNG GARDEN,龍豐花園,True,3.0,600.0,POINT Z (22.5027962 114.1294667 0),22.5027962,114.12946670000001
13,"FLORA PLAZA(Block 4),PAK WO RD|花都廣場4座,百和路",NSS,4780062.0,11072.0,390.0,4822188.0,11482.0,390.0,6337128.0,13715.0,540.0,9.0,20.0,30.0,"['A', 'B', 'C', 'D', 'E', 'F', 'G', 'H']",5316103.958333333,12159.083333333334,439.25,34,272,1995/11,26,FLORA PLAZA,花都廣場,True,10.0,2720.0,POINT Z (22.4848953 114.1414485 0),22.4848953,114.14144850000001
14,"AVON PARK(Block 7),YAT MING RD|碧湖花園7座,一鳴路",NSS,4697701.0,11731.0,397.0,4771543.0,11878.0,397.0,5966955.0,13313.0,485.0,5.0,12.0,20.0,"['A', 'B', 'C', 'D', 'E', 'F', 'G', 'H']",5280620.958333333,12320.291666666666,429.25,20,160,1994/03,27,AVON PARK,碧湖花園,True,7.0,1328.0,POINT Z (22.4869506 114.1432201 0),22.486950600000004,114.1432201
15,"VENICE GARDEN(Block 2),PO WING RD|威尼斯花園2座,保榮路",NSS,4644640.0,10319.0,439.0,4744080.0,10660.0,439.0,5389046.0,11250.0,494.0,4.0,10.0,15.0,"['A', 'B', 'C', 'D', 'E', 'F', 'G', 'H']",4909589.833333333,10831.583333333334,453.5,18,144,1993/03,28,VENICE GARDEN,威尼斯花園,True,2.0,288.0,POINT Z (22.4975126 114.1274462 0),22.4975126,114.12744620000001
16,"AVON PARK(Block 3),YAT MING RD|碧湖花園3座,一鳴路",NSS,4769161.0,11356.0,397.0,4331270.0,10910.0,397.0,6016910.0,12891.0,488.0,6.0,16.0,25.0,"['A', 'B', 'C', 'D', 'E', 'F', 'G', 'H']",5213784.208333333,12148.791666666666,429.625,25,200,1994/03,27,AVON PARK,碧湖花園,True,7.0,1328.0,POINT Z (22.4871342 114.1432932 0),22.4871342,114.1432932
17,"FOO HOO COURT,LUEN ON ST|富好閣,聯安街",NSS,3511944.0,11745.0,284.0,3540344.0,12113.0,284.0,3860743.0,12580.0,317.0,3.0,6.0,9.0,"['A', 'B', 'C', 'D']",3676196.0833333335,12214.333333333334,301.25,11,44,1991/12,30,blank,,False,,,POINT Z (22.4995899 114.1437714 0),22.499589899999997,114.14377140000002
18,"SHEUNG SHUI CTR(Block 6),CHI CHEONG RD|上水中心6座,智昌路",NSS,6081944.0,12421.0,488.0,6195160.0,12683.0,480.0,8443650.0,13575.0,622.0,6.0,13.0,20.0,"['6A', '6B', '6C', '6D', '6E', '6G', '6H', 'A', 'B', 'C', 'D', 'E', 'F', 'G', 'H']",7242066.133333333,12885.177777777777,562.0888888888888,23,345,1993/11,28,SHEUNG SHUI CTR,上水中心,True,6.0,2117.0,POINT Z (22.5010553 114.13077 0),22.5010553,114.13077
19,"PARKFORD GARDEN,CHI FUK CIRT|百褔花園,置福圍",NSS,8095248.0,10186.0,756.0,8164800.0,10273.0,756.0,13556340.0,10914.0,1484.0,3.0,6.0,8.0,"['A', 'B', 'C', 'D', 'E', 'F', 'G', 'H']",9181413.208333334,10445.041666666666,883.7083333333334,8,64,1995/08,26,blank,,False,,,POINT Z (22.4922175 114.1354122 0),22.4922175,114.13541219999999
20,"GALAXY COURT(Block 7,FANLING TOWN CTR),FANLING STATION RD|粉嶺名都,7座(嘉麗閣),粉嶺車站路",NSS,4507500.0,11511.0,375.0,4598250.0,11739.0,375.0,5607888.0,12935.0,456.0,4.0,10.0,17.0,"['A', 'B', 'C', 'D', 'E', 'F', 'G', 'H']",4977291.0,12267.083333333334,406.25,20,160,1993/05,28,FANLING TOWN CTR,粉嶺名都,True,7.0,1688.0,POINT Z (22.4927378 114.1388726 0),22.4927378,114.1388726
21,"AVON PARK(Block 2),YAT MING RD|碧湖花園2座,一鳴路",NSS,4769955.0,11351.0,397.0,4894613.0,11848.0,397.0,6067792.0,12806.0,488.0,6.0,16.0,25.0,"['A', 'B', 'C', 'D', 'E', 'F', 'G', 'H']",5289781.875,12300.166666666666,430.8333333333333,25,200,1994/03,27,AVON PARK,碧湖花園,True,7.0,1328.0,POINT Z (22.4873464 114.1432845 0),22.487346399999996,114.1432845
22,"AVON PARK(Block 5),YAT MING RD|碧湖花園5座,一鳴路",NSS,4717551.0,11418.0,397.0,4847370.0,11555.0,397.0,5892112.000000001,13419.0,488.0,6.0,16.0,25.0,"['A', 'B', 'C', 'D', 'E', 'F', 'G', 'H']",5242379.75,12232.083333333334,429.625,25,200,1994/03,27,AVON PARK,碧湖花園,True,7.0,1328.0,POINT Z (22.4872337 114.143256 0),22.4872337,114.14325600000001
23,"ROME COURT(Block 4,SHEUNG SHUI TOWN CTR),CHI CHEONG RD|上水名都,4座(羅馬閣),智昌路",NSS,4553783.0,11667.0,377.0,4715851.0,12061.0,377.0,5834877.0,13326.0,461.0,5.0,13.0,21.0,"['A', 'B', 'C', 'D', 'E', 'F', 'G', 'H']",5103898.208333333,12590.083333333334,405.9166666666667,25,200,1992/08,29,SHEUNG SHUI TOWN CTR,上水名都,True,4.0,784.0,POINT Z (22.5009022 114.1313868 0),22.5009022,114.1313868
24,"GREENPARK VILLA(Block 2),KAT CHEUNG CRES|蔚翠花園2座,吉祥街",NSS,6770335.0,9405.0,715.0,6848985.0,9513.0,715.0,7198590.0,9816.0,742.0,4.0,8.0,11.0,"['A', 'B', 'C', 'D', 'E', 'F', 'G', 'H']",6938541.583333333,9607.916666666666,722.1666666666666,11,88,1994/01,27,GREENPARK VILLA,蔚翠花園,True,6.0,544.0,POINT Z (22.495581 114.133057 0),22.495581,114.13305700000001
25,"SAN FUNG BLDG,SAN FUNG AVE|新豐大廈,新豐路",NSS,4154304.0,11264.0,352.0,4186336.0,11547.0,352.0,4658115.0,12165.0,385.0,6.0,12.0,17.0,"['A', 'B', 'C', 'D']",4416616.5,11796.833333333334,374.6666666666667,18,72,1993/10,28,blank,,False,,,POINT Z (22.5055529 114.1271392 0),22.505552899999998,114.1271392
26,"WING HAY COURT,WO FUNG ST|榮熙閣,和豐街",NSS,5407173.0,10183.0,402.0,5456025.0,10275.0,402.0,5504346.0,10366.0,531.0,3.0,6.0,9.0,"['A', 'B', 'C', 'D']",5455848.0,10274.666666666666,466.5,10,40,1993/09,28,blank,,False,,,POINT Z (22.4983675 114.1420078 0),22.4983675,114.1420078
27,"CHEERFUL PARK(Block 1),KAT CHEUNG CRES|欣翠花園1座,吉祥街",NSS,5585000.393042204,8516.0,614.0,5659148.688089345,8770.0,614.0,7437193.118463378,10701.0,793.0,3.0,6.0,10.0,"['A', 'B', 'C', 'D', 'E', 'F', 'G', 'H']",6522027.338760692,9456.375,681.0,12,96,1992/04,29,CHEERFUL PARK,欣翠花園,True,4.0,384.0,POINT Z (22.496055 114.1315569 0),22.496055,114.1315569
28,"LUNG FUNG GARDEN(Block A),LUNG SUM AVE|龍豐花園A座,龍琛路",NSS,4443803.0,11433.0,328.0,4542503.0,11646.0,328.0,6308459.999999999,14772.0,505.0,5.0,13.0,21.0,"['1', '2', '3', '4', '5', '6', '7', '8']",5385281.214285714,12841.10119047619,418.5,25,200,1991/07,30,LUNG FUNG GARDEN,龍豐花園,True,3.0,600.0,POINT Z (22.5030936 114.1297919 0),22.503093600000003,114.1297919
29,"FLORA PLAZA(Block 2),PAK WO RD|花都廣場2座,百和路",NSS,4634656.0,11098.0,390.0,4776096.0,11481.0,390.0,6523656.0,12999.0,536.0,9.0,20.0,30.0,"['A', 'B', 'C', 'D', 'E', 'F', 'G', 'H']",5303756.791666667,12143.833333333334,438.375,34,272,1995/11,26,FLORA PLAZA,花都廣場,True,10.0,2720.0,POINT Z (22.4854804 114.141195 0),22.485480399999997,114.141195
30,"FORUM COURT(Block 6,FANLING TOWN CTR),FANLING STATION RD|粉嶺名都,6座(富臨閣),粉嶺車站路",NSS,4690230.0,11874.0,375.0,5082860.0,12868.0,375.0,,,912.0,13.0,39.0,76.0,"['A', 'B', 'C', 'D', 'E', 'F', 'G', 'H']",5315646.875,13090.0,425.25,73,584,1993/05,28,FANLING TOWN CTR,粉嶺名都,True,7.0,1688.0,POINT Z (22.49297 114.1390583 0),22.49297,114.13905829999999
31,"FLORA PLAZA(Block 3),PAK WO RD|花都廣場3座,百和路",NSS,4639229.0,11233.0,390.0,4832100.0,11700.0,390.0,6492567.999999999,13179.0,536.0,9.0,20.0,30.0,"['A', 'B', 'C', 'D', 'E', 'F', 'G', 'H']",5394234.708333333,12338.541666666666,438.75,34,272,1995/11,26,FLORA PLAZA,花都廣場,True,10.0,2720.0,POINT Z (22.4854804 114.141195 0),22.485480399999997,114.141195
32,"WOODLAND CREST(Block 2),TIN PING RD|奕翠園2座,天平路",NSS,9059452.436016489,7289.0,935.0,9199899.428096315,7402.0,935.0,10730240.587170478,7837.0,1030.0,2.0,6.0,9.0,"['A', 'B', 'C', 'D', 'E', 'F', 'G', 'H']",9868343.88367447,7516.428571428572,981.25,9,72,1996/04,25,WOODLAND CREST,奕翠園,True,8.0,558.0,POINT Z (22.5071872 114.1325788 0),22.5071872,114.13257879999999
33,"VENICE GARDEN(Block 1),PO WING RD|威尼斯花園1座,保榮路",NSS,4215640.0,9581.0,439.0,4286040.0,9741.0,439.0,5463146.000000001,11352.0,494.0,4.0,10.0,15.0,"['A', 'B', 'C', 'D', 'E', 'F', 'G', 'H']",4859672.708333333,10716.833333333334,453.5,18,144,1993/03,28,VENICE GARDEN,威尼斯花園,True,2.0,288.0,POINT Z (22.4976429 114.1277249 0),22.4976429,114.1277249
34,"LUNG FUNG GARDEN(Block C),LUNG SUM AVE|龍豐花園C座,龍琛路",NSS,4549741.0,11595.0,328.0,4648441.0,11934.0,328.0,6448850.0,14817.0,505.0,5.0,13.0,21.0,"['1', '2', '3', '4', '5', '6', '7', '8']",5478856.333333333,13285.625,418.5,25,200,1991/07,30,LUNG FUNG GARDEN,龍豐花園,True,3.0,600.0,POINT Z (22.5026247 114.1298615 0),22.502624700000002,114.1298615
35,"WOODLAND CREST(Block 6),TIN PING RD|奕翠園6座,天平路",NSS,8987480.0,9323.0,920.0,9092360.0,9563.0,920.0,9969135.0,10022.0,1030.0,2.0,6.0,9.0,"['A', 'B', 'C', 'D', 'E', 'F', 'G', 'H']",9516434.75,9743.833333333334,977.5,9,72,1996/04,25,WOODLAND CREST,奕翠園,True,8.0,558.0,POINT Z (22.506152 114.1323698 0),22.506152,114.13236979999999
36,"NEW YORK COURT(Block 2,SHEUNG SHUI TOWN CTR),CHI CHEONG RD|上水名都,2座(紐約閣),智昌路",NSS,4490584.0,11478.0,371.0,4541719.0,11815.0,371.0,5851012.0,13124.0,461.0,5.0,12.0,20.0,"['A', 'B', 'C', 'D', 'E', 'F', 'G', 'H']",5058298.291666667,12400.375,407.7916666666667,24,192,1992/08,29,SHEUNG SHUI TOWN CTR,上水名都,True,4.0,784.0,POINT Z (22.5007424 114.1316963 0),22.5007424,114.1316963
37,"METROPOLIS PLAZA(Block 3),LUNG WAN ST|新都廣場3座,龍運街",NSS,5331078.0,12024.0,414.0,5462172.000000001,12175.0,414.0,7901172.0,13725.0,596.0,8.0,16.0,24.0,"['A', 'B', 'C', 'D', 'E', 'F', 'G', 'H']",6160572.708333333,12753.625,483.25,25,200,1991/03,30,METROPOLIS PLAZA,新都廣場,True,3.0,592.0,POINT Z (22.5016194 114.1292912 0),22.5016194,114.1292912
38,"BERLIN COURT(Block 1,SHEUNG SHUI TOWN CTR),CHI CHEONG RD|上水名都,1座(柏林閣),智昌路",NSS,4493552.0,11579.0,371.0,4573317.0,11586.0,371.0,5918185.0,13065.0,455.0,5.0,12.0,20.0,"['A', 'B', 'C', 'D', 'E', 'F', 'G', 'H']",5064701.375,12484.166666666666,405.75,24,192,1992/08,29,SHEUNG SHUI TOWN CTR,上水名都,True,4.0,784.0,POINT Z (22.500728 114.131714 0),22.500728,114.13171399999999
39,"VIENNA GARDEN(Block 3),KAT CHEUNG CRES|維也納花園3座,吉祥街",NSS,4700174.0,8892.0,478.0,4763270.0,9015.0,478.0,6822972.0,10188.0,736.0,3.0,6.0,10.0,"['A', 'B', 'C', 'D', 'E', 'F', 'G', 'H']",5981164.416666667,9423.875,638.25,12,96,1993/03,28,VIENNA GARDEN,維也納花園,True,3.0,288.0,POINT Z (22.4960815 114.1309763 0),22.4960815,114.1309763
40,"GREENPARK VILLA(Block 3),KAT CHEUNG CRES|蔚翠花園3座,吉祥街",NSS,6684535.0,9349.0,715.0,5495680.0,9362.0,554.0,7559688.0,10456.0,730.0,3.0,8.0,11.0,"['A', 'B', 'C', 'D', 'E', 'F', 'G', 'H']",6832351.416666667,9674.625,706.5416666666666,12,96,1994/01,27,GREENPARK VILLA,蔚翠花園,True,6.0,544.0,POINT Z (22.4953512 114.1328343 0),22.495351199999998,114.13283429999998
41,"AVON PARK(Block 6),YAT MING RD|碧湖花園6座,一鳴路",NSS,4554384.0,11471.0,397.0,4865235.0,11764.0,397.0,6056194.999999999,12997.0,488.0,6.0,16.0,25.0,"['A', 'B', 'C', 'D', 'E', 'F', 'G', 'H']",5249408.791666667,12231.583333333334,429.625,25,200,1994/03,27,AVON PARK,碧湖花園,True,7.0,1328.0,POINT Z (22.4873999 114.1433122 0),22.4873999,114.1433122
42,"WOODLAND CREST(Block 7),TIN PING RD|奕翠園7座,天平路",NSS,,,935.0,10431531.0,10178.0,935.0,,,1030.0,2.0,6.0,9.0,"['A', 'B', 'C', 'D', 'E', 'F', 'G', 'H']",10457435.5,10187.5,981.25,9,72,1996/04,25,WOODLAND CREST,奕翠園,True,8.0,558.0,POINT Z (22.5063694 114.1326485 0),22.5063694,114.13264850000002
43,"SHEUNG SHUI CTR(Block 4),CHI CHEONG RD|上水中心4座,智昌路",NSS,4977300.0,12389.0,353.0,5090260.0,12593.0,353.0,7158300.0,14757.0,535.0,6.0,13.0,20.0,"['4B', '4E', '4F', '4G', '4H', 'A', 'B', 'C', 'D', 'E', 'F', 'G', 'H']",5903297.564102564,13569.717948717947,440.3846153846154,23,299,1993/11,28,SHEUNG SHUI CTR,上水中心,True,6.0,2117.0,POINT Z (22.5008858 114.1299577 0),22.500885800000002,114.1299577
44,"GREENPARK VILLA(Block 5),KAT CHEUNG CRES|蔚翠花園5座,吉祥街",NSS,5892898.0,9925.0,554.0,5974890.0,9228.0,554.0,7486150.0,10848.0,730.0,3.0,8.0,11.0,"['A', 'B', 'C', 'D', 'E', 'F', 'G', 'H']",7123217.416666667,10197.083333333334,699.6666666666666,12,96,1994/01,27,GREENPARK VILLA,蔚翠花園,True,6.0,544.0,POINT Z (22.4948766 114.1333337 0),22.4948766,114.13333370000001
45,"METROPOLIS PLAZA(Block 1),LUNG WAN ST|新都廣場1座,龍運街",NSS,5407484.999999999,12058.0,435.0,5678925.0,12496.0,435.0,6549664.0,13348.0,506.0,8.0,16.0,23.0,"['A', 'B', 'C', 'D', 'E', 'F', 'G', 'H']",6061318.875,12701.375,477.5,24,192,1991/03,30,METROPOLIS PLAZA,新都廣場,True,3.0,592.0,POINT Z (22.5024264 114.1290487 0),22.5024264,114.1290487
46,"CHEERFUL PARK(Block 4),KAT CHEUNG CRES|欣翠花園4座,吉祥街",NSS,5591084.0,9106.0,614.0,5915890.0,9223.0,614.0,7411378.0,10109.0,793.0,3.0,6.0,10.0,"['A', 'B', 'C', 'D', 'E', 'F', 'G', 'H']",6493341.541666667,9554.208333333334,681.0,12,96,1992/04,29,CHEERFUL PARK,欣翠花園,True,4.0,384.0,POINT Z (22.4957045 114.132393 0),22.495704500000002,114.132393
47,"PARIS COURT(Block 3,SHEUNG SHUI TOWN CTR),CHI CHEONG RD|上水名都,3座(巴黎閣),智昌路",NSS,4027114.0,10508.0,377.0,4216544.0,10784.0,377.0,5616824.0,12547.0,461.0,5.0,13.0,21.0,"['A', 'B', 'C', 'D', 'E', 'F', 'G', 'H']",4785730.041666667,11764.583333333334,406.8333333333333,25,200,1992/08,29,SHEUNG SHUI TOWN CTR,上水名都,True,4.0,784.0,POINT Z (22.5009463 114.1315105 0),22.500946300000003,114.1315105
48,"WOODLAND CREST(Block 9),TIN PING RD|奕翠園9座,天平路",NSS,9331422.519463712,9497.0,937.0,9693900.960770596,9754.0,937.0,14687384.179506762,10326.0,1478.0,2.0,6.0,9.0,"['A', 'B', 'C', 'D', 'E', 'F', 'G']",10776404.751419494,9932.809523809525,1062.4285714285713,9,63,1996/04,25,WOODLAND CREST,奕翠園,True,8.0,558.0,POINT Z (22.5065026 114.133322 0),22.5065026,114.13332199999999
49,"WOODLAND CREST(Block 8),TIN PING RD|奕翠園8座,天平路",NSS,8782344.221917663,9022.0,935.0,8876119.525224257,9119.0,935.0,9872749.489417879,9722.0,1030.0,2.0,6.0,9.0,"['A', 'B', 'C', 'D', 'E', 'F', 'G', 'H']",9325076.709756026,9316.875,981.25,9,72,1996/04,25,WOODLAND CREST,奕翠園,True,8.0,558.0,POINT Z (22.5063978 114.1330201 0),22.506397800000002,114.13302009999998
50,"AMBER COURT(Block 1,FANLING TOWN CTR),FANLING STATION RD|粉嶺名都,1座(雅碧閣),粉嶺車站路",NSS,4530424.0,11022.0,376.0,4637960.0,11459.0,376.0,5700912.0,13106.0,456.0,5.0,12.0,18.0,"['A', 'B', 'C', 'D', 'E', 'F', 'G', 'H']",5025770.041666667,12356.583333333334,407.5,22,176,1993/05,28,FANLING TOWN CTR,粉嶺名都,True,7.0,1688.0,POINT Z (22.4918335 114.1401071 0),22.4918335,114.1401071
51,"GREENPARK VILLA(Block 6),KAT CHEUNG CRES|蔚翠花園6座,吉祥街",NSS,6925490.0,9632.0,715.0,7049900.0,9768.0,715.0,7368732.0,10216.0,729.0,3.0,8.0,11.0,"['A', 'B', 'C', 'D', 'E', 'F', 'G', 'H']",7127020.0,9871.583333333334,722.0,12,96,1994/01,27,GREENPARK VILLA,蔚翠花園,True,6.0,544.0,POINT Z (22.4951099 114.1336136 0),22.4951099,114.13361359999999
52,"EDEN GARDEN,WAI HON RD|海裕苑,維翰路",NSS,9962242.834097007,7137.0,1077.0,10076930.551981436,7218.0,1077.0,12026213.196023691,9391.0,1193.0,2.0,6.0,10.0,"['10A', '10B', '11B', '12A', '15B', '16B', '18B', '1A', '2A', '3A', '3B', '4A', '5A', '7B', '8A', '9A', 'A', 'B']",11249292.270832429,7618.481481481482,1164.111111111111,12,216,1992/12,29,blank,,False,,,POINT Z (22.4951548 114.1300125 0),22.4951548,114.1300125
53,"ELEGANT COURT(Block 5,FANLING TOWN CTR),FANLING STATION RD|粉嶺名都,5座(怡景閣),粉嶺車站路",NSS,4642848.0,11491.0,376.0,4741736.0,11723.0,376.0,5512128.0,12959.0,456.0,5.0,12.0,19.0,"['A', 'B', 'C', 'D', 'E', 'F', 'G', 'H']",5017981.208333333,12338.041666666666,407.5,23,184,1993/05,28,FANLING TOWN CTR,粉嶺名都,True,7.0,1688.0,POINT Z (22.4918335 114.1401071 0),22.4918335,114.1401071
54,"COMFORT COURT,LUEN WO RD|錦福大廈,聯和道",NSS,3697878.709795491,7797.0,342.0,3757888.543787746,7916.0,342.0,4547534.160172812,8437.0,428.0,3.0,8.0,11.0,"['A', 'B', 'C', 'D']",4013493.9606545456,8165.88888888889,385.0,12,48,1994/02,27,blank,,False,,,POINT Z (22.4990197 114.1438773 0),22.499019699999998,114.1438773
55,"SHEUNG SHUI CTR(Block 5),CHI CHEONG RD|上水中心5座,智昌路",NSS,4598884.0,12902.0,353.0,4690664.0,13167.0,353.0,7289910.0,15075.0,535.0,6.0,13.0,20.0,"['5A', '5B', '5C', '5D', '5E', '5F', '5G', 'A', 'B', 'C', 'D', 'E', 'F', 'G', 'H']",5884136.822222223,13368.533333333333,440.8666666666666,23,345,1993/11,28,SHEUNG SHUI CTR,上水中心,True,6.0,2117.0,POINT Z (22.5009195 114.1303028 0),22.500919500000002,114.1303028
56,"DRAGON COURT(Block 4,FANLING TOWN CTR),FANLING STATION RD|粉嶺名都,4座(龍騰閣),粉嶺車站路",NSS,4615024.0,11500.0,376.0,4698496.0,11244.0,376.0,5622024.0,12929.0,456.0,5.0,13.0,21.0,"['A', 'B', 'C', 'D', 'E', 'F', 'G', 'H']",5037455.583333333,12373.541666666666,407.75,25,200,1993/05,28,FANLING TOWN CTR,粉嶺名都,True,7.0,1688.0,POINT Z (22.4918335 114.1401071 0),22.4918335,114.1401071
57,"GREENPARK VILLA(Block 4),KAT CHEUNG CRES|蔚翠花園4座,吉祥街",NSS,6954090.0,9726.0,715.0,7049900.0,9860.0,715.0,7744776.0,10712.0,730.0,3.0,8.0,11.0,"['A', 'B', 'C', 'D', 'E', 'F', 'G', 'H']",7377762.083333333,10251.916666666666,719.625,12,96,1994/01,27,GREENPARK VILLA,蔚翠花園,True,6.0,544.0,POINT Z (22.4951326 114.133113 0),22.4951326,114.133113
58,"GREENPARK VILLA(Block 1),KAT CHEUNG CRES|蔚翠花園1座,吉祥街",NSS,5566686.0,9100.0,538.0,5662988.0,9363.0,538.0,8239659.18334527,10626.0,845.0,3.0,8.0,11.0,"['A', 'B', 'C', 'D', 'E', 'F']",7246306.570884601,9751.555555555557,732.3333333333334,12,72,1994/01,27,GREENPARK VILLA,蔚翠花園,True,6.0,544.0,POINT Z (22.4959617 114.1328343 0),22.4959617,114.13283429999998
59,"METROPOLIS PLAZA(Block 2),LUNG WAN ST|新都廣場2座,龍運街",NSS,5316588.0,11581.0,414.0,5492538.0,12185.0,414.0,7745332.0,13730.0,602.0,8.0,16.0,24.0,"['A', 'B', 'C', 'D', 'E', 'F', 'G', 'H']",6203428.708333333,12937.666666666666,480.75,25,200,1991/03,30,METROPOLIS PLAZA,新都廣場,True,3.0,592.0,POINT Z (22.5020588 114.1297509 0),22.5020588,114.1297509
60,"CANARY COURT(Block 3,FANLING TOWN CTR),FANLING STATION RD|粉嶺名都,3座(嘉蘭閣),粉嶺車站路",NSS,4567648.0,11134.0,376.0,4671800.0,11403.0,376.0,5551800.0,13140.0,456.0,5.0,13.0,21.0,"['A', 'B', 'C', 'D', 'E', 'F', 'G', 'H']",5012373.041666667,12327.208333333334,407.5,25,200,1993/05,28,FANLING TOWN CTR,粉嶺名都,True,7.0,1688.0,POINT Z (22.492305 114.13987 0),22.492304999999998,114.13987
61,"GRAND TOWER(Block B),LUEN WO RD|嘉宏中心B座,聯和道",NSS,3706105.807547121,12193.0,297.0,3656865.3301565987,12031.0,297.0,3663495.0,12335.0,297.0,4.0,10.0,15.0,"['A', 'B']",3680026.8560488895,12249.5,297.0,18,36,1992/11,29,GRAND TOWER,嘉宏中心,True,2.0,64.0,POINT Z (22.4978627 114.1427858 0),22.4978627,114.1427858
62,"AVON PARK(Block 8),YAT MING RD|碧湖花園8座,一鳴路",NSS,4894216.0,11285.0,397.0,4980365.0,11456.0,397.0,5824365.0,13303.0,485.0,5.0,12.0,21.0,"['A', 'B', 'C', 'D', 'E', 'F', 'G', 'H']",5263638.208333333,12298.083333333334,429.25,21,168,1994/03,27,AVON PARK,碧湖花園,True,7.0,1328.0,POINT Z (22.4868427 114.1433249 0),22.4868427,114.14332490000001
63,"VIENNA GARDEN(Block 2),KAT CHEUNG CRES|維也納花園2座,吉祥街",NSS,4659544.0,8610.0,478.0,4715470.0,8685.0,478.0,6461364.0,9977.0,732.0,3.0,6.0,10.0,"['A', 'B', 'C', 'D', 'E', 'F', 'G', 'H']",5771573.0,9117.916666666666,637.75,12,96,1993/03,28,VIENNA GARDEN,維也納花園,True,3.0,288.0,POINT Z (22.4958096 114.1306279 0),22.4958096,114.13062790000001
64,"VIENNA GARDEN(Block 1),KAT CHEUNG CRES|維也納花園1座,吉祥街",NSS,4757056.0,8728.0,476.0,4819196.0,8971.0,476.0,6789299.999999999,10452.0,732.0,3.0,6.0,10.0,"['A', 'B', 'C', 'D', 'E', 'F', 'G', 'H']",5928393.791666667,9369.416666666666,637.5,12,96,1993/03,28,VIENNA GARDEN,維也納花園,True,3.0,288.0,POINT Z (22.4959228 114.130326 0),22.4959228,114.130326
65,"GRAND TOWER(Block A),LUEN WO RD|嘉宏中心A座,聯和道",NSS,3647457.0,12281.0,297.0,3693195.0,12435.0,297.0,3913568.9999999995,13177.0,297.0,4.0,8.0,13.0,"['A', 'B']",3837190.5,12919.833333333334,297.0,14,28,1992/11,29,GRAND TOWER,嘉宏中心,True,2.0,64.0,POINT Z (22.4977503 114.1426697 0),22.4977503,114.1426697
66,"BRILLIANT COURT(Block 2,FANLING TOWN CTR),FANLING STATION RD|粉嶺名都,2座(百利閣),粉嶺車站路",NSS,4713536.0,11496.0,376.0,4794752.0,11734.0,376.0,5599223.999999999,13085.0,456.0,5.0,12.0,19.0,"['A', 'B', 'C', 'D', 'E', 'F', 'G', 'H']",5027741.833333333,12358.458333333334,407.5,23,184,1993/05,28,FANLING TOWN CTR,粉嶺名都,True,7.0,1688.0,POINT Z (22.4918335 114.1401071 0),22.4918335,114.1401071
67,"WOODLAND CREST(Block 5),TIN PING RD|奕翠園5座,天平路",NSS,8970258.140030077,8974.0,865.0,9063209.596134206,9071.0,865.0,13773595.377612118,10316.0,1472.0,2.0,6.0,9.0,"['A', 'B', 'C', 'D', 'E', 'F', 'G']",10369288.850525528,9868.952380952382,1033.2857142857142,9,63,1996/04,25,WOODLAND CREST,奕翠園,True,8.0,558.0,POINT Z (22.507535 114.1331362 0),22.507535,114.1331362
68,"AVON PARK(Block 1),YAT MING RD|碧湖花園1座,一鳴路",NSS,4835857.0,10936.0,397.0,4979968.0,12161.0,397.0,6209939.999999999,13146.0,488.0,6.0,16.0,25.0,"['A', 'B', 'C', 'D', 'E', 'F', 'G', 'H']",5322362.791666667,12410.791666666666,429.625,25,200,1994/03,27,AVON PARK,碧湖花園,True,7.0,1328.0,POINT Z (22.4872208 114.142796 0),22.487220800000003,114.14279599999999
69,"CHEERFUL PARK(Block 2),KAT CHEUNG CRES|欣翠花園2座,吉祥街",NSS,4308578.0,9978.0,382.0,4349452.0,10063.0,382.0,6965504.0,11833.0,676.0,3.0,6.0,10.0,"['A', 'B', 'C', 'D', 'E', 'F', 'G', 'H']",5571825.958333333,10818.416666666666,524.75,12,96,1992/04,29,CHEERFUL PARK,欣翠花園,True,4.0,384.0,POINT Z (22.4957894 114.1317195 0),22.495789399999996,114.1317195
70,"OTB BLDG FANLING,LUEN HING ST|粉嶺海外大廈,聯興街",NSS,,,315.0,,,315.0,,,396.0,2.0,2.0,4.0,"['A', 'D']",,,355.5,4,8,1984/01,37,blank,,False,,,POINT Z (22.498096 114.142534 0),22.498096,114.14253400000001
71,"FORTUNE HSE,CHI FUK CIRT|廣福苑,置福圍",NSS,8509635.446711851,7241.0,908.0,8589666.31780839,7316.0,908.0,14966833.308647906,9528.0,1816.0,3.0,6.0,9.0,"['A', 'B', 'C', 'D', 'E']",9337022.141701525,8492.266666666666,982.5333333333333,9,45,1996/09,25,blank,,False,,,POINT Z (22.4919322 114.1363876 0),22.491932199999997,114.13638759999999
72,"WO FUNG COURT,WO FUNG ST|和豐閣,和豐街",NSS,4459925.997802009,7496.0,428.0,4484455.1527692955,7547.0,428.0,5585306.393431691,10323.0,537.0,4.0,6.0,9.0,"['A', 'B', 'C', 'D']",5007920.139943822,8995.916666666666,482.5,10,40,1991/03,30,blank,,False,,,POINT Z (22.4981563 114.14224 0),22.498156299999998,114.14223999999999
73,"CHEERFUL PARK(Block 3),KAT CHEUNG CRES|欣翠花園3座,吉祥街",NSS,4402550.0,9732.0,382.0,4499960.0,9820.0,382.0,6726876.0,12107.0,676.0,3.0,6.0,10.0,"['A', 'B', 'C', 'D', 'E', 'F', 'G', 'H']",5549884.041666667,10855.25,524.75,12,96,1992/04,29,CHEERFUL PARK,欣翠花園,True,4.0,384.0,POINT Z (22.4956433 114.1320911 0),22.4956433,114.13209109999998
74,"WOODLAND CREST(Block 3),TIN PING RD|奕翠園3座,天平路",NSS,8963196.592580382,9204.0,935.0,9067497.695237717,9311.0,935.0,9903410.933126988,9835.0,1030.0,2.0,6.0,9.0,"['A', 'B', 'C', 'D', 'E', 'F', 'G', 'H']",9454851.36913155,9427.625,981.25,9,72,1996/04,25,WOODLAND CREST,奕翠園,True,8.0,558.0,POINT Z (22.5073866 114.1328343 0),22.5073866,114.13283429999998
75,"CHOW WU HSE(Block F,YUK PO COURT),CHOI YUEN RD|旭埔苑,F座(周湖閣),彩園路",NSS,,,546.0,,,546.0,,,546.0,4.0,10.0,16.0,"['1', '2', '3', '4', '5', '6', '7', '8']",,,546.0,18,144,1982/12,39,YUK PO COURT,旭埔苑,True,8.0,970.0,POINT Z (22.499941 114.128293 0),22.499941,114.128293
76,"HON WU HSE(Block D,YUK PO COURT),CHOI YUEN RD|旭埔苑,D座(漢湖閣),彩園路",NSS,4920552.0,9012.0,546.0,5042856.0,9236.0,546.0,5201196.0,9526.0,546.0,4.0,10.0,16.0,"['1', '2', '3', '4', '5', '6', '7', '8']",5092428.25,9326.791666666666,546.0,19,152,1982/12,39,YUK PO COURT,旭埔苑,True,8.0,970.0,POINT Z (22.499941 114.128293 0),22.499941,114.128293
77,"TONG WU HSE(Block C,YUK PO COURT),CHOI YUEN RD|旭埔苑,C座(唐湖閣),彩園路",NSS,3469830.0,6355.0,546.0,3494946.0,6401.0,546.0,3590496.0,6576.0,546.0,4.0,10.0,15.0,"['2', '3', '4', '5', '6', '7']",3518424.0,6444.0,546.0,16,96,1982/12,39,YUK PO COURT,旭埔苑,True,8.0,970.0,POINT Z (22.499941 114.128293 0),22.499941,114.128293
78,"GOOD VIEW NEW VILLAGE(Block 9C),LING SHAN RD|美景新村9C座,靈山路",NSS,,,350.0,,,350.0,,,453.0,0.0,1.0,2.0,"['2', '3', '4', '5', '6']",,,405.6000000000001,3,15,1983/06,38,GOOD VIEW NEW VILLAGE,美景新村,True,3.0,40.0,POINT Z (22.5028465 114.1381642 0),22.5028465,114.1381642
79,"SEUNG WU HSE(Block G,YUK PO COURT),CHOI YUEN RD|旭埔苑,G座(商湖閣),彩園路",NSS,4899970.932486754,8769.0,546.0,4964231.014278973,8884.0,546.0,5090516.044583684,9110.0,546.0,4.0,8.0,15.0,"['1', '2', '3', '4', '5', '6', '7', '8']",4984905.997116471,8921.0,546.0,16,128,1982/12,39,YUK PO COURT,旭埔苑,True,8.0,970.0,POINT Z (22.499941 114.128293 0),22.499941,114.128293
80,"GOOD VIEW NEW VILLAGE(Block 4B),LING SHAN RD|美景新村4B座,靈山路",NSS,2977330.0092999656,6363.0,350.0,3023653.3899255665,6407.0,350.0,3344228.2520424873,8420.0,367.0,0.0,1.0,2.0,"['1', '3', '4', '5', '6']",3171247.151168304,7032.2,359.0,3,15,1983/06,38,GOOD VIEW NEW VILLAGE,美景新村,True,3.0,40.0,POINT Z (22.502541 114.1383036 0),22.502541,114.13830359999999
81,"GOOD VIEW NEW VILLAGE(Block 13B),LING SHAN RD|美景新村13B座,靈山路",NSS,2205157.8794196863,2850.0,350.0,2196752.9117573104,2859.0,350.0,2290633.125883322,2893.0,367.0,1.0,2.0,2.0,"['1', '2', '4', '5', '6']",2387690.6771186865,3487.3333333333335,358.6000000000001,2,10,1983/06,38,GOOD VIEW NEW VILLAGE,美景新村,True,3.0,40.0,POINT Z (22.5029623 114.1375023 0),22.502962300000004,114.13750230000001
82,"TSUN WU HSE(Block H,YUK PO COURT),CHOI YUEN RD|旭埔苑,H座(秦湖閣),彩園路",NSS,4313248.446557789,7719.0,546.0,4398183.511187506,7871.0,546.0,4944030.0,9055.0,546.0,3.0,9.0,15.0,"['1', '2', '4', '5', '6', '7']",4498639.375636079,8087.022222222222,546.0,19,114,1982/12,39,YUK PO COURT,旭埔苑,True,8.0,970.0,POINT Z (22.499941 114.128293 0),22.499941,114.128293
83,6-20 SAN LOK ST|6-20 新樂街,NSS,6109254.730491463,7295.0,630.0,6100042.694571599,7284.0,630.0,6285120.870779771,7505.0,630.0,1.0,2.0,2.0,"['A', 'C', 'E', 'F']",6211564.159722677,7417.166666666667,630.0,2,8,1974/04,47,blank,,False,,,POINT Z (22.5039286 114.1286449 0),22.503928600000002,114.1286449
84,"MING WU HSE(Block B,YUK PO COURT),CHOI YUEN RD|旭埔苑,B座(明湖閣),彩園路",NSS,4748540.652785088,8498.0,546.0,4842975.033853655,8667.0,546.0,5053636.3454681495,9044.0,546.0,3.0,10.0,16.0,"['1', '2', '3', '4', '5', '6', '8']",4880147.428993916,8733.52380952381,546.0,18,126,1982/12,39,YUK PO COURT,旭埔苑,True,8.0,970.0,POINT Z (22.499941 114.128293 0),22.499941,114.128293
85,"YAN HEI HSE(Block C,Phase 1,YAN SHING COURT),15 WAH MING RD|欣盛苑,1期,C座(欣喜閣),15 華明路",NSS,2816223.0,6363.0,401.0,2914869.0,6594.0,401.0,4391805.0,7502.0,645.0,6.0,18.0,29.0,"['1', '10', '2', '3', '4', '5', '6', '7', '8', '9']",3615059.014285715,6902.009523809524,511.0,32,320,1993/09,28,YAN SHING COURT,欣盛苑,True,7.0,2135.0,POINT Z (22.487455 114.139492 0),22.487454999999997,114.13949199999999
86,"YAN YIU HSE(Block E,Phase 2,YAN SHING COURT),15 WAH MING RD|欣盛苑,2期,E座(欣耀閣),15 華明路",NSS,2691111.0,6126.0,401.0,2776524.0,6336.0,401.0,4229265.0,7170.0,645.0,7.0,18.0,30.0,"['1', '10', '2', '3', '4', '5', '6', '7', '8', '9']",3394067.5999999996,6684.733333333333,511.0,33,330,1993/09,28,YAN SHING COURT,欣盛苑,True,7.0,2135.0,POINT Z (22.4871847 114.1392441 0),22.487184699999997,114.13924409999998
87,"YAN CHOI HSE(Block F,Phase 2,YAN SHING COURT),15 WAH MING RD|欣盛苑,2期,F座(欣彩閣),15 華明路",NSS,2648605.0,6392.0,401.0,2738429.0,6503.0,401.0,4660770.0,7226.0,645.0,6.0,18.0,30.0,"['1', '10', '2', '3', '4', '5', '6', '7', '8', '9']",3449330.5,6756.066666666667,511.0,33,330,1993/09,28,YAN SHING COURT,欣盛苑,True,7.0,2135.0,POINT Z (22.487063 114.138537 0),22.487063,114.13853700000001
88,"SUNNINGDALE GARDEN(Block 4),CHI CHEONG RD|順欣花園4座,智昌路",NSS,3314346.0,6496.0,428.0,3371340.0,6604.0,428.0,4462938.924713878,8628.0,583.0,6.0,12.0,18.0,"['A', 'B', 'C', 'D', 'E', 'F', 'G', 'H', 'J', 'K']",4042375.9268100057,7330.866666666666,530.1,19,190,1992/05,29,SUNNINGDALE GARDEN,順欣花園,True,4.0,676.0,POINT Z (22.5019123 114.1316496 0),22.5019123,114.1316496
89,"SUNNINGDALE GARDEN(Block 3),CHI CHEONG RD|順欣花園3座,智昌路",NSS,4398128.0,9793.0,428.0,4472600.0,9953.0,428.0,6027774.0,10737.0,583.0,4.0,10.0,18.0,"['A', 'B', 'C', 'D', 'E', 'F', 'G', 'H', 'J']",5349312.296296296,10190.851851851852,526.2222222222222,20,180,1992/05,29,SUNNINGDALE GARDEN,順欣花園,True,4.0,676.0,POINT Z (22.5015557 114.1320679 0),22.5015557,114.1320679
90,"WING FOK CTR(Block 4),LUEN CHIT ST|榮福中心4座,聯捷街",NSS,3940202.0,8565.0,431.0,4044073.0,8796.0,431.0,5319120.0,9627.0,592.0,5.0,15.0,24.0,"['A', 'B', 'C', 'E', 'F', 'H', 'J', 'K']",4697886.333333333,9021.666666666666,522.625,27,216,1993/09,28,WING FOK CTR,榮福中心,True,6.0,1303.0,POINT Z (22.5017465 114.1403589 0),22.5017465,114.14035890000001
91,"YAN YUET HSE(Block D,Phase 1,YAN SHING COURT),15 WAH MING RD|欣盛苑,1期,D座(欣悅閣),15 華明路",NSS,2668254.0,6290.0,401.0,2759682.0,6568.0,401.0,4560150.0,7365.0,645.0,10.0,20.0,30.0,"['1', '10', '3', '4', '5', '6', '7', '8', '9']",3411782.3333333335,6770.111111111112,506.22222222222223,27,243,1993/09,28,YAN SHING COURT,欣盛苑,True,7.0,2135.0,POINT Z (22.4874713 114.1394996 0),22.487471300000003,114.13949960000001
92,"YAN FAI HSE(Block G,Phase 2,YAN SHING COURT),15 WAH MING RD|欣盛苑,2期,G座(欣輝閣),15 華明路",NSS,2639618.7176478906,6432.0,401.0,2736880.7879343564,6562.0,401.0,4448421.81593505,6961.0,645.0,7.0,19.0,30.0,"['1', '10', '2', '3', '4', '5', '6', '7', '8', '9']",3395615.943561179,6721.73611111111,511.0,31,310,1993/09,28,YAN SHING COURT,欣盛苑,True,7.0,2135.0,POINT Z (22.486115 114.139083 0),22.486114999999998,114.13908300000001
93,"LUEN WO CTR,WO FUNG ST|聯和中心,和豐街",NSS,2846915.0483907047,8666.0,321.0,2856770.512440061,8696.0,321.0,3075561.8143357695,9362.0,321.0,3.0,4.0,5.0,"['A', 'C']",2976842.9161080513,9061.5,321.0,3,6,1991/04,30,blank,,False,,,POINT Z (22.4989831 114.1430761 0),22.4989831,114.14307609999999
94,"SUNNINGDALE GARDEN(Block 1),CHI CHEONG RD|順欣花園1座,智昌路",NSS,2962187.9999999995,6419.0,428.0,3019968.0,6554.0,428.0,3942246.0000000005,7856.0,583.0,6.0,11.0,17.0,"['A', 'B', 'C', 'E', 'F', 'G', 'J', 'K']",3561823.2916666665,6896.625,519.0,17,136,1992/05,29,SUNNINGDALE GARDEN,順欣花園,True,4.0,676.0,POINT Z (22.5015399 114.1327181 0),22.501539899999997,114.13271809999999
95,"SUNNINGDALE GARDEN(Block 2),CHI CHEONG RD|順欣花園2座,智昌路",NSS,3106852.0,6946.0,428.0,3144088.0,7031.0,428.0,4187689.0,7568.0,583.0,7.0,12.0,18.0,"['A', 'B', 'C', 'D', 'E', 'F', 'G', 'H', 'J', 'K']",3809322.4666666663,7182.666666666667,531.8,17,170,1992/05,29,SUNNINGDALE GARDEN,順欣花園,True,4.0,676.0,POINT Z (22.5012935 114.1323466 0),22.5012935,114.1323466
96,"WING FOK CTR(Block 3),LUEN CHIT ST|榮福中心3座,聯捷街",NSS,2747625.0,5979.0,431.0,2822618.9999999995,6141.0,431.0,3845581.0,6802.0,592.0,5.0,14.0,23.0,"['A', 'B', 'C', 'D', 'E', 'F', 'G', 'H', 'J', 'K']",3381647.5666666664,6333.533333333333,535.6,27,270,1993/09,28,WING FOK CTR,榮福中心,True,6.0,1303.0,POINT Z (22.501383 114.1404518 0),22.501382999999997,114.1404518
97,"YAN LAI HSE(Block B,Phase 1,YAN SHING COURT),15 WAH MING RD|欣盛苑,1期,B座(欣麗閣),15 華明路",NSS,2729206.0,6806.0,401.0,2833065.0,7065.0,401.0,4950375.0,7675.0,645.0,6.0,18.0,30.0,"['1', '10', '2', '3', '4', '5', '6', '7', '8', '9']",3373823.3888888885,7202.222222222223,511.0,33,330,1993/09,28,YAN SHING COURT,欣盛苑,True,7.0,2135.0,POINT Z (22.487046 114.140489 0),22.487046,114.14048899999999
98,"FANLING CTR(Phase 2),Block K,SAN WAN RD|粉嶺中心2期,K座,新運路",NSS,4655817.0,11390.0,361.0,4748955.0,12313.0,361.0,6693887.999999999,13799.0,512.0,7.0,15.0,23.0,"['1', '2', '3', '4', '5', '6', '7', '8']",5842834.94047619,12866.642857142857,454.4166666666667,25,200,1991/12,30,FANLING CTR,粉嶺中心,True,11.0,2200.0,POINT Z (22.4910725 114.1412646 0),22.4910725,114.1412646
99,"FANLING CTR(Phase 1),Block A,SAN WAN RD|粉嶺中心1期,A座,新運路",NSS,4762875.0,11148.0,375.0,4768125.0,11288.0,375.0,6383840.0,13344.0,544.0,7.0,15.0,23.0,"['1', '2', '3', '4', '5', '6', '7', '8']",5722070.166666667,12016.75,479.3333333333333,25,200,1990/12,31,FANLING CTR,粉嶺中心,True,11.0,2200.0,POINT Z (22.4900018 114.1425187 0),22.4900018,114.1425187
100,"FANLING CTR(Phase 1),Block D,SAN WAN RD|粉嶺中心1期,D座,新運路",NSS,4827000.0,10864.0,375.0,4920375.0,10458.0,375.0,6110208.0,13597.0,544.0,7.0,15.0,23.0,"['1', '2', '3', '4', '5', '6', '7', '8']",5559656.208333333,11689.291666666666,479.6666666666667,25,200,1990/12,31,FANLING CTR,粉嶺中心,True,11.0,2200.0,POINT Z (22.4906428 114.1417756 0),22.4906428,114.1417756
101,"FANLING CTR(Phase 1),Block G,SAN WAN RD|粉嶺中心1期,G座,新運路",NSS,4606875.0,11382.0,375.0,4717875.0,11721.0,375.0,6591104.0,13452.0,544.0,7.0,15.0,23.0,"['1', '2', '3', '4', '5', '6', '7', '8']",5573150.208333333,12371.666666666666,454.0,25,200,1990/12,31,FANLING CTR,粉嶺中心,True,11.0,2200.0,POINT Z (22.4904219 114.1413807 0),22.490421899999998,114.1413807
102,"SIN HUA BANK BLDG,LUEN SHING ST|新華銀行大廈,聯盛街",NSS,4544938.168264522,2995.0,492.0,4585910.89966457,3022.0,492.0,5200848.118128129,10329.0,492.0,4.0,7.0,10.0,"['A', 'B']",4874997.588367143,6640.0,492.0,11,22,1989/02,32,blank,,False,,,POINT Z (22.4988738 114.1432154 0),22.498873800000002,114.14321540000002
103,"DAWNING VIEWS(Block 5),YAT MING RD|牽晴間5座,一鳴路",NSS,4967529.999999999,11824.0,389.0,5186805.0,11774.0,389.0,7189420.0,13766.0,577.0,8.0,17.0,26.0,"['A', 'B', 'C', 'D', 'E', 'F', 'G', 'H']",5765445.5,12941.583333333334,448.5,29,232,1999/06,22,DAWNING VIEWS,牽晴間,True,12.0,2784.0,POINT Z (22.4868693 114.1445392 0),22.4868693,114.1445392
104,"DAWNING VIEWS(Block 4),YAT MING RD|牽晴間4座,一鳴路",NSS,5015377.0,11774.0,388.0,5156195.0,12035.0,388.0,7174714.0,14285.0,578.0,8.0,17.0,26.0,"['A', 'B', 'C', 'D', 'E', 'F', 'G', 'H']",5659448.375,13152.708333333334,432.625,29,232,1999/06,22,DAWNING VIEWS,牽晴間,True,12.0,2784.0,POINT Z (22.4866087 114.1439818 0),22.4866087,114.14398179999999
105,"DAWNING VIEWS(Block 7),YAT MING RD|牽晴間7座,一鳴路",NSS,4951192.0,11632.0,389.0,5255431.0,12152.0,389.0,8835696.0,13998.0,724.0,8.0,17.0,26.0,"['A', 'B', 'C', 'D', 'E', 'F', 'G', 'H']",6060004.875,13132.833333333334,466.125,29,232,1999/06,22,DAWNING VIEWS,牽晴間,True,12.0,2784.0,POINT Z (22.4864469 114.1450037 0),22.486446899999997,114.1450037
106,"DAWNING VIEWS(Block 6),YAT MING RD|牽晴間6座,一鳴路",NSS,4817595.0,11874.0,389.0,5095495.0,12233.0,389.0,7521772.0,14035.0,577.0,8.0,17.0,26.0,"['A', 'B', 'C', 'D', 'E', 'F', 'G', 'H']",5853089.916666667,13111.333333333334,448.5,29,232,1999/06,22,DAWNING VIEWS,牽晴間,True,12.0,2784.0,POINT Z (22.48664 114.1447482 0),22.486639999999998,114.14474820000001
107,"DAWNING VIEWS(Block 3),YAT MING RD|牽晴間3座,一鳴路",NSS,4994336.0,11478.0,388.0,5166608.0,11735.0,388.0,7248120.0,13933.0,578.0,8.0,17.0,26.0,"['A', 'B', 'C', 'D', 'E', 'F', 'G', 'H']",5779419.166666667,12905.75,451.5,29,232,1999/06,22,DAWNING VIEWS,牽晴間,True,12.0,2784.0,POINT Z (22.4867509 114.1437728 0),22.4867509,114.1437728
108,"DAWNING VIEWS(Block 1),YAT MING RD|牽晴間1座,一鳴路",NSS,5154580.0,11659.0,388.0,5211616.0,12288.0,388.0,7380700.0,13986.0,575.0,8.0,17.0,26.0,"['A', 'B', 'C', 'D', 'E', 'F', 'G', 'H']",5879359.333333333,13221.125,447.5,29,232,1999/06,22,DAWNING VIEWS,牽晴間,True,12.0,2784.0,POINT Z (22.4870983 114.1432881 0),22.4870983,114.1432881
109,"DAWNING VIEWS(Block 11),YAT MING RD|牽晴間11座,一鳴路",NSS,5064002.0,12036.0,389.0,5214156.0,12069.0,389.0,7986861.0,14138.0,639.0,8.0,17.0,26.0,"['A', 'B', 'C', 'D', 'E', 'F', 'G', 'H']",5968918.25,13318.5,451.625,29,232,1999/06,22,DAWNING VIEWS,牽晴間,True,12.0,2784.0,POINT Z (22.4877572 114.1438889 0),22.487757199999997,114.1438889
110,"DAWNING VIEWS(Block 12),YAT MING RD|牽晴間12座,一鳴路",NSS,5171481.0,11603.0,387.0,5343696.0,11923.0,387.0,8799122.0,14119.0,719.0,8.0,17.0,26.0,"['A', 'B', 'C', 'D', 'E', 'F', 'G', 'H']",6487768.666666667,13046.375,506.125,29,232,1999/06,22,DAWNING VIEWS,牽晴間,True,12.0,2784.0,POINT Z (22.4877927 114.1438772 0),22.4877927,114.1438772
111,"DAWNING VIEWS(Block 2),YAT MING RD|牽晴間2座,一鳴路",NSS,4683012.0,11796.0,388.0,5039914.999999999,11950.0,388.0,7171246.0,13754.0,578.0,8.0,17.0,26.0,"['A', 'B', 'C', 'D', 'E', 'F', 'G', 'H']",5702924.375,12696.125,451.5,29,232,1999/06,22,DAWNING VIEWS,牽晴間,True,12.0,2784.0,POINT Z (22.4869439 114.1435173 0),22.4869439,114.1435173
112,"MOON WAH BLDG,SAN FUNG AVE|滿華大廈,新豐路",NSS,3223171.6945258835,7177.0,415.0,3223171.6945258835,7177.0,415.0,3802710.846896963,7615.0,516.0,4.0,4.0,5.0,"['A', 'B', 'D', 'F', 'G', 'H']",3528107.9054006007,7431.055555555556,464.6666666666667,2,12,1981/07,40,blank,,False,,,POINT Z (22.5033435 114.1264243 0),22.5033435,114.1264243
113,"DAWNING VIEWS(Block 9),YAT MING RD|牽晴間9座,一鳴路",NSS,4874948.0,11625.0,389.0,5044941.0,11797.0,389.0,7914654.0,13988.0,639.0,8.0,17.0,26.0,"['A', 'B', 'C', 'D', 'E', 'F', 'G', 'H']",5840849.125,12997.208333333334,452.625,29,232,1999/06,22,DAWNING VIEWS,牽晴間,True,12.0,2784.0,POINT Z (22.4874678 114.144848 0),22.4874678,114.144848
114,"DAWNING VIEWS(Block 10),YAT MING RD|牽晴間10座,一鳴路",NSS,5112716.0,12173.0,389.0,5252303.0,12554.0,389.0,7192640.0,13932.0,560.0,8.0,17.0,26.0,"['A', 'B', 'C', 'D', 'E', 'F', 'G', 'H']",5829440.291666667,13232.625,442.75,29,232,1999/06,22,DAWNING VIEWS,牽晴間,True,12.0,2784.0,POINT Z (22.4875808 114.1445403 0),22.487580800000003,114.14454029999999
115,"FANLING CTR(Phase 1),Block C,SAN WAN RD|粉嶺中心1期,C座,新運路",NSS,4608375.0,11323.0,375.0,4762500.0,11652.0,375.0,6517664.0,13332.0,544.0,7.0,15.0,23.0,"['1', '2', '3', '4', '5', '6', '7', '8']",5730642.041666667,12019.708333333334,479.3333333333333,25,200,1990/12,31,FANLING CTR,粉嶺中心,True,11.0,2200.0,POINT Z (22.4904752 114.1420078 0),22.4904752,114.1420078
116,"FANLING CTR(Phase 1),Block B,SAN WAN RD|粉嶺中心1期,B座,新運路",NSS,4628625.0,11137.0,375.0,4829625.0,11189.0,375.0,6353376.0,13481.0,544.0,7.0,15.0,23.0,"['1', '2', '3', '4', '5', '6', '7', '8']",5612096.416666667,11789.708333333334,479.3333333333333,25,200,1990/12,31,FANLING CTR,粉嶺中心,True,11.0,2200.0,POINT Z (22.490162 114.1423329 0),22.490161999999998,114.14233290000001
117,"DAWNING VIEWS(Block 8),YAT MING RD|牽晴間8座,一鳴路",NSS,5265597.0,11486.0,387.0,5352983.999999999,11810.0,387.0,8704214.0,14223.0,719.0,8.0,17.0,26.0,"['A', 'B', 'C', 'D', 'E', 'F', 'G', 'H']",6457641.708333333,13003.416666666666,506.125,29,232,1999/06,22,DAWNING VIEWS,牽晴間,True,12.0,2784.0,POINT Z (22.4874137 114.1452468 0),22.487413699999998,114.14524679999998
118,"FANLING CTR(Phase 2),Block H,SAN WAN RD|粉嶺中心2期,H座,新運路",NSS,4626576.0,11815.0,361.0,4742457.0,12192.0,361.0,6555619.0,14087.0,511.0,7.0,15.0,23.0,"['1', '2', '3', '4', '5', '6', '7', '8']",5558405.166666667,12938.75,432.75,25,200,1991/12,30,FANLING CTR,粉嶺中心,True,11.0,2200.0,POINT Z (22.4905714 114.1411253 0),22.490571399999997,114.1411253
119,"FANLING CTR(Phase 1),Block E,SAN WAN RD|粉嶺中心1期,E座,新運路",NSS,4735500.0,10673.0,375.0,4854000.0,10996.0,375.0,6383840.0,13458.0,544.0,7.0,15.0,23.0,"['1', '2', '3', '4', '5', '6', '7', '8']",5496942.958333333,12254.625,454.0,25,200,1990/12,31,FANLING CTR,粉嶺中心,True,11.0,2200.0,POINT Z (22.4900465 114.1419613 0),22.4900465,114.14196129999999
120,"FANLING CTR(Phase 2),Block J,SAN WAN RD|粉嶺中心2期,J座,新運路",NSS,4495172.0,11532.0,361.0,4599862.0,11793.0,361.0,6246287.999999999,13102.0,513.0,7.0,15.0,23.0,"['1', '2', '3', '4', '5', '6', '7', '8']",5534582.5,12237.083333333334,454.0833333333333,25,200,1991/12,30,FANLING CTR,粉嶺中心,True,11.0,2200.0,POINT Z (22.4909049 114.1414969 0),22.4909049,114.1414969
121,"FANLING CTR(Phase 1),Block F,SAN WAN RD|粉嶺中心1期,F座,新運路",NSS,4738500.0,11064.0,375.0,4821000.0,11332.0,375.0,6380032.0,13572.0,544.0,7.0,15.0,23.0,"['1', '2', '3', '4', '5', '6', '7', '8']",5529703.041666667,12321.083333333334,454.0,25,200,1990/12,31,FANLING CTR,粉嶺中心,True,11.0,2200.0,POINT Z (22.4901778 114.1416827 0),22.4901778,114.1416827
122,"FANLING CTR(Phase 2),Block L,SAN WAN RD|粉嶺中心2期,L座,新運路",NSS,4691917.0,11837.0,361.0,4846786.0,12200.0,361.0,6462774.0,13896.0,513.0,7.0,15.0,23.0,"['1', '2', '3', '4', '5', '6', '7', '8']",5733071.666666667,12691.75,454.0833333333333,25,200,1991/12,30,FANLING CTR,粉嶺中心,True,11.0,2200.0,POINT Z (22.4912838 114.1410324 0),22.4912838,114.1410324
123,"BELAIR MONTE(Block 5),MA SIK RD|綠悠軒5座,馬適路",NSS,5040780.0,10869.0,435.0,5222610.0,10979.0,435.0,7179781.0,13215.0,619.0,6.0,16.0,25.0,"['A', 'B', 'C', 'D', 'E', 'F', 'G', 'H']",6134986.708333333,11628.75,531.0416666666666,30,240,1998/12,23,BELAIR MONTE,綠悠軒,True,7.0,1680.0,POINT Z (22.5015235 114.1446553 0),22.501523499999998,114.14465530000001
124,"BELAIR MONTE(Block 3),MA SIK RD|綠悠軒3座,馬適路",NSS,4704090.0,10150.0,435.0,4714095.0,10268.0,435.0,6871519.0,12395.0,619.0,6.0,16.0,25.0,"['A', 'B', 'C', 'D', 'E', 'F', 'G', 'H']",5776128.208333333,11034.625,527.0,30,240,1998/12,23,BELAIR MONTE,綠悠軒,True,7.0,1680.0,POINT Z (22.501173 114.1454914 0),22.501173,114.14549140000001
125,"BELAIR MONTE(Block 2),MA SIK RD|綠悠軒2座,馬適路",NSS,5128650.0,10514.0,435.0,5240010.0,10750.0,435.0,7075789.0,12738.0,634.0,6.0,16.0,25.0,"['A', 'B', 'C', 'D', 'E', 'F', 'G', 'H']",6062035.833333333,11599.291666666666,527.625,30,240,1998/12,23,BELAIR MONTE,綠悠軒,True,7.0,1680.0,POINT Z (22.501434 114.14577 0),22.501434,114.14577
126,"BELAIR MONTE(Block 7),MA SIK RD|綠悠軒7座,馬適路",NSS,5009942.0,10559.0,449.0,5148234.0,10887.0,449.0,8194615.0,12122.0,715.0,6.0,16.0,25.0,"['A', 'B', 'C', 'D', 'E', 'F', 'G', 'H']",6377778.416666667,11304.25,567.25,30,240,1998/12,23,BELAIR MONTE,綠悠軒,True,7.0,1680.0,POINT Z (22.5018854 114.1453985 0),22.5018854,114.14539850000001
127,"SAN FUNG HSE,SAN FUNG AVE|新豐樓,新豐路",NSS,,,355.0,,,355.0,,,360.0,1.0,1.0,1.0,"['E', 'F']",,,357.5,1,2,1966/07,55,blank,,False,,,POINT Z (22.5034443 114.1268888 0),22.503444299999998,114.1268888
128,"BELAIR MONTE(Block 6),MA SIK RD|綠悠軒6座,馬適路",NSS,5155185.0,10375.0,435.0,5264805.0,10585.0,435.0,6910516.0,12716.0,619.0,6.0,16.0,25.0,"['A', 'B', 'C', 'D', 'E', 'F', 'G', 'H']",6000918.416666667,11419.75,530.5,30,240,1998/12,23,BELAIR MONTE,綠悠軒,True,7.0,1680.0,POINT Z (22.5018282 114.144934 0),22.501828200000002,114.144934
129,"BELAIR MONTE(Block 4),MA SIK RD|綠悠軒4座,馬適路",NSS,4775430.0,10843.0,435.0,4924635.0,10943.0,435.0,7023174.0,12581.0,619.0,6.0,16.0,25.0,"['A', 'B', 'C', 'D', 'E', 'F', 'G', 'H']",5930816.333333333,11301.666666666666,527.0,30,240,1998/12,23,BELAIR MONTE,綠悠軒,True,7.0,1680.0,POINT Z (22.5008938 114.1451895 0),22.5008938,114.1451895
130,"BELAIR MONTE(Block 1),MA SIK RD|綠悠軒1座,馬適路",NSS,5213475.000000001,10412.0,435.0,5321790.0,10789.0,435.0,6972416.0,12588.0,619.0,6.0,16.0,25.0,"['A', 'B', 'C', 'D', 'E', 'F', 'G', 'H']",6034097.916666667,11574.75,527.0,30,240,1998/12,23,BELAIR MONTE,綠悠軒,True,7.0,1680.0,POINT Z (22.5017206 114.1460255 0),22.501720600000002,114.1460255
131,"PEARL VISTA,SAN LOK ST|明珠華軒,新樂街",NSS,5018282.554649353,11032.0,441.0,5134724.401856793,11285.0,441.0,5324828.423091287,11716.0,449.0,5.0,10.0,16.0,"['A', 'B', 'C']",5164514.6939554,11374.666666666666,443.6666666666667,15,45,1998/12,23,blank,,False,,,POINT Z (22.503701 114.1276087 0),22.503701,114.12760870000001
132,"LOUVER MANSION,LUEN ON ST|聯發大廈,聯安街",NSS,3978544.05467979,4415.0,389.0,4024048.587668069,4422.0,389.0,4347071.563102449,7454.0,428.0,4.0,8.0,10.0,"['A', 'B', 'C']",4122142.993963813,5513.11111111111,404.1111111111111,10,30,1999/05,22,blank,,False,,,POINT Z (22.4993597 114.1437264 0),22.4993597,114.14372639999999
133,"REGENTVILLE(Block 2),WO MUN ST|帝庭軒2座,和滿街",NSS,5283018.0,11770.0,422.0,5407930.0,12067.0,422.0,7738596.0,13551.0,618.0,7.0,19.0,30.0,"['A', 'B', 'C', 'D', 'E', 'F', 'G', 'H']",6118291.5,12709.083333333334,483.5,31,248,2000/09,21,REGENTVILLE,帝庭軒,True,4.0,1000.0,POINT Z (22.4997748 114.144285 0),22.4997748,114.14428500000001
134,"ROYAL JUBILEE(Block 1),SAN SHING AVE|海禧華庭1座,新成路",NSS,4706694.0,11165.0,387.0,4649805.0,11352.0,387.0,6255764.0,12579.0,542.0,8.0,14.0,20.0,"['A', 'B', 'C', 'D', 'E', 'F', 'G', 'H']",5153780.708333333,12056.833333333334,429.5,18,144,2001/01,20,ROYAL JUBILEE,海禧華庭,True,2.0,280.0,POINT Z (22.5047596 114.1289093 0),22.504759600000003,114.12890929999999
135,"REGENTVILLE(Block 1),WO MUN ST|帝庭軒1座,和滿街",NSS,5174142.0,11365.0,422.0,5384298.0,11885.0,422.0,7664436.0,13667.0,618.0,7.0,19.0,30.0,"['A', 'B', 'C', 'D', 'E', 'F', 'G', 'H']",6055200.416666667,12590.458333333334,483.5,31,248,2000/09,21,REGENTVILLE,帝庭軒,True,4.0,1000.0,POINT Z (22.5003493 114.1437134 0),22.500349300000003,114.14371340000001
136,"REGENTVILLE(Block 5),WO MUN ST|帝庭軒5座,和滿街",NSS,5283018.0,11913.0,422.0,5499082.0,12536.0,422.0,6312258.0,13658.0,474.0,7.0,20.0,31.0,"['A', 'B', 'C', 'D', 'E', 'F', 'G', 'H']",5743311.208333333,12840.75,447.8333333333333,32,256,2000/09,21,REGENTVILLE,帝庭軒,True,4.0,1000.0,POINT Z (22.5001992 114.1446688 0),22.5001992,114.1446688
137,"REGENTVILLE(Block 3),WO MUN ST|帝庭軒3座,和滿街",NSS,5232378.0,11350.0,422.0,5452240.0,11808.0,422.0,7421562.000000001,13879.0,618.0,7.0,19.0,30.0,"['A', 'B', 'C', 'D', 'E', 'F', 'G', 'H']",6024860.333333333,12547.708333333334,483.5,31,248,2000/09,21,REGENTVILLE,帝庭軒,True,4.0,1000.0,POINT Z (22.5003493 114.1437134 0),22.500349300000003,114.14371340000001
138,"ROYAL JUBILEE(Block 2),SAN SHING AVE|海禧華庭2座,新成路",NSS,4641390.0,10938.0,387.0,4704180.0,11133.0,387.0,6255764.0,12954.0,542.0,8.0,13.0,19.0,"['A', 'B', 'C', 'D', 'E', 'F', 'G', 'H']",5183305.170095882,12001.958333333334,429.5,17,136,2001/01,20,ROYAL JUBILEE,海禧華庭,True,2.0,280.0,POINT Z (22.5049816 114.1287468 0),22.5049816,114.12874679999999
139,"KENTWOOD PLACE,SAN SHING AVE|金湖居,新成路",NSS,4646146.811353068,8804.0,397.0,4933760.397471584,9349.0,397.0,6600285.123455107,11775.0,643.0,7.0,12.0,18.0,"['A', 'B', 'C', 'D']",5472004.895156228,10001.916666666666,487.5,15,60,2000/03,21,blank,,False,,,POINT Z (22.5061567 114.1280732 0),22.5061567,114.1280732
140,"GRAND REGENTVILLE(Block 7),WO MUN ST|御庭軒7座,和滿街",NSS,5379291.0,12236.0,423.0,5465583.0,12559.0,423.0,6697320.0,13200.0,510.0,12.0,22.0,32.0,"['A', 'B', 'C', 'D', 'E', 'F', 'G', 'H']",5845980.25,12846.208333333334,455.4166666666667,28,224,2002/10,19,GRAND REGENTVILLE,御庭軒,True,3.0,672.0,POINT Z (22.4998734 114.1448875 0),22.4998734,114.1448875
141,"GRAND REGENTVILLE(Block 8),WO MUN ST|御庭軒8座,和滿街",NSS,5398749.0,12277.0,423.0,5493078.0,12632.0,423.0,7795083.999999999,13694.0,596.0,12.0,22.0,32.0,"['A', 'B', 'C', 'D', 'E', 'F', 'G', 'H']",6171098.208333333,12967.458333333334,477.1666666666667,28,224,2002/10,19,GRAND REGENTVILLE,御庭軒,True,3.0,672.0,POINT Z (22.4995325 114.1445624 0),22.4995325,114.14456240000001
142,"GRAND REGENTVILLE(Block 6),WO MUN ST|御庭軒6座,和滿街",NSS,5383521.0,11998.0,423.0,5410170.0,12426.0,423.0,6537180.0,13679.0,510.0,12.0,22.0,32.0,"['A', 'B', 'C', 'D', 'E', 'F', 'G', 'H']",5875861.708333333,12920.958333333334,455.4166666666667,28,224,2002/10,19,GRAND REGENTVILLE,御庭軒,True,3.0,672.0,POINT Z (22.5001961 114.1451895 0),22.5001961,114.1451895
143,"KENSINGTON GREEN(Block A),KA SIU CLOSE|嘉兆軒A座,嘉兆里",NSS,7085261.2450755965,2701.0,567.0,7108522.115873612,2709.0,567.0,12789956.395881124,10239.0,995.0,1.0,2.0,3.0,"['A', 'B', 'C', 'D', 'E']",9483531.558380814,5293.716666666667,827.4,3,15,2000/12,21,KENSINGTON GREEN,嘉兆軒,True,1.0,15.0,POINT Z (22.4970309 114.1380597 0),22.4970309,114.13805970000001
144,"BELAIR VILLA,YU TAI RD|萬豪居,裕泰路",NSS,9427528.0,7194.0,1192.0,9427528.0,7194.0,1192.0,16098732.0,7946.0,2183.0,0.0,0.0,0.0,"['12A', '15B', '16A', '19A', '19B', '1B', '23B', '29', '31', '36', '3B', '40', '45', '47', '49', '6B']",12864161.161800466,7548.3125,1685.9375,1,16,1997/12,24,blank,,False,,,POINT Z (22.493251 114.13148 0),22.493251,114.13148000000001
145,"NOBLE HILL(Block 6),MA SIK RD|皇府山6座,馬適路",NSS,6148352.0,9961.0,511.0,6246464.0,10106.0,511.0,13381149.0,12516.0,1297.0,5.0,10.0,17.0,"['A', 'B', 'C', 'D', 'E', 'E & F', 'F']",9372046.333333334,11488.47619047619,828.0,18,126,2006/01,15,NOBLE HILL,皇府山,True,7.0,814.0,POINT Z (22.503499 114.135916 0),22.503498999999998,114.135916
146,"NOBLE HILL(Block 2),MA SIK RD|皇府山2座,馬適路",NSS,5622113.0,11810.0,443.0,5794883.0,12308.0,443.0,6525705.0,13534.0,489.0,4.0,10.0,15.0,"['A', 'B', 'C', 'D', 'E', 'F', 'G', 'H']",5983127.083333333,12853.333333333334,466.0,16,128,2006/01,15,NOBLE HILL,皇府山,True,7.0,814.0,POINT Z (22.5037634 114.1347851 0),22.5037634,114.1347851
147,"NOBLE HILL(Block 3),MA SIK RD|皇府山3座,馬適路",NSS,6091734.0,12039.0,500.0,6430855.0,12298.0,500.0,7845714.0,13309.0,621.0,5.0,10.0,17.0,"['A', 'B', 'C', 'D', 'E', 'F']",6675302.055555555,12755.055555555555,524.0,18,108,2006/01,15,NOBLE HILL,皇府山,True,7.0,814.0,POINT Z (22.5039701 114.1349941 0),22.5039701,114.13499409999999
148,"NOBLE HILL(Block 1),MA SIK RD|皇府山1座,馬適路",NSS,5696094.0,12437.0,443.0,5737293.0,12639.0,443.0,6409323.0,13587.0,489.0,4.0,10.0,15.0,"['A', 'B', 'C', 'D', 'E', 'F', 'G', 'H']",6025850.083333333,12941.583333333334,466.0,16,128,2006/01,15,NOBLE HILL,皇府山,True,7.0,814.0,POINT Z (22.5036184 114.1345993 0),22.503618399999997,114.1345993
149,"NOBLE HILL(Block 7),MA SIK RD|皇府山7座,馬適路",NSS,6487668.0,12306.0,508.0,6500368.0,12446.0,508.0,8877625.0,13245.0,725.0,5.0,10.0,17.0,"['A', 'B', 'C', 'D', 'E', 'F']",7597642.111111112,12703.72222222222,599.0,18,108,2006/01,15,NOBLE HILL,皇府山,True,7.0,814.0,POINT Z (22.503499 114.135916 0),22.503498999999998,114.135916
150,"NOBLE HILL(Block 5),MA SIK RD|皇府山5座,馬適路",NSS,6428271.968056592,11698.0,511.0,6538094.38208945,11852.0,511.0,10601620.0,13293.0,874.0,5.0,10.0,17.0,"['A', 'B', 'C', 'D', 'E', 'F']",9111276.721956307,12113.166666666666,749.8333333333334,18,108,2006/01,15,NOBLE HILL,皇府山,True,7.0,814.0,POINT Z (22.504024 114.1353425 0),22.504023999999998,114.13534250000001
151,"MAGDALENE GARDEN,PAK WO RD|禎祥園,百和路",NSS,,,1398.0,,,1398.0,,,1398.0,17.0,54.0,81.0,['whole floor'],,,1398.0,74,74,1999/09,22,MAGDALENE GARDEN,禎祥園,True,1.0,74.0,POINT Z (22.4914296 114.1360508 0),22.4914296,114.13605079999999
152,"ROYAL GREEN(Phase 1),Block 2,CHING HIU RD|御皇庭1期,2座,清曉路",NSS,4859424.0,11441.0,376.0,4718532.0,11899.0,377.0,6978556.0,13564.0,559.0,9.0,22.0,37.0,"['A', 'B', 'C', 'D', 'E', 'F', 'G', 'H']",5776173.25,12511.708333333334,464.25,40,320,2005/05,16,ROYAL GREEN,御皇庭,True,3.0,952.0,POINT Z (22.4948909 114.1272951 0),22.494890899999998,114.12729509999998
153,"TSUI LAI GARDEN(Block 2),FUNG NAM RD|翠麗花園2座,鳳南路",NSS,3870755.0,8076.0,427.0,3962986.9999999995,8232.0,427.0,5123525.0,9494.0,601.0,4.0,14.0,23.0,"['A', 'B', 'C', 'D', 'E', 'F', 'G', 'H', 'J', 'K', 'L', 'M']",4683927.527777778,8534.111111111111,551.4722222222222,26,312,1989/11,32,TSUI LAI GARDEN,翠麗花園,True,6.0,1871.0,POINT Z (22.5082913 114.129188 0),22.5082913,114.12918799999998
154,"ROYAL GREEN(Phase 1),Block 1,CHING HIU RD|御皇庭1期,1座,清曉路",NSS,4752264.0,11416.0,376.0,4854304.0,11375.0,377.0,8418200.0,13615.0,700.0,9.0,22.0,37.0,"['A', 'B', 'C', 'D', 'E', 'F', 'G', 'H']",5936602.625,12432.125,481.7916666666667,40,320,2005/05,16,ROYAL GREEN,御皇庭,True,3.0,952.0,POINT Z (22.4948909 114.1272951 0),22.494890899999998,114.12729509999998
155,"ROYAL GREEN(Phase 2),Block 3,CHING HIU RD|御皇庭2期,3座,清曉路",NSS,4937632.0,10983.0,376.0,5002036.0,11086.0,377.0,10438350.0,13911.0,975.0,9.0,23.0,38.0,"['A', 'B', 'C', 'D', 'E', 'F', 'G', 'H']",6440854.208333333,12272.0,536.0833333333334,39,312,2006/12,15,ROYAL GREEN,御皇庭,True,3.0,952.0,POINT Z (22.4947566 114.1262617 0),22.494756600000002,114.12626170000001
156,"NOBLE HILL(Block 8),MA SIK RD|皇府山8座,馬適路",NSS,6253983.0,11585.0,501.0,6232440.0,11602.0,501.0,9235100.0,12889.0,790.0,5.0,10.0,17.0,"['A', 'B', 'C', 'D', 'E', 'F']",7745151.055555556,12244.388888888889,637.1666666666666,18,108,2006/01,15,NOBLE HILL,皇府山,True,7.0,814.0,POINT Z (22.503499 114.135916 0),22.503498999999998,114.135916
157,"GLORIOUS PEAK,CHING HIU RD|顯峰,清曉路",NSS,5077152.000000001,11446.0,408.0,5284416.0,11468.0,408.0,6754030.0,13573.0,569.0,9.0,22.0,36.0,"['A', 'B', 'C', 'D', 'E', 'F']",6035273.222222223,12371.555555555557,490.1666666666667,37,222,2007/04,14,blank,,False,,,POINT Z (22.4951137 114.1277249 0),22.495113699999997,114.1277249
158,"CHOI PIK HSE(Block C,Phase 1,CHOI PO COURT),2 CHOI YUEN RD|彩蒲苑,1期,C座(彩碧閣),2 彩園路",NSS,3681158.0,9931.0,338.0,3802500.0,10484.0,338.0,4953780.0,12127.0,438.0,8.0,18.0,29.0,"['1', '10', '11', '12', '13', '14', '15', '16', '2', '3', '4', '5', '6', '7', '8', '9']",4239451.145833333,11039.3125,384.875,34,544,1984/11,37,CHOI PO COURT,彩蒲苑,True,4.0,2096.0,POINT Z (22.502893 114.124813 0),22.502893,114.12481299999999
159,"CHOI CHING HSE(Block B,Phase 1,CHOI PO COURT),2 CHOI YUEN RD|彩蒲苑,1期,B座(彩晶閣),2 彩園路",NSS,3744364.0,10181.0,338.0,3800472.0,10111.0,338.0,4707512.0,11948.0,438.0,6.0,17.0,28.0,"['1', '10', '11', '12', '13', '14', '15', '16', '2', '3', '4', '5', '6', '7', '8', '9']",4255297.5625,11092.270833333334,384.875,33,528,1985/06,36,CHOI PO COURT,彩蒲苑,True,4.0,2096.0,POINT Z (22.5022275 114.1246592 0),22.5022275,114.1246592
160,"YUNG WUI HSE(Block A,YUNG SHING COURT),FAI MING RD|雍盛苑,A座(雍薈閣),暉明路",NSS,2248019.8480535313,4662.0,206.0,2222931.397443542,4696.0,206.0,5101992.0,8897.0,636.0,8.0,20.0,33.0,"['1', '10', '11', '12', '13', '14', '15', '16', '17', '18', '19', '2', '20', '21', '22', '23', '24', '3', '4', '5', '6', '7', '8', '9']",3610113.6504869866,6923.583333333333,427.36111111111114,40,960,2000/03,21,YUNG SHING COURT,雍盛苑,True,1.0,960.0,POINT Z (22.4824191 114.1372606 0),22.4824191,114.13726059999999
161,"FANLING GARDEN(Block 10),FAN LENG LAU RD|粉嶺花園10座,粉嶺樓路",NSS,,,466.0,4417214.0,9479.0,466.0,,,547.0,1.0,2.0,3.0,"['A', 'C', 'D']",4417214.0,9479.0,493.0,3,9,1987/09,34,FANLING GARDEN,粉嶺花園,True,10.0,94.0,POINT Z (22.4990266 114.1394996 0),22.4990266,114.13949960000001
162,"CHOI NGAN HSE(Block D,Phase 2,CHOI PO COURT),2 CHOI YUEN RD|彩蒲苑,2期,D座(彩顏閣),2 彩園路",NSS,3752476.0,10098.0,338.0,3861231.0,10371.0,338.0,4793472.0,12036.0,438.0,6.0,17.0,28.0,"['1', '10', '11', '12', '13', '14', '15', '16', '2', '3', '4', '5', '6', '7', '8', '9']",4169373.5833333335,10861.291666666666,384.875,33,528,1985/06,36,CHOI PO COURT,彩蒲苑,True,4.0,2096.0,POINT Z (22.5024902 114.1241018 0),22.5024902,114.12410179999999
163,"CHOI YING HSE(Block A,Phase 1,CHOI PO COURT),2 CHOI YUEN RD|彩蒲苑,1期,A座(彩瑩閣),2 彩園路",NSS,3626181.0000000005,10171.0,338.0,3787628.0,9587.0,338.0,4806174.0,11625.0,438.0,6.0,16.0,26.0,"['1', '10', '11', '12', '13', '14', '15', '16', '2', '3', '4', '5', '6', '7', '8', '9']",4170270.0208333335,10862.041666666666,384.875,31,496,1985/06,36,CHOI PO COURT,彩蒲苑,True,4.0,2096.0,POINT Z (22.5024902 114.1241018 0),22.5024902,114.12410179999999
164,"KA YIU HSE(Block C,Phase 2,KA SHING COURT),33 PAK WO RD|嘉盛苑,2期,C座(嘉耀閣),33 百和路",NSS,3157980.0,6709.0,438.0,3210300.0,6969.0,435.0,5103360.0,8415.0,640.0,7.0,20.0,32.0,"['1', '10', '11', '12', '13', '14', '15', '16', '2', '3', '4', '5', '6', '7', '8', '9']",4119660.8541666665,7603.520833333333,543.3125,37,592,1995/06,26,KA SHING COURT,嘉盛苑,True,4.0,2336.0,POINT Z (22.4934588 114.1343206 0),22.493458800000003,114.1343206
165,"MAN SHANG COURT,MAN SHANG ST|民生閣,民生街",NSS,2914456.0000000005,14308.0,202.0,3027648.0,14358.0,208.0,3111910.0,14616.0,215.0,3.0,4.0,5.0,"['A', 'B']",3061716.3333333335,14456.666666666666,211.83333333333334,3,6,1996/04,25,blank,,False,,,POINT Z (22.5374253 114.1244094 0),22.5374253,114.1244094
166,"CHUN WU HSE(Block E,YUK PO COURT),CHOI YUEN RD|旭埔苑,E座(晉湖閣),彩園路",NSS,4794426.0,8781.0,546.0,4856670.0,8895.0,546.0,5049408.0,9248.0,546.0,5.0,10.0,17.0,"['1', '2', '3', '5', '6', '8']",4920218.333333333,9011.388888888889,546.0,15,90,1982/12,39,YUK PO COURT,旭埔苑,True,8.0,970.0,POINT Z (22.499941 114.128293 0),22.499941,114.128293
167,"8 ROYAL GREEN,CHING HIU RD|御景峰,清曉路",NSS,5514912.0,10695.0,432.0,5594832.0,10888.0,432.0,8845174.0,13423.0,762.0,9.0,22.0,36.0,"['A', 'B', 'C', 'D', 'E', 'F', 'G', 'H', 'J', 'K']",6999483.066666666,12078.333333333334,586.2,37,370,2009/09,12,blank,,False,,,POINT Z (22.4956223 114.1278178 0),22.4956223,114.1278178
168,"FANLING GARDEN(Block 4),FAN LENG LAU RD|粉嶺花園4座,粉嶺樓路",NSS,4408081.958569164,9085.0,466.0,4445280.962438947,9113.0,466.0,5657846.9071681835,9425.0,604.0,1.0,2.0,3.0,"['A', 'B', 'C', 'D']",4928357.585675021,9258.0,520.75,3,12,1987/09,34,FANLING GARDEN,粉嶺花園,True,10.0,94.0,POINT Z (22.4994468 114.1401499 0),22.499446799999998,114.14014990000001
169,"KING SHING COURT(Phase 1),Block A,YAT MING RD|景盛苑1期,A座,一鳴路",NSS,3150096.0,6378.0,433.0,3187764.0,7218.0,433.0,4731075.0,7803.0,645.0,7.0,20.0,32.0,"['1', '10', '11', '12', '13', '14', '15', '16', '2', '3', '4', '5', '6', '7', '8', '9']",3977525.1875,7412.958333333333,536.6666666666666,38,608,1995/11,26,KING SHING COURT,景盛苑,True,4.0,2384.0,POINT Z (22.4877 114.140872 0),22.4877,114.140872
170,"LUEN WONG HSE,LUEN FAT ST|聯旺樓,聯發街",NSS,2341920.0,7097.0,287.0,2352252.0,7089.0,287.0,3537450.0,8796.0,473.0,2.0,3.0,4.0,"['B', 'C', 'D', 'E', 'F', 'G', 'H', 'I', 'J', 'K', 'L', 'M', 'N', 'O', 'P', 'Q']",3052565.4791666665,7780.1875,395.8125,5,80,1972/09,49,blank,,False,,,POINT Z (22.4984734 114.1417523 0),22.498473399999998,114.14175230000001
171,"FANLING GARDEN(Block 15),FAN LENG LAU RD|粉嶺花園15座,粉嶺樓路",NSS,4477100.420605364,4069.0,466.0,4492091.907304354,4083.0,466.0,5984787.231022412,7531.0,604.0,1.0,2.0,3.0,"['A', 'B', 'C']",4960677.03651216,5620.222222222222,512.0,3,9,1987/09,34,FANLING GARDEN,粉嶺花園,True,10.0,94.0,POINT Z (22.498248 114.1400105 0),22.498248,114.1400105
172,"WO FUNG BLDG,WO FUNG ST|和豐唐樓,和豐街",NSS,,,225.0,2340225.0,10064.0,225.0,,,290.0,2.0,3.0,4.0,"['A', 'B', 'C', 'D']",2629392.5,10232.5,243.75,5,20,1982/11,39,blank,,False,,,POINT Z (22.4993467 114.1429832 0),22.4993467,114.14298319999999
173,"CHING WU HSE(Block A,YUK PO COURT),CHOI YUEN RD|旭埔苑,A座(清湖閣),彩園路",NSS,4942392.0,9052.0,546.0,5021016.0,9196.0,546.0,5487846.0,10051.0,546.0,5.0,10.0,17.0,"['1', '2', '3', '4', '5', '6', '7', '8']",5275907.0,9662.833333333334,546.0,15,120,1982/12,39,YUK PO COURT,旭埔苑,True,8.0,970.0,POINT Z (22.499941 114.128293 0),22.499941,114.128293
174,"FANLING GARDEN(Block 9),FAN LENG LAU RD|粉嶺花園9座,粉嶺樓路",NSS,4679572.0,9740.0,466.0,4766248.0,9757.0,466.0,5923427.999999999,10562.0,604.0,1.0,2.0,3.0,"['A', 'B', 'C', 'D']",5238231.666666667,10077.416666666666,520.75,3,12,1987/09,34,FANLING GARDEN,粉嶺花園,True,10.0,94.0,POINT Z (22.4991648 114.1394532 0),22.499164800000003,114.1394532
175,"FANLING GARDEN(Block 13),FAN LENG LAU RD|粉嶺花園13座,粉嶺樓路",NSS,4481056.0,8233.0,466.0,4493172.0,8280.0,466.0,6668051.7780575715,9737.0,604.0,1.0,2.0,3.0,"['A', 'B', 'C', 'D']",5469644.992816954,9052.555555555555,520.75,3,12,1987/09,34,FANLING GARDEN,粉嶺花園,True,10.0,94.0,POINT Z (22.4985101 114.1397318 0),22.4985101,114.13973179999999
176,"KA MING HSE(Block A,Phase 1,KA SHING COURT),33 PAK WO RD|嘉盛苑,1期,A座(嘉明閣),33 百和路",NSS,4468038.0,8908.0,438.0,4489635.0,9280.0,435.0,6235860.0,11189.0,645.0,7.0,20.0,32.0,"['1', '10', '11', '12', '13', '14', '15', '16', '2', '3', '4', '5', '6', '7', '8', '9']",5261674.5625,9825.9375,539.1875,38,608,1995/06,26,KA SHING COURT,嘉盛苑,True,4.0,2336.0,POINT Z (22.494394 114.1341344 0),22.494394,114.13413440000001
177,"YAN KING HSE(Block C,Phase 2,KING SHING COURT),8 YAT MING RD|景盛苑,2期,C座(欣景閣),8 一鳴路",NSS,3244266.0,7222.0,438.0,3189855.0,7333.0,435.0,4953600.0,8377.0,645.0,7.0,19.0,32.0,"['1', '10', '11', '12', '13', '14', '15', '16', '2', '3', '4', '5', '6', '7', '8', '9']",4171513.0625,7686.479166666667,543.4791666666666,37,592,1996/02,25,KING SHING COURT,景盛苑,True,4.0,2384.0,POINT Z (22.4877037 114.1414736 0),22.487703699999997,114.1414736
178,"KA FAI HSE(Block B,Phase 1,KA SHING COURT),33 PAK WO RD|嘉盛苑,1期,B座(嘉輝閣),33 百和路",NSS,3023514.0,6576.0,433.0,3040650.0,6665.0,433.0,4654080.0,7626.0,640.0,8.0,20.0,32.0,"['1', '10', '11', '12', '13', '14', '15', '16', '2', '3', '4', '5', '6', '7', '8', '9']",3909906.75,7207.75,543.5625,36,576,1995/06,26,KA SHING COURT,嘉盛苑,True,4.0,2336.0,POINT Z (22.4940251 114.1345993 0),22.4940251,114.1345993
179,"TSUI LAI GARDEN(Block 1),FUNG NAM RD|翠麗花園1座,鳳南路",NSS,3815859.652930829,7389.0,427.0,3871795.2960338006,8026.0,427.0,5206435.9513274515,9093.0,591.0,5.0,13.0,22.0,"['A', 'B', 'C', 'D', 'E', 'F', 'G', 'H', 'J', 'K', 'L', 'M']",4633901.093486073,8275.52777777778,549.25,25,300,1989/11,32,TSUI LAI GARDEN,翠麗花園,True,6.0,1871.0,POINT Z (22.5080653 114.1295132 0),22.508065300000002,114.1295132
180,"ON SHING COURT(Block A),TIN PING RD|安盛苑A座,天平路",NSS,3530880.0,8771.0,375.0,3743616.0,9000.0,375.0,5459720.0,10648.0,595.0,7.0,18.0,28.0,"['1', '10', '11', '12', '14', '15', '17', '18', '2', '3', '4', '5', '6', '7', '8', '9']",4297964.9375,9515.333333333334,454.8125,34,544,1990/02,31,ON SHING COURT,安盛苑,True,1.0,544.0,POINT Z (22.5023564 114.135024 0),22.5023564,114.135024
181,"FANLING GARDEN(Block 12),FAN LENG LAU RD|粉嶺花園12座,粉嶺樓路",NSS,,,466.0,,,466.0,,,604.0,2.0,2.0,3.0,"['A', 'B', 'C']",,,512.0,2,6,1987/09,34,FANLING GARDEN,粉嶺花園,True,10.0,94.0,POINT Z (22.4986557 114.1396389 0),22.4986557,114.1396389
182,"WING FAI CTR(Block 2),LUEN CHIT ST|榮輝中心2座,聯捷街",NSS,,,419.0,,,419.0,,,588.0,6.0,18.0,29.0,"['A', 'B', 'C', 'D', 'E', 'F', 'G', 'H', 'J', 'K']",,,523.8,32,320,1996/05,25,WING FAI CTR,榮輝中心,True,4.0,1189.0,POINT Z (22.5015382 114.1427742 0),22.5015382,114.1427742
183,"TSUI LAI GARDEN(Block 4),FUNG NAM RD|翠麗花園4座,鳳南路",NSS,3565449.9999999995,8049.0,427.0,3639321.0,8268.0,427.0,5155293.000000001,9674.0,591.0,5.0,14.0,23.0,"['A', 'B', 'C', 'D', 'E', 'F', 'G', 'H', 'J', 'K', 'L', 'M']",4274958.555555555,8562.916666666666,500.6666666666667,26,312,1989/11,32,TSUI LAI GARDEN,翠麗花園,True,6.0,1871.0,POINT Z (22.5083546 114.1283752 0),22.5083546,114.12837520000001
184,"TSUI LAI GARDEN(Block 5),FUNG NAM RD|翠麗花園5座,鳳南路",NSS,3995866.0,8422.0,427.0,4080411.9999999995,7979.0,427.0,5201440.0,9641.0,590.0,6.0,14.0,22.0,"['A', 'B', 'C', 'E', 'F', 'G', 'H', 'J', 'K', 'L', 'M']",4699468.696969696,8926.969696969696,530.4545454545455,25,275,1989/11,32,TSUI LAI GARDEN,翠麗花園,True,6.0,1871.0,POINT Z (22.5079661 114.1282126 0),22.5079661,114.1282126
185,"WING FOK CTR(Block 2),LUEN CHIT ST|榮福中心2座,聯捷街",NSS,2658408.0,5800.0,431.0,2737281.0,5909.0,431.0,3684016.0,6512.0,592.0,6.0,15.0,23.0,"['A', 'C', 'D', 'E', 'H', 'J', 'K']",3243300.142857143,6158.047619047619,528.2857142857143,25,175,1993/09,28,WING FOK CTR,榮福中心,True,6.0,1303.0,POINT Z (22.5011199 114.1415615 0),22.5011199,114.1415615
186,"FANLING GARDEN(Block 16),FAN LENG LAU RD|粉嶺花園16座,粉嶺樓路",NSS,4598103.13467578,4133.0,466.0,4594890.673240283,4149.0,466.0,5773790.487331237,4318.0,604.0,1.0,2.0,3.0,"['A', 'B', 'D']",5234336.458205962,4232.555555555556,539.0,3,9,1987/09,34,FANLING GARDEN,粉嶺花園,True,10.0,94.0,POINT Z (22.4982548 114.1402428 0),22.4982548,114.14024280000001
187,"KA YEUNG HSE(Block D,Phase 2,KA SHING COURT),33 PAK WO RD|嘉盛苑,2期,D座(嘉揚閣),33 百和路",NSS,3090966.0,6829.0,435.0,3197685.0,7318.0,432.0,5023360.0,7849.0,640.0,8.0,21.0,32.0,"['1', '10', '11', '12', '13', '14', '15', '16', '2', '3', '4', '5', '6', '7', '8', '9']",4071893.125,7493.979166666667,543.0208333333334,35,560,1995/06,26,KA SHING COURT,嘉盛苑,True,4.0,2336.0,POINT Z (22.4928634 114.1340094 0),22.492863399999997,114.13400940000001
188,"WING FAI CTR(Block 3),LUEN CHIT ST|榮輝中心3座,聯捷街",NSS,2932161.9999999995,6466.0,419.0,3053672.0,6716.0,419.0,4097160.0,7458.0,588.0,7.0,18.0,29.0,"['A', 'C', 'D', 'E', 'F', 'G', 'H', 'J', 'K']",3614477.851851852,6974.88888888889,518.2222222222222,32,288,1996/05,25,WING FAI CTR,榮輝中心,True,4.0,1189.0,POINT Z (22.5017681 114.1435336 0),22.5017681,114.14353359999998
189,"TSUI LAI GARDEN(Block 6),FUNG NAM RD|翠麗花園6座,鳳南路",NSS,3878014.0,8008.0,427.0,3974088.9999999995,8290.0,427.0,5218550.0,9655.0,590.0,6.0,14.0,23.0,"['A', 'B', 'C', 'D', 'E', 'F', 'G', 'H', 'J', 'K', 'L', 'M']",4649772.472222223,8802.833333333334,531.0833333333334,28,336,1989/11,32,TSUI LAI GARDEN,翠麗花園,True,6.0,1871.0,POINT Z (22.5077294 114.1284681 0),22.5077294,114.12846809999999
190,"YAN SAU HSE(Block A,Phase 1,YAN SHING COURT),15 WAH MING RD|欣盛苑,1期,A座(欣秀閣),15 華明路",NSS,2757318.0,6435.0,402.0,2838924.0,6367.0,402.0,3794346.0,7287.0,645.0,8.0,18.0,29.0,"['1', '2', '3', '4', '5', '7', '8', '9']",3330251.1666666665,6813.319444444445,519.75,34,272,1993/09,28,YAN SHING COURT,欣盛苑,True,7.0,2135.0,POINT Z (22.4865868 114.140266 0),22.4865868,114.140266
191,"TSUI LAI GARDEN(Block 3),FUNG NAM RD|翠麗花園3座,鳳南路",NSS,3931389.0,7963.0,427.0,4039847.0,8104.0,427.0,5031774.0,9615.0,591.0,5.0,14.0,23.0,"['A', 'B', 'C', 'D', 'E', 'F', 'G', 'H', 'J', 'K', 'L', 'M']",4635209.611111112,8474.0,549.5555555555555,28,336,1989/11,32,TSUI LAI GARDEN,翠麗花園,True,6.0,1871.0,POINT Z (22.5085246 114.1288164 0),22.5085246,114.1288164
192,"FANLING GARDEN(Block 2),FAN LENG LAU RD|粉嶺花園2座,粉嶺樓路",NSS,4631752.892093879,9521.0,466.0,4655598.407395022,9550.0,466.0,6127458.234000998,9903.0,624.0,1.0,2.0,3.0,"['A', 'B', 'C']",5160189.297145554,9740.111111111111,518.6666666666666,3,9,1987/09,34,FANLING GARDEN,粉嶺花園,True,10.0,94.0,POINT Z (22.4990833 114.1402428 0),22.499083300000002,114.14024280000001
193,"WING FOK CTR(Block 5),LUEN CHIT ST|榮福中心5座,聯捷街",NSS,2843712.790134169,6035.0,431.0,2902377.874838349,6176.0,431.0,3900528.6302653397,6768.0,592.0,8.0,16.0,23.0,"['A', 'B', 'D', 'F', 'G', 'H', 'J', 'K']",3549951.8813648243,6420.083333333333,541.625,24,192,1993/09,28,WING FOK CTR,榮福中心,True,6.0,1303.0,POINT Z (22.5015563 114.1410092 0),22.5015563,114.1410092
194,"YIN KING HSE(Block D,Phase 3,KING SHING COURT),8 YAT MING RD|景盛苑,3期,D座(賢景閣),8 一鳴路",NSS,3089652.0,6849.0,438.0,3264240.0,6904.0,433.0,4730240.0,7847.0,640.0,8.0,20.0,32.0,"['1', '10', '11', '12', '13', '14', '15', '16', '2', '3', '4', '5', '6', '7', '8', '9']",3944868.875,7277.541666666667,543.1666666666666,37,592,1996/02,25,KING SHING COURT,景盛苑,True,4.0,2384.0,POINT Z (22.4877 114.140872 0),22.4877,114.140872
195,"TAI KONG HSE,SAN KAN ST|大江樓,新勤街",NSS,,,280.0,,,280.0,,,327.0,2.0,3.0,4.0,"['B', 'C', 'D']",,,300.0,3,9,1981/04,40,blank,,False,,,POINT Z (22.5043477 114.1276552 0),22.504347699999997,114.12765520000002
196,"KIN FUNG BLDG,WO FUNG ST|建豐樓,和豐街",NSS,3463924.4089901415,7358.0,260.0,3428616.6717416695,7283.0,260.0,3622778.524228052,8030.0,460.0,2.0,3.0,4.0,"['A', 'B', 'C', 'D', 'E']",3524462.6800250593,7679.916666666667,411.0,5,25,1981/07,40,blank,,False,,,POINT Z (22.4991355 114.1432154 0),22.4991355,114.14321540000002
197,"TIN LONG HSE(Block 8,TIN PING EST),TIN PING RD|天平村,8座(天朗樓),天平路",NSS,1844772.9835356253,4682.0,208.0,1895600.7739833174,4811.0,208.0,2495358.467139349,5690.0,443.0,9.0,18.0,28.0,"['1', '10', '12', '14', '18', '19', '20', '21', '5', '6', '9']",2251839.502331379,5364.766666666667,391.8181818181818,28,308,1990/01,31,TIN PING EST,天平村,True,7.0,2459.0,POINT Z (22.5026732 114.1342893 0),22.5026732,114.13428929999999
198,"CHUEN WO BLDG,SAN FUNG AVE|全和大樓,新豐路",NSS,2871655.026368808,7923.0,335.0,2880911.7940039514,7944.0,335.0,3668166.876314132,8547.0,450.0,2.0,3.0,4.0,"['A', 'B', 'C', 'D', 'E', 'F']",3272631.2390848733,8250.5,388.3333333333333,5,30,1981/12,40,blank,,False,,,POINT Z (22.5052181 114.126703 0),22.5052181,114.126703
199,"CHUNG MING HSE(Block 5,WAH MING EST),WAH MING RD|華明村,5座(頌明樓),華明路",NSS,2190000.0,5334.0,375.0,2262000.0,5488.0,375.0,3230162.0,6200.0,566.0,11.0,22.0,30.0,"['10', '15', '16', '17', '18', '3', '4', '5', '6', '7', '8', '9']",2681785.484848485,5784.060606060605,459.0833333333333,26,312,1990/07,31,WAH MING EST,華明村,True,7.0,2653.0,POINT Z (22.4840745 114.1411358 0),22.4840745,114.1411358
200,"FANLING GARDEN(Block 14),FAN LENG LAU RD|粉嶺花園14座,粉嶺樓路",NSS,4437760.722039717,6794.0,466.0,4343603.878132676,6811.0,466.0,5484582.985660598,7272.0,604.0,1.0,2.0,3.0,"['A', 'B', 'C', 'D']",4855112.917742855,7031.583333333333,520.75,3,12,1987/09,34,FANLING GARDEN,粉嶺花園,True,10.0,94.0,POINT Z (22.4983572 114.1398712 0),22.498357199999997,114.1398712
201,"SHUN MING HSE(Block 2,WAH MING EST),WAH MING RD|華明村,2座(信明樓),華明路",NSS,2170502.722549229,8228.0,147.0,2219102.5436059088,8222.0,147.0,4186755.6634802837,10486.0,485.0,7.0,17.0,27.0,"['10', '12', '14', '16', '17', '19', '23', '24', '25', '27', '28', '30', '31', '4', '5', '6', '7']",3395388.4303224464,9076.307692307691,321.29411764705884,31,527,1990/06,31,WAH MING EST,華明村,True,7.0,2653.0,POINT Z (22.4845085 114.1401731 0),22.4845085,114.14017309999998
202,"TIN MING HSE(Block 4,TIN PING EST),TIN PING RD|天平村,4座(天明樓),天平路",NSS,3129832.0,8850.0,348.0,3179739.0,8993.0,348.0,3366468.0000000005,9376.0,366.0,6.0,11.0,17.0,"['1', '12', '16', '18', '19', '2', '20', '22', '23', '36', '40', '46', '48', '49', '52', '8', '9']",3231403.7058823532,9118.450980392157,354.4117647058824,17,289,1989/01,32,TIN PING EST,天平村,True,7.0,2459.0,POINT Z (22.501893 114.133142 0),22.501893,114.13314199999999
203,"TIN MEI HSE(Block 5,TIN PING EST),TIN PING RD|天平村,5座(天美樓),天平路",NSS,2162937.0,4836.0,381.0,2211013.0,4991.0,381.0,2755889.9999999995,6086.0,531.0,9.0,20.0,29.0,"['1', '10', '12', '13', '14', '16', '17', '19', '21', '22', '24', '4', '5', '7', '9']",2491471.822222222,5450.644444444445,458.4888888888889,30,450,1989/01,32,TIN PING EST,天平村,True,7.0,2459.0,POINT Z (22.5023564 114.135024 0),22.5023564,114.135024
204,"TIN YEE HSE(Block 1,TIN PING EST),TIN PING RD|天平村,1座(天怡樓),天平路",NSS,3308473.140892845,8212.0,381.0,3404393.517163869,8489.0,381.0,4266525.5643449845,9929.0,490.0,10.0,20.0,30.0,"['10', '15', '17', '19', '21', '22', '23', '24', '4', '6', '7', '8']",3607877.671891421,8888.666666666666,399.1666666666667,30,360,1987/01,34,TIN PING EST,天平村,True,7.0,2459.0,POINT Z (22.50499 114.131411 0),22.50499,114.13141100000001
205,"TIN CHEUNG HSE(Block 2,TIN PING EST),TIN PING RD|天平村,2座(天祥樓),天平路",NSS,3704082.0,9249.0,381.0,3808476.0,9511.0,381.0,4759370.0,10239.0,490.0,8.0,18.0,25.0,"['15', '17', '2', '22', '23', '3', '4', '5', '6', '7']",4063961.766666667,9845.699999999999,402.8,24,240,1986/10,35,TIN PING EST,天平村,True,7.0,2459.0,POINT Z (22.5023564 114.135024 0),22.5023564,114.135024
206,"CHEONG CHING HSE(Block A,CHEONG SHING COURT),WAH MING RD|昌盛苑,A座(昌靖閣),華明路",NSS,4048383.9999999995,7452.0,512.0,4210688.0,7865.0,512.0,5437971.0,8660.0,649.0,9.0,22.0,33.0,"['1', '2', '3', '4', '5', '6', '7', '8']",4691642.041666667,8102.583333333333,580.5,36,288,2000/03,21,CHEONG SHING COURT,昌盛苑,True,4.0,1083.0,POINT Z (22.483789 114.137851 0),22.483789,114.137851
207,"CHEONG WAH BLDG,LUEN CHEONG ST|昌華樓,聯昌街",NSS,2684313.0,7821.0,333.0,2692971.0,7809.0,333.0,3078528.0,8831.0,384.0,2.0,3.0,4.0,"['A', 'B', 'C', 'D', 'E', 'F']",2856806.9444444445,8068.555555555556,354.4444444444444,5,30,1977/01,44,blank,,False,,,POINT Z (22.4990262 114.1433548 0),22.4990262,114.1433548
208,"WING FAI CTR(Block 1),LUEN CHIT ST|榮輝中心1座,聯捷街",NSS,2930067.0,6622.0,419.0,3011772.0,6830.0,419.0,4379424.0,7639.0,588.0,8.0,18.0,28.0,"['A', 'C', 'D', 'E', 'F', 'G', 'H', 'J', 'K']",3698431.5185185187,7142.185185185185,518.2222222222222,29,261,1996/05,25,WING FAI CTR,榮輝中心,True,4.0,1189.0,POINT Z (22.5015246 114.1423097 0),22.5015246,114.14230970000001
209,"PO CHEUNG BLDG,LUEN ON ST|寶昌大樓,聯安街",NSS,3069440.0000000005,6446.0,440.0,3058000.0,6892.0,440.0,3453120.0,7848.0,496.0,2.0,3.0,4.0,"['1', '2', '3', '4', '5', '7', '8']",3352549.0,7040.809523809524,476.85714285714283,5,35,1975/06,46,blank,,False,,,POINT Z (22.4997403 114.142957 0),22.499740300000003,114.14295700000001
210,"TIM MING HSE(Block 7,WAH MING EST),WAH MING RD|華明村,7座(添明樓),華明路",NSS,1957577.9999999998,4472.0,381.0,2034540.0000000002,4631.0,381.0,2379963.0,5453.0,489.0,6.0,18.0,28.0,"['10', '11', '13', '15', '16', '18', '2', '20', '22', '23', '24', '3', '4', '5', '6', '7', '8', '9']",2174037.1830065357,4762.936819172114,456.7407407407407,32,576,1990/07,31,WAH MING EST,華明村,True,7.0,2653.0,POINT Z (22.4832833 114.1424026 0),22.4832833,114.14240259999998
211,"TIN HOR HSE(Block 3,TIN PING EST),TIN PING RD|天平村,3座(天賀樓),天平路",NSS,2692060.0,5494.0,381.0,2777320.0,5668.0,381.0,4300124.202428096,9211.0,490.0,10.0,20.0,30.0,"['1', '10', '11', '12', '13', '14', '15', '2', '20', '21', '22', '23', '24', '3', '4', '5', '7', '8']",3580507.188607128,8708.915535444947,417.3333333333333,28,504,1986/09,35,TIN PING EST,天平村,True,7.0,2459.0,POINT Z (22.5023564 114.135024 0),22.5023564,114.135024
212,"WING FAI CTR(Block 4),LUEN CHIT ST|榮輝中心4座,聯捷街",NSS,3157165.0,6576.0,419.0,3183562.0,6774.0,419.0,4144854.0,7873.0,588.0,7.0,18.0,29.0,"['A', 'B', 'C', 'D', 'E', 'F', 'G', 'H', 'J', 'K']",3711695.8333333335,7125.2,523.8,32,320,1996/05,25,WING FAI CTR,榮輝中心,True,4.0,1189.0,POINT Z (22.5017681 114.1435336 0),22.5017681,114.14353359999998
213,"PING CHI HSE(Block A,TAI PING EST),PO PING RD|太平村,A座(平治樓),保平路",NSS,1834219.5520426906,4754.0,377.0,1874731.3427377855,4859.0,377.0,1900195.8968889883,4925.0,572.0,10.0,18.0,23.0,"['1', '11', '2', '3', '7', '8', '9']",2006085.338549373,5060.666666666667,446.85714285714283,18,126,1989/06,32,TAI PING EST,太平村,True,4.0,454.0,POINT Z (22.4984741 114.1263314 0),22.4984741,114.1263314
214,"PO CHEONG BLDG,WO LUNG ST|寶昌樓,和隆街",NSS,2894130.0,6769.0,405.0,2902230.0,6803.0,405.0,3513887.4157284154,7408.0,500.0,2.0,3.0,4.0,"['A', 'C', 'D']",3277988.025249572,6963.666666666667,464.3333333333333,5,15,1973/03,48,blank,,False,,,POINT Z (22.4991224 114.1424723 0),22.499122399999997,114.1424723
215,"WING FOK CTR(Block 6),LUEN CHIT ST|榮福中心6座,聯捷街",NSS,2864426.0,6129.0,431.0,2932955.0,6431.0,431.0,3975164.0,6978.0,592.0,6.0,14.0,23.0,"['B', 'C', 'D', 'E', 'F', 'G', 'H', 'J', 'K']",3587298.75,6552.208333333333,529.6666666666666,26,234,1993/09,28,WING FOK CTR,榮福中心,True,6.0,1303.0,POINT Z (22.5014827 114.1414736 0),22.5014827,114.1414736
216,"YIU MING HSE(Block 6,WAH MING EST),WAH MING RD|華明村,6座(耀明樓),華明路",NSS,2606858.9999999995,5331.0,381.0,2668962.0,5458.0,381.0,2727153.0,5577.0,489.0,9.0,18.0,27.0,"['1', '12', '13', '14', '16', '17', '18', '20', '4', '5', '6', '9']",2667658.0,5455.333333333333,467.5,25,300,1990/07,31,WAH MING EST,華明村,True,7.0,2653.0,POINT Z (22.4824137 114.1414465 0),22.4824137,114.14144650000001
217,"CHEUNG YUE HSE(CHEUNG WAH EST),SAN WAN RD|祥華村(祥裕樓),新運路",NSS,3323448.7385495673,8682.0,358.0,3386100.0156184654,8843.0,358.0,3909682.0332204225,9512.0,424.0,8.0,14.0,19.0,"['1', '11', '13', '6', '8']",3648715.144531954,8991.6,397.3999999999999,14,70,1984/03,37,CHEUNG WAH EST,祥華村,True,13.0,939.0,POINT Z (22.4928965 114.1415218 0),22.4928965,114.14152179999999
218,"WO TAI BLDG,WO TAI ST|和泰樓,和泰街",NSS,,,565.0,3356379.9999999995,5930.0,565.0,,,566.0,2.0,3.0,4.0,"['A', 'B', 'C', 'D', 'E', 'F', 'G', 'H', 'I', 'J', 'K']",3356379.9999999995,5930.0,565.8787878787879,5,55,1974/01,47,blank,,False,,,POINT Z (22.4991359 114.1419171 0),22.4991359,114.14191709999999
219,"CHEUNG SHUN HSE(CHEUNG WAH EST),SAN WAN RD|祥華村(祥順樓),新運路",NSS,1949607.0,4248.0,423.0,1988523.0000000002,4362.0,423.0,2385712.0,5168.0,476.0,8.0,16.0,23.0,"['11', '14', '5', '9']",2108147.9166666665,4781.916666666667,441.25,23,92,1984/03,37,CHEUNG WAH EST,祥華村,True,13.0,939.0,POINT Z (22.4928938 114.1427045 0),22.4928938,114.1427045
220,"WING FOK CTR(Block 1),LUEN CHIT ST|榮福中心1座,聯捷街",NSS,2657977.0,6025.0,431.0,2725644.0,6159.0,431.0,3721312.0,6501.0,592.0,7.0,16.0,24.0,"['A', 'B', 'C', 'D', 'E', 'G', 'H', 'J', 'K']",3364444.407407407,6215.666666666667,542.1111111111111,24,216,1993/09,28,WING FOK CTR,榮福中心,True,6.0,1303.0,POINT Z (22.5010183 114.1411021 0),22.501018300000002,114.1411021
221,"CHEUNG WO HSE(CHEUNG WAH EST),SAN WAN RD|祥華村(祥和樓),新運路",NSS,2139957.0,5059.0,423.0,2188602.0,5174.0,423.0,2453805.0,5373.0,465.0,11.0,18.0,25.0,"['11', '12', '2', '9']",2278952.75,5197.916666666667,438.5,18,72,1984/03,37,CHEUNG WAH EST,祥華村,True,13.0,939.0,POINT Z (22.491917 114.141289 0),22.491917,114.14128899999999
222,"CHEUNG LAI HSE(CHEUNG WAH EST),SAN WAN RD|祥華村(祥禮樓),新運路",NSS,,,277.0,,,277.0,,,277.0,16.0,17.0,18.0,"['7', '8']",,,277.0,3,6,1984/06,37,CHEUNG WAH EST,祥華村,True,13.0,939.0,POINT Z (22.4934764 114.140266 0),22.4934764,114.140266
223,"SHUN CHUNG LAU,SAN KAN ST|慎忠樓,新勤街",NSS,,,327.0,,,327.0,,,630.0,2.0,2.0,3.0,"['A', 'B', 'C']",,,440.6666666666667,4,12,1982/06,39,blank,,False,,,POINT Z (22.5047481 114.1273301 0),22.504748100000004,114.1273301
224,"TIN HEE HSE(Block 6,TIN PING EST),TIN PING RD|天平村,6座(天喜樓),天平路",NSS,3415703.2506227936,7364.0,381.0,3103375.1005735006,7361.0,381.0,4105086.3086928814,8173.0,531.0,11.0,20.0,29.0,"['1', '11', '12', '13', '16', '19', '22', '24', '3', '5', '6']",3555705.6787983254,7705.307936507937,448.09090909090907,28,308,1989/01,32,TIN PING EST,天平村,True,7.0,2459.0,POINT Z (22.501606 114.134638 0),22.501606,114.134638
225,"CHEONG SIU HSE(Block B,CHEONG SHING COURT),WAH MING RD|昌盛苑,B座(昌兆閣),華明路",NSS,4049408.0,7367.0,512.0,4100096.0,7567.0,512.0,5195894.0,8411.0,649.0,7.0,20.0,33.0,"['1', '2', '3', '4', '5', '6', '7', '8']",4574589.851190477,7861.529761904762,580.5,39,312,2000/03,21,CHEONG SHING COURT,昌盛苑,True,4.0,1083.0,POINT Z (22.4833708 114.1386726 0),22.483370800000003,114.1386726
226,"CHEONG TO HSE(Block C,CHEONG SHING COURT),WAH MING RD|昌盛苑,C座(昌濤閣),華明路",NSS,4849328.0,7472.0,649.0,5038187.0,7763.0,649.0,5676154.0,8746.0,649.0,9.0,20.0,32.0,"['1', '2', '3', '4', '5', '6', '7']",5155903.238095238,7944.380952380951,649.0,35,245,2000/03,21,CHEONG SHING COURT,昌盛苑,True,4.0,1083.0,POINT Z (22.4840021 114.1389655 0),22.4840021,114.1389655
227,"PO WING BLDG,WO LUNG ST|寶榮樓,和隆街",NSS,,,485.0,,,485.0,3269885.9070807896,2934.0,516.0,2.0,2.0,4.0,"['A', 'C']",3269885.9070807896,2934.0,500.5,4,8,1973/03,48,blank,,False,,,POINT Z (22.4990499 114.1423794 0),22.4990499,114.1423794
228,"CHUN KING HSE(Block B,Phase 2,KING SHING COURT),8 YAT MING RD|景盛苑,2期,B座(俊景閣),8 一鳴路",NSS,3121626.0,6784.0,438.0,3157230.0,7227.0,433.0,4648320.0,7698.0,645.0,7.0,20.0,32.0,"['1', '10', '11', '12', '13', '14', '15', '16', '2', '3', '4', '5', '6', '7', '8', '9']",3943666.7083333335,7267.604166666667,543.25,37,592,1996/02,25,KING SHING COURT,景盛苑,True,4.0,2384.0,POINT Z (22.486156 114.142437 0),22.486156,114.14243700000002
229,"SUN KING BLDG,WO FUNG ST|新景樓,和豐街",NSS,3603166.867158705,6397.0,539.0,3603166.867158705,6397.0,539.0,3677653.911800895,6616.0,560.0,2.0,2.0,3.0,"['A', 'D', 'E']",3636570.033421107,6469.666666666667,549.3333333333334,4,12,1976/07,45,blank,,False,,,POINT Z (22.4990131 114.1426116 0),22.499013100000003,114.1426116
230,"SHUN CHUNG LAU,SAN TSOI ST|慎忠樓,新財街",NSS,2710961.8385559563,4180.0,297.0,2690292.996194503,8851.0,297.0,3149243.962999912,9627.0,323.0,3.0,4.0,5.0,"['B', 'C', 'D']",2893420.454387367,8120.0,309.3333333333333,3,9,1982/06,39,blank,,False,,,POINT Z (22.5047481 114.1273301 0),22.504748100000004,114.1273301
231,"LUEN CHEUNG BLDG,LUEN CHEONG ST|聯昌大樓,聯昌街",NSS,3231000.0,6419.0,500.0,3240500.0,6439.0,500.0,3648770.0,6621.0,565.0,2.0,3.0,4.0,"['1', '2', '4', '7', '8', 'C', 'F', 'H']",3510476.3333333335,6478.791666666667,542.0,5,40,1974/09,47,blank,,False,,,POINT Z (22.4997646 114.14296 0),22.499764600000002,114.14296000000002
232,"GOLF PARKVIEW(Block 1),CASTLE PEAK RD KWU TUNG|哥爾夫景園1座,青山公路古洞段",NSS,,,1086.0,,,1086.0,,,1107.0,2.0,2.0,4.0,"['A', 'B']",,,1096.5,4,8,2004/06,17,GOLF PARKVIEW,哥爾夫景園,True,2.0,16.0,POINT Z (22.5018387 114.1167859 0),22.5018387,114.11678590000001
233,"PO WAH BLDG,WO LUNG ST|寶華樓,和隆街",NSS,,,505.0,,,505.0,3742548.0,7253.0,516.0,3.0,4.0,5.0,"['B', 'C']",3742548.0,7253.0,510.5,2,4,1973/03,48,blank,,False,,,POINT Z (22.4989701 114.1423329 0),22.4989701,114.14233290000001
234,"MAY LUN BLDG,LUEN ON ST|美輪大廈,聯安街",NSS,3686358.036592149,6861.0,452.0,3695491.9947064277,6878.0,452.0,4076746.9883407815,8316.0,525.0,2.0,3.0,4.0,"['1', '2', '3', '6', '7', '8']",3848052.599592626,7898.8,485.5,5,30,1977/02,44,blank,,False,,,POINT Z (22.4998251 114.1432712 0),22.499825100000002,114.1432712
235,"HONG MING HSE(Block 3,WAH MING EST),WAH MING RD|華明村,3座(康明樓),華明路",NSS,2159250.0,5354.0,375.0,2220000.0,5442.0,375.0,3349022.0,6139.0,566.0,8.0,18.0,29.0,"['10', '14', '15', '17', '18', '3', '4', '6', '7', '8']",2733811.6037037037,5688.52962962963,475.0,30,300,1990/07,31,WAH MING EST,華明村,True,7.0,2653.0,POINT Z (22.483419 114.139756 0),22.483419,114.139756
236,"CHEONG YUN HSE(Block D,CHEONG SHING COURT),WAH MING RD|昌盛苑,D座(昌潤閣),華明路",NSS,4458630.0,6870.0,649.0,4885672.0,7528.0,649.0,5211470.0,8030.0,649.0,8.0,20.0,32.0,"['1', '3', '4', '5', '6', '7', '8']",4986946.904761904,7684.047619047619,649.0,34,238,2000/03,21,CHEONG SHING COURT,昌盛苑,True,4.0,1083.0,POINT Z (22.4833708 114.1386726 0),22.483370800000003,114.1386726
237,"LAI MING HSE(Block 1,WAH MING EST),WAH MING RD|華明村,1座(禮明樓),華明路",NSS,2369164.0,5083.0,443.0,2438715.0,5251.0,443.0,2822215.0,5819.0,489.0,9.0,19.0,29.0,"['12', '15', '16', '18', '2', '20', '22', '23', '4', '5', '7']",2518817.9393939395,5438.848484848485,463.54545454545456,29,319,1990/05,31,WAH MING EST,華明村,True,7.0,2653.0,POINT Z (22.4853081 114.1400802 0),22.4853081,114.14008020000001
238,"TUNG HING HSE,SAN KIN ST|TUNG HING HSE,新健街",NSS,3149600.0,6158.0,496.0,3157040.0,6168.0,496.0,3811171.0000000005,6380.0,637.0,2.0,3.0,4.0,"['A', 'B']",3409337.1666666665,6234.0,548.1666666666666,5,10,1994/07,27,blank,,False,,,POINT Z (22.3251005 114.2109374 0),22.3251005,114.2109374
239,"CHEUNG CHUNG HSE(CHEUNG WAH EST),SAN WAN RD|祥華村(祥頌樓),新運路",NSS,2800834.8693370894,9880.0,277.0,2842507.210004352,10027.0,277.0,2994171.851208334,10562.0,284.0,4.0,8.0,11.0,"['12', '2', '20', '6']",2901897.382587967,10236.5,278.75,11,44,1984/05,37,CHEUNG WAH EST,祥華村,True,13.0,939.0,POINT Z (22.492522 114.140191 0),22.492522,114.14019099999999
240,11 LUEN WO RD|11 聯和道,NSS,3722167.0,6341.0,555.0,3732146.0,6358.0,555.0,3802720.0576110277,6695.0,587.0,2.0,3.0,4.0,"['F.P.', 'R.P.']",3767130.754137875,6525.666666666667,571.0,5,10,1983/04,38,blank,,False,,,POINT Z (22.4979512 114.1430427 0),22.4979512,114.14304270000001
241,"PING HAY HSE(Block C,TAI PING EST),PO PING RD|太平村,C座(平熙樓),保平路",NSS,1741193.3868133673,4436.0,360.0,1775457.2431344935,4514.0,360.0,2415593.683338017,4902.0,494.0,6.0,13.0,20.0,"['10', '11', '14', '4', '5', '9']",2107734.6627229904,4660.555555555556,442.3333333333333,22,132,1989/06,32,TAI PING EST,太平村,True,4.0,454.0,POINT Z (22.4980192 114.1266263 0),22.498019199999998,114.1266263
242,"DRAGON VIEW HSE,WO FUNG ST|龍景樓,和豐街",NSS,,,356.0,2951924.3526183576,7193.0,366.0,2951924.3526183576,7193.0,401.0,3.0,4.0,4.0,"['A', 'B', 'D']",2951924.3526183576,7193.0,388.2222222222222,4,12,1981/04,40,blank,,False,,,POINT Z (22.4987085 114.1423329 0),22.4987085,114.14233290000001
243,"GREEN CODE(Block 1),MA SIK RD|逸峰1座,馬適路",NSS,4163400.0,11828.0,300.0,4484400.0,11973.0,300.0,9273664.0,14512.0,752.0,9.0,20.0,29.0,"['A', 'B', 'C', 'D', 'E']",6750248.0,13297.733333333332,518.0,28,140,2014/06,7,GREEN CODE,逸峰,True,4.0,749.0,POINT Z (22.5010014 114.1458862 0),22.5010014,114.14588619999999
244,"GREEN CODE(Block 3),MA SIK RD|逸峰3座,馬適路",NSS,4681476.0,12393.0,324.0,4631808.0,12727.0,326.0,8215426.0,14429.0,614.0,9.0,20.0,30.0,"['A', 'B', 'C', 'D', 'E', 'F', 'G', 'H']",6471416.916666667,13177.75,493.4166666666667,29,232,2014/06,7,GREEN CODE,逸峰,True,4.0,749.0,POINT Z (22.5010014 114.1458862 0),22.5010014,114.14588619999999
245,"GREEN CODE(Block 2),MA SIK RD|逸峰2座,馬適路",NSS,5795544.0,12076.0,452.0,5957812.0,12368.0,452.0,8238144.0,13604.0,642.0,9.0,20.0,30.0,"['A', 'B', 'C', 'D', 'E']",6549208.733333333,12837.866666666667,511.4666666666667,29,145,2014/06,7,GREEN CODE,逸峰,True,4.0,749.0,POINT Z (22.5010014 114.1458862 0),22.5010014,114.14588619999999
246,"GREEN CODE(Block 5),MA SIK RD|逸峰5座,馬適路",NSS,5792580.0,11944.0,459.0,5788908.0,12266.0,455.0,7790004.0,14036.0,614.0,9.0,20.0,30.0,"['A', 'B', 'C', 'D', 'E', 'F', 'G', 'H']",6540677.5,12881.958333333334,509.3333333333333,29,232,2014/06,7,GREEN CODE,逸峰,True,4.0,749.0,POINT Z (22.5010014 114.1458862 0),22.5010014,114.14588619999999
247,"FU MING HSE(Block 4,WAH MING EST),WAH MING RD|華明村,4座(富明樓),華明路",NSS,3004878.38338413,6005.0,375.0,3096101.4663568065,5999.0,375.0,4735960.864197893,8176.0,566.0,9.0,19.0,29.0,"['10', '12', '15', '16', '17', '3', '4', '5', '6', '7', '8']",3488302.6709989104,6557.611111111112,466.72727272727275,29,319,1990/07,31,WAH MING EST,華明村,True,7.0,2653.0,POINT Z (22.4824137 114.1414465 0),22.4824137,114.14144650000001
248,"TAI CHEUNG BLDG,WO TAI ST|泰昌樓,和泰街",NSS,,,513.0,,,513.0,,,587.0,2.0,2.0,4.0,"['B', 'E', 'G', 'J']",,,532.0,4,16,1977/04,44,blank,,False,,,POINT Z (22.5002132 114.1425894 0),22.500213199999997,114.1425894
249,41-53 WO TAI ST|41-53 和泰街,NSS,4276074.00459218,5571.0,750.0,4030454.962863676,5251.0,750.0,4572616.014147047,5770.0,799.0,3.0,4.0,4.0,"['A', 'B', 'D', 'E']",4359557.784765962,5588.5,762.25,4,16,1971/01,50,blank,,False,,,POINT Z (22.5002343 114.1428224 0),22.5002343,114.14282240000001
250,"PING CHING HSE(Block B,TAI PING EST),PO PING RD|太平村,B座(平靜樓),保平路",NSS,,,357.0,,,357.0,,,494.0,6.0,10.0,16.0,"['13', '14', '3', '4', '5']",,,431.3999999999999,14,70,1989/06,32,TAI PING EST,太平村,True,4.0,454.0,POINT Z (22.497981 114.12669 0),22.497981,114.12669
251,"CHEUNG FUNG HSE(CHEUNG WAH EST),SAN WAN RD|祥華村(祥豐樓),新運路",NSS,2292347.165262023,4817.0,358.0,2322803.926436357,4881.0,358.0,2351833.026930645,4942.0,465.0,16.0,21.0,26.0,"['10', '13', '15', '4', '9']",2322328.0395430084,4880.0,418.6000000000001,15,75,1984/03,37,CHEUNG WAH EST,祥華村,True,13.0,939.0,POINT Z (22.4917437 114.1418452 0),22.4917437,114.1418452
252,"PING YEE HSE(Block D,TAI PING EST),PO PING RD|太平村,D座(平易樓),保平路",NSS,1991933.5855619106,4810.0,357.0,2055505.934037291,4948.0,357.0,2965010.7304791175,5759.0,572.0,7.0,16.0,23.0,"['10', '11', '14', '2', '5', '9']",2486063.6626664936,5262.555555555556,464.0,21,126,1989/06,32,TAI PING EST,太平村,True,4.0,454.0,POINT Z (22.4972344 114.1265869 0),22.4972344,114.12658689999999
253,"MOUNT ONE,LUEN HING ST|瓏山1號,聯興街",NSS,6562773.0,11020.0,511.0,6755420.0,11049.0,511.0,13744686.0,13533.0,1226.0,11.0,20.0,28.0,"['1A', '1B', '1C', '2A', '2B', '2C', '2D']",9513841.523809524,12443.095238095239,774.8571428571428,23,161,2014/07,7,blank,,False,,,POINT Z (22.499556 114.140689 0),22.499556,114.140689
254,"FU HING BLDG,FU HING ST|富興樓,符興街",NSS,3000246.828840419,8611.0,319.0,2972823.4628314315,8621.0,319.0,3337275.043773534,9273.0,352.0,3.0,4.0,4.0,"['A', 'B', 'C', 'D', 'H']",3144494.5254868283,9041.333333333334,340.06666666666666,4,20,1981/01,40,blank,,False,,,POINT Z (22.5041995 114.1291416 0),22.5041995,114.1291416
255,"CHEUNG KING HSE(CHEUNG WAH EST),SAN WAN RD|祥華村(祥景樓),新運路",NSS,,,271.0,,,271.0,,,424.0,4.0,11.0,19.0,"['10', '107', '11', '13', '4']",,,392.8,21,105,1984/03,37,CHEUNG WAH EST,祥華村,True,13.0,939.0,POINT Z (22.4927783 114.1423329 0),22.4927783,114.14233290000001
256,"GOLF PARKVIEW(Block 3),CASTLE PEAK RD KWU TUNG|哥爾夫景園3座,青山公路古洞段",NSS,,,1079.0,,,1079.0,,,1086.0,2.0,2.0,4.0,"['A', 'B']",,,1080.1666666666667,4,8,2004/06,17,GOLF PARKVIEW,哥爾夫景園,True,2.0,16.0,POINT Z (22.5015815 114.1171347 0),22.5015815,114.11713470000001
257,"CHEUNG TAK HSE - WING A(CHEUNG WAH EST),SAN WAN RD|祥華村(祥德樓 - A翼),新運路",NSS,2039282.7963311232,4966.0,381.0,2076325.2180618034,5070.0,381.0,2613171.6873297733,5429.0,490.0,17.0,24.0,31.0,"['3', '5', '7', '8']",2315788.2619882077,5210.583333333333,435.5,20,80,1985/01,36,CHEUNG WAH EST,祥華村,True,13.0,939.0,POINT Z (22.493687 114.141726 0),22.493686999999998,114.141726
258,"CHEUNG CHI HSE - WING A(CHEUNG WAH EST),SAN WAN RD|祥華村(祥智樓 - A翼),新運路",NSS,2188083.0,5439.0,381.0,2204466.0,5505.0,381.0,2743510.0,5993.0,490.0,15.0,20.0,26.0,"['3', '4', '5', '7']",2350699.3333333335,5775.416666666667,408.25,15,60,1986/02,35,CHEUNG WAH EST,祥華村,True,13.0,939.0,POINT Z (22.4928965 114.1415218 0),22.4928965,114.14152179999999
259,"CHEUNG CHI HSE - WING C(CHEUNG WAH EST),SAN WAN RD|祥華村(祥智樓 - C翼),新運路",NSS,,,381.0,,,381.0,,,490.0,8.0,16.0,23.0,"['1', '6', '7', '8']",,,435.5,20,80,1986/02,35,CHEUNG WAH EST,祥華村,True,13.0,939.0,POINT Z (22.4928965 114.1415218 0),22.4928965,114.14152179999999
260,39 WO TAI ST|39 和泰街,NSS,4793522.710039642,5719.0,819.0,4793522.710039642,5719.0,819.0,4819506.134416496,5750.0,819.0,2.0,2.0,4.0,['whole floor'],4802183.851498594,5729.333333333333,819.0,4,4,1970/01,51,blank,,False,,,POINT Z (22.5002343 114.1428224 0),22.5002343,114.14282240000001
261,"KAM WO BLDG & KAM HING BLDG,SHUN LUNG ST|錦和樓及錦興樓,順隆街",NSS,1976332.6827614552,4435.0,404.0,1976332.6827614552,4435.0,404.0,2500180.7876586183,4804.0,548.0,2.0,2.0,4.0,"['B', 'D', 'F']",2245197.974814292,4597.555555555556,479.0,4,12,1974/09,47,blank,,False,,,POINT Z (22.5453825 114.2241925 0),22.545382500000002,114.2241925
262,"CHEUNG CHI HSE - WING B(CHEUNG WAH EST),SAN WAN RD|祥華村(祥智樓 - B翼),新運路",NSS,3412544.8699399703,6292.0,381.0,3496617.658365324,6451.0,381.0,4295041.959485567,7089.0,490.0,6.0,16.0,25.0,"['1', '5', '8']",3734098.390867297,6758.222222222222,417.3333333333333,25,75,1986/02,35,CHEUNG WAH EST,祥華村,True,13.0,939.0,POINT Z (22.4928965 114.1415218 0),22.4928965,114.14152179999999
263,"TUNG LOK MANSION,JOCKEY CLUB RD|同樂樓,馬會道",NSS,3116296.7089937683,7445.0,409.0,,,409.0,,,527.0,1.0,2.0,2.0,"['B', 'E', 'F']",3127276.854496884,7559.0,448.3333333333333,2,6,1973/09/20,48,blank,,False,,,POINT Z (22.5058967 114.1285848 0),22.5058967,114.1285848
264,"COMMUNE MODERN(Block 2),WO FUNG ST|囍逸2座,和豐街",NSS,4587600.0,11472.0,294.0,4593162.0,11772.0,294.0,9594984.0,16432.0,796.0,8.0,16.0,21.0,"['A', 'B', 'C', 'D', 'DH', 'E', 'EF', 'F', 'G', 'H', 'J']",6246967.181818183,14226.515151515152,452.8181818181818,18,198,2018/07,3,COMMUNE MODERN,囍逸,True,2.0,342.0,POINT Z (22.4984733 114.1428658 0),22.4984733,114.14286580000001
265,"COMMUNE MODERN(Block 1),WO FUNG ST|囍逸1座,和豐街",NSS,3961748.0,12541.0,235.0,4054806.0,12890.0,235.0,8433375.0,18124.0,645.0,8.0,16.0,21.0,"['A', 'B', 'C', 'D', 'E', 'F', 'G', 'H']",5815910.791666667,15315.75,393.125,18,144,2018/07,3,COMMUNE MODERN,囍逸,True,2.0,342.0,POINT Z (22.4984733 114.1428658 0),22.4984733,114.14286580000001
266,"CHEUNG TAK HSE - WING B(CHEUNG WAH EST),SAN WAN RD|祥華村(祥德樓 - B翼),新運路",NSS,2068830.0,5236.0,381.0,2093214.0,5302.0,381.0,2690590.0000000005,5702.0,490.0,19.0,25.0,31.0,"['3', '4', '6', '7', '8']",2321619.4666666663,5480.266666666666,424.6000000000001,19,95,1985/01,36,CHEUNG WAH EST,祥華村,True,13.0,939.0,POINT Z (22.493687 114.141726 0),22.493686999999998,114.141726
267,"FANLING GARDEN(Block 19),FAN LENG LAU RD|粉嶺花園19座,粉嶺樓路",NSS,4321761.19317903,8588.0,466.0,4321761.19317903,8588.0,466.0,5325286.91196918,9076.0,604.0,2.0,2.0,3.0,"['A', 'B']",4819073.571993007,8831.833333333334,535.0,2,4,1987/09,34,FANLING GARDEN,粉嶺花園,True,10.0,94.0,POINT Z (22.4986325 114.1403357 0),22.498632500000003,114.14033570000001
268,"EDEN MANOR(Block 2),CASTLE PEAK RD KWU TUNG|高爾夫御苑2座,青山公路古洞段",NSS,17548504.0,15838.0,1108.0,20131252.0,16582.0,1108.0,22017384.0,18492.0,1314.0,9.0,16.0,20.0,"['A', 'B']",20560062.333333332,17018.666666666668,1211.0,14,28,2019/05,2,EDEN MANOR,高爾夫御苑,True,6.0,415.0,POINT Z (22.5001325 114.1197882 0),22.5001325,114.1197882
269,"EDEN MANOR(Block 1),CASTLE PEAK RD KWU TUNG|高爾夫御苑1座,青山公路古洞段",NSS,17860960.0,14017.0,1108.0,18126880.0,14264.0,1108.0,34980946.0,17158.0,2422.0,10.0,16.0,20.0,"['A', 'AB', 'B']",24918650.0,15815.0,1614.6666666666667,13,39,2019/05,2,EDEN MANOR,高爾夫御苑,True,6.0,415.0,POINT Z (22.5001325 114.1197882 0),22.5001325,114.1197882
270,"EDEN MANOR(Block 7),CASTLE PEAK RD KWU TUNG|高爾夫御苑7座,青山公路古洞段",NSS,4442772.0,16097.0,276.0,4586292.0,16617.0,276.0,9472140.0,19490.0,487.0,6.0,16.0,23.0,"['A', 'B', 'C', 'D', 'E', 'F', 'G', 'H', 'J', 'K']",6396914.533333334,17743.133333333335,358.06666666666666,24,240,2019/05,2,EDEN MANOR,高爾夫御苑,True,6.0,415.0,POINT Z (22.5001325 114.1197882 0),22.5001325,114.1197882
271,"EDEN MANOR(Block 9),CASTLE PEAK RD KWU TUNG|高爾夫御苑9座,青山公路古洞段",NSS,15497142.0,12912.0,960.0,15286336.0,13152.0,960.0,25636808.0,17240.0,1927.0,9.0,16.0,20.0,"['A', 'AB', 'B']",18871644.333333332,15213.111111111111,1284.6666666666667,16,48,2019/05,2,EDEN MANOR,高爾夫御苑,True,6.0,415.0,POINT Z (22.5001325 114.1197882 0),22.5001325,114.1197882
272,"EDEN MANOR(Block 3),CASTLE PEAK RD KWU TUNG|高爾夫御苑3座,青山公路古洞段",NSS,15296640.0,13512.0,960.0,15374400.0,13851.0,960.0,28173652.355279528,17274.0,1927.0,9.0,16.0,20.0,"['A', 'AB', 'B']",19673089.061420172,15573.222222222224,1284.6666666666667,16,48,2019/05,2,EDEN MANOR,高爾夫御苑,True,6.0,415.0,POINT Z (22.5001325 114.1197882 0),22.5001325,114.1197882
273,"CHEUNG LOK HSE(CHEUNG WAH EST),SAN WAN RD|祥華村(祥樂樓),新運路",NSS,,,423.0,,,423.0,,,443.0,6.0,11.0,17.0,"['14', '3', '5', '6', '7']",,,431.3999999999999,17,85,1984/03,37,CHEUNG WAH EST,祥華村,True,13.0,939.0,POINT Z (22.4928965 114.1415218 0),22.4928965,114.14152179999999
274,"MARIN POINT(Block 3),SHUN LUNG ST|尚澄3座,順隆街",NSS,3380110.0,9641.0,337.0,3441545.9999999995,9710.0,345.0,6170877.0,11799.0,538.0,2.0,3.0,5.0,"['A', 'B', 'C', 'D', 'E', 'F', 'G', 'H', 'K', 'M']",4430242.1,10562.733333333334,416.9666666666667,5,50,2018/08,3,MARIN POINT,尚澄,True,4.0,200.0,POINT Z (22.5438993 114.2253145 0),22.543899300000003,114.2253145
275,"MARIN POINT(Block 5),SHUN LUNG ST|尚澄5座,順隆街",NSS,2960656.0,9143.0,300.0,2894080.0,9288.0,300.0,4467692.0,10999.0,451.0,2.0,3.0,5.0,"['A', 'B', 'D', 'E', 'F', 'G', 'H', 'J', 'K', 'L', 'M', 'N']",3570024.5555555555,10029.694444444443,357.1111111111111,5,60,2018/08,3,MARIN POINT,尚澄,True,4.0,200.0,POINT Z (22.5438993 114.2253145 0),22.543899300000003,114.2253145
276,"MARIN POINT(Block 2),SHUN LUNG ST|尚澄2座,順隆街",NSS,2737037.0,9164.0,277.0,2723733.0,9204.0,277.0,4019378.0,10747.0,430.0,2.0,3.0,5.0,"['D', 'E', 'F', 'G', 'H', 'J', 'K', 'L', 'N']",3237564.8888888885,9683.148148148148,334.962962962963,5,45,2018/08,3,MARIN POINT,尚澄,True,4.0,200.0,POINT Z (22.5438993 114.2253145 0),22.543899300000003,114.2253145
277,"MARIN POINT(Block 1),SHUN LUNG ST|尚澄1座,順隆街",NSS,3444322.0,9875.0,337.0,3488738.0,9953.0,345.0,5690763.0,11395.0,523.0,2.0,3.0,5.0,"['C', 'D', 'E', 'F', 'G', 'H', 'J', 'K', 'L']",4294187.777777778,10316.592592592593,416.0740740740741,5,45,2018/08,3,MARIN POINT,尚澄,True,4.0,200.0,POINT Z (22.5438993 114.2253145 0),22.543899300000003,114.2253145
278,29 WO TAI ST|29 和泰街,NSS,,,803.0,,,803.0,,,803.0,2.0,2.0,4.0,['whole floor'],,,803.0,4,4,1970/01,51,blank,,False,,,POINT Z (22.5002343 114.1428224 0),22.5002343,114.14282240000001
279,"EDEN MANOR(Block 6),CASTLE PEAK RD KWU TUNG|高爾夫御苑6座,青山公路古洞段",NSS,14442869.0,15029.0,961.0,14873397.0,15477.0,961.0,15040611.0,15651.0,961.0,9.0,14.0,18.0,['B'],14785625.666666666,15385.666666666666,961.0,12,12,2019/05,2,EDEN MANOR,高爾夫御苑,True,6.0,415.0,POINT Z (22.5001325 114.1197882 0),22.5001325,114.1197882
