,final_address,district,lowZone_value,lowZone_npsf_min,lowZone_nfa_min,midZone_value,midZone_npsf_min,midZone_nfa_min,highZone_value,highZone_npsf_max,highZone_nfa_max,oneSixth_floor,middle_floor,fifthSixth_floor,unit_list,value_avg,npsf_avg,unitSize_avg,noStorey,noFlat,op_date,bldgAge,est_name_en,est_name_ch,est_orNot,est_bldgNo,est_flatNo,final_coords,lat,long
0,"FLORA PLAZA(Block 7),PAK WO RD|花都廣場7座,百和路",NSS,4117610.0,9970.0,390.0,4472520.0,10652.0,390.0,6031608.0,11812.0,536.0,9,20,30,"['A', 'B', 'C', 'D', 'E', 'F', 'G', 'H']",4875718.541666667,11142.541666666666,438.75,34,272,1995/11,28,FLORA PLAZA,花都廣場,True,10.0,2720.0,POINT Z (22.4854804 114.141195 0),22.485480399999997,114.141195
1,"COMFORT COURT,LUEN WO RD|錦福大廈,聯和道",NSS,3797909.9999999995,10467.0,342.0,3862206.0000000005,10632.0,342.0,4644228.0,11583.0,428.0,3,8,12,"['A', 'B', 'C', 'D']",4221284.833333333,11002.666666666666,385.0,13,52,1994/02,29,blank,,False,,,POINT Z (22.4990197 114.1438773 0),22.499019699999998,114.1438773
2,"AVON PARK(Block 3),YAT MING RD|碧湖花園3座,一鳴路",NSS,4562721.0,11046.0,397.0,4617507.0,11262.0,397.0,5851525.0,12773.0,488.0,6,16,25,"['A', 'B', 'C', 'D', 'E', 'F', 'G', 'H']",5033993.458333333,11737.125,429.625,25,200,1994/03,29,AVON PARK,碧湖花園,True,7.0,1328.0,POINT Z (22.4871342 114.1432932 0),22.4871342,114.1432932
3,"LUNG FUNG GARDEN(Block B),LUNG SUM AVE|龍豐花園B座,龍琛路",NSS,4034272.0,10402.0,314.0,4133496.0,10600.0,314.0,5812550.000000001,13480.0,505.0,5,13,21,"['1', '2', '3', '4', '5', '6', '7', '8']",4885393.791666667,11955.083333333334,415.75,25,200,1991/07,32,LUNG FUNG GARDEN,龍豐花園,True,3.0,600.0,POINT Z (22.5027962 114.1294667 0),22.5027962,114.12946670000001
4,"CHEERFUL PARK(Block 4),KAT CHEUNG CRES|欣翠花園4座,吉祥街",NSS,5364517.999999999,8737.0,614.0,5411796.0,8814.0,614.0,7405034.0,9715.0,793.0,3,6,10,"['A', 'B', 'C', 'D', 'E', 'F', 'G', 'H']",6217417.791666667,9110.416666666666,681.0,12,96,1992/04,31,CHEERFUL PARK,欣翠花園,True,4.0,384.0,POINT Z (22.4957045 114.132393 0),22.495704500000002,114.132393
5,"FLORA PLAZA(Block 6),PAK WO RD|花都廣場6座,百和路",NSS,4506450.0,10655.0,390.0,4661280.0,10924.0,390.0,6058944.0,12159.0,536.0,9,20,30,"['A', 'B', 'C', 'D', 'E', 'F', 'G', 'H']",5187787.791666667,11489.791666666666,453.75,34,272,1995/11,28,FLORA PLAZA,花都廣場,True,10.0,2720.0,POINT Z (22.4854804 114.141195 0),22.485480399999997,114.141195
6,"FLORA PLAZA(Block 2),PAK WO RD|花都廣場2座,百和路",NSS,4412850.0,10344.0,390.0,4481880.0,10782.0,390.0,6333376.0,12327.0,536.0,9,20,30,"['A', 'B', 'C', 'D', 'E', 'F', 'G', 'H']",5057639.333333333,11564.0,438.375,34,272,1995/11,28,FLORA PLAZA,花都廣場,True,10.0,2720.0,POINT Z (22.4854804 114.141195 0),22.485480399999997,114.141195
7,"SAN FUNG BLDG,SAN FUNG AVE|新豐大廈,新豐路",NSS,3823100.6940931454,10601.0,360.0,3808749.6641251654,11098.0,352.0,4216694.042165017,11703.0,385.0,6,12,17,"['A', 'B', 'C', 'D']",4024503.827563965,11287.5,375.3333333333333,18,72,1993/10,30,blank,,False,,,POINT Z (22.5055529 114.1271392 0),22.505552899999998,114.1271392
8,"WOODLAND CREST(Block 6),TIN PING RD|奕翠園6座,天平路",NSS,8491616.418760927,9101.0,920.0,8595835.355191749,9236.0,920.0,9942032.504504634,10223.0,1030.0,2,6,9,"['A', 'B', 'C', 'D', 'E', 'F', 'G', 'H']",9064298.785354983,9591.25,977.5,9,72,1996/06,27,WOODLAND CREST,奕翠園,True,8.0,558.0,POINT Z (22.506152 114.1323698 0),22.506152,114.13236979999999
9,"WOODLAND CREST(Block 8),TIN PING RD|奕翠園8座,天平路",NSS,8522525.0,9061.0,935.0,8625375.0,9184.0,935.0,9657280.0,9558.0,1030.0,2,6,9,"['A', 'B', 'C', 'D', 'E', 'F', 'G', 'H']",9137872.375,9315.791666666666,981.25,9,72,1996/06,27,WOODLAND CREST,奕翠園,True,8.0,558.0,POINT Z (22.5063978 114.1330201 0),22.506397800000002,114.13302009999998
10,"WOODLAND CREST(Block 3),TIN PING RD|奕翠園3座,天平路",NSS,,,935.0,,,935.0,9374772.0,9164.0,1030.0,2,6,9,"['A', 'B', 'C', 'D', 'E', 'F', 'G', 'H']",9374772.0,9164.0,981.25,9,72,1996/06,27,WOODLAND CREST,奕翠園,True,8.0,558.0,POINT Z (22.5073866 114.1328343 0),22.5073866,114.13283429999998
11,"WOODLAND CREST(Block 2),TIN PING RD|奕翠園2座,天平路",NSS,,,935.0,,,935.0,,,1030.0,2,6,9,"['A', 'B', 'C', 'D', 'E', 'F', 'G', 'H']",,,981.25,9,72,1996/04,27,WOODLAND CREST,奕翠園,True,8.0,558.0,POINT Z (22.5071872 114.1325788 0),22.5071872,114.13257879999999
12,"AVON PARK(Block 8),YAT MING RD|碧湖花園8座,一鳴路",NSS,4502377.0,10843.0,397.0,4586938.0,11123.0,397.0,5454795.0,12218.0,485.0,5,12,21,"['A', 'B', 'C', 'D', 'E', 'F', 'G', 'H']",4903433.208333333,11446.083333333334,429.25,21,168,1994/03,29,AVON PARK,碧湖花園,True,7.0,1328.0,POINT Z (22.4868427 114.1433249 0),22.4868427,114.14332490000001
13,"AVON PARK(Block 1),YAT MING RD|碧湖花園1座,一鳴路",NSS,4498010.0,10547.0,397.0,4566294.0,10810.0,397.0,5459645.0,12283.0,488.0,6,16,25,"['A', 'B', 'C', 'D', 'E', 'F', 'G', 'H']",4887719.166666667,11405.958333333334,429.625,25,200,1994/03,29,AVON PARK,碧湖花園,True,7.0,1328.0,POINT Z (22.4872208 114.142796 0),22.487220800000003,114.14279599999999
14,"FLORA PLAZA(Block 3),PAK WO RD|花都廣場3座,百和路",NSS,4367220.0,10445.0,390.0,4536870.0,10548.0,390.0,6166680.0,12143.0,536.0,9,20,30,"['A', 'B', 'C', 'D', 'E', 'F', 'G', 'H']",4935762.25,11282.75,438.75,34,272,1995/11,28,FLORA PLAZA,花都廣場,True,10.0,2720.0,POINT Z (22.4854804 114.141195 0),22.485480399999997,114.141195
15,"FLORA PLAZA(Block 4),PAK WO RD|花都廣場4座,百和路",NSS,4199520.0,10360.0,390.0,4400760.0,10659.0,390.0,5971576.0,12183.0,536.0,9,20,30,"['A', 'B', 'C', 'D', 'E', 'F', 'G', 'H']",4898366.416666667,11195.458333333334,439.0833333333333,34,272,1995/11,28,FLORA PLAZA,花都廣場,True,10.0,2720.0,POINT Z (22.4848953 114.1414485 0),22.4848953,114.14144850000001
16,"GALAXY COURT(Block 7,FANLING TOWN CTR),FANLING STATION RD|粉嶺名都,7座(嘉麗閣),粉嶺車站路",NSS,4362750.0,10752.0,375.0,4372875.0,10971.0,375.0,5269992.0,12454.0,456.0,4,10,17,"['A', 'B', 'C', 'D', 'E', 'F', 'G', 'H']",4729677.5,11667.0,406.25,20,160,1993/05,30,FANLING TOWN CTR,粉嶺名都,True,7.0,1688.0,POINT Z (22.4927378 114.1388726 0),22.4927378,114.1388726
17,"AVON PARK(Block 5),YAT MING RD|碧湖花園5座,一鳴路",NSS,4434887.0,10692.0,397.0,4578601.0,11209.0,397.0,5682260.0,12571.0,488.0,6,16,25,"['A', 'B', 'C', 'D', 'E', 'F', 'G', 'H']",4942387.791666667,11525.791666666666,429.625,25,200,1994/03,29,AVON PARK,碧湖花園,True,7.0,1328.0,POINT Z (22.4872337 114.143256 0),22.4872337,114.14325600000001
18,"CHEERFUL PARK(Block 3),KAT CHEUNG CRES|欣翠花園3座,吉祥街",NSS,3756206.0,8866.0,382.0,3794024.0,9049.0,382.0,6861400.0,11379.0,676.0,3,6,10,"['A', 'B', 'C', 'D', 'E', 'F', 'G', 'H']",5229556.708333333,10142.791666666666,524.75,12,96,1992/04,31,CHEERFUL PARK,欣翠花園,True,4.0,384.0,POINT Z (22.4956433 114.1320911 0),22.4956433,114.13209109999998
19,"AVON PARK(Block 2),YAT MING RD|碧湖花園2座,一鳴路",NSS,4434887.0,10491.0,397.0,4540092.0,10973.0,397.0,5554705.0,12403.0,488.0,6,16,25,"['A', 'B', 'C', 'D', 'E', 'F', 'G', 'H']",4909698.625,11425.833333333334,430.8333333333333,25,200,1994/03,29,AVON PARK,碧湖花園,True,7.0,1328.0,POINT Z (22.4873464 114.1432845 0),22.487346399999996,114.1432845
20,"LUNG FUNG GARDEN(Block A),LUNG SUM AVE|龍豐花園A座,龍琛路",NSS,3957870.0,10952.0,328.0,4054736.0,11249.0,328.0,5998390.0,12933.0,505.0,5,13,21,"['1', '2', '3', '4', '5', '6', '7', '8']",4947227.958333333,11923.875,418.5,25,200,1991/07,32,LUNG FUNG GARDEN,龍豐花園,True,3.0,600.0,POINT Z (22.5030936 114.1297919 0),22.503093600000003,114.1297919
21,"BERLIN COURT(Block 1,SHEUNG SHUI TOWN CTR),CHI CHEONG RD|上水名都,1座(柏林閣),智昌路",NSS,4435305.0,11565.0,371.0,4518780.0,11744.0,371.0,5465915.0,12706.0,455.0,5,12,20,"['A', 'B', 'C', 'D', 'E', 'F', 'G', 'H']",4912269.083333333,12121.875,405.75,24,192,1992/08,31,SHEUNG SHUI TOWN CTR,上水名都,True,4.0,784.0,POINT Z (22.500728 114.131714 0),22.500728,114.13171399999999
22,"WOODLAND CREST(Block 5),TIN PING RD|奕翠園5座,天平路",NSS,8693928.295523362,9746.0,857.0,8784591.897010263,9846.0,865.0,10206471.0,10419.0,1472.0,2,6,8,"['A', 'B', 'C', 'D', 'E', 'F', 'G']",9008880.582482524,9958.25,1027.7619047619048,10,70,1996/04,27,WOODLAND CREST,奕翠園,True,8.0,558.0,POINT Z (22.507535 114.1331362 0),22.507535,114.1331362
23,"WOODLAND CREST(Block 1),TIN PING RD|奕翠園1座,天平路",NSS,8002581.496453143,8671.0,920.0,8078671.615599747,8820.0,920.0,9277642.369833728,9809.0,1030.0,2,6,9,"['A', 'B', 'C', 'D', 'E', 'F', 'G', 'H']",8581487.65534346,9161.458333333334,977.5,9,72,1996/06,27,WOODLAND CREST,奕翠園,True,8.0,558.0,POINT Z (22.5070388 114.1322769 0),22.5070388,114.13227690000001
24,"CHEERFUL PARK(Block 2),KAT CHEUNG CRES|欣翠花園2座,吉祥街",NSS,4087018.0,8864.0,382.0,4120634.0,9071.0,382.0,6585387.0,10966.0,676.0,3,6,10,"['A', 'B', 'C', 'D', 'E', 'F', 'G', 'H']",5183608.583333333,10082.5,524.75,12,96,1992/04,31,CHEERFUL PARK,欣翠花園,True,4.0,384.0,POINT Z (22.4957894 114.1317195 0),22.495789399999996,114.1317195
25,"FLORA PLAZA(Block 8),PAK WO RD|花都廣場8座,百和路",NSS,4358802.0,10366.0,390.0,4356300.0,10716.0,390.0,6111472.0,12402.0,536.0,9,20,30,"['A', 'B', 'C', 'D', 'E', 'F', 'G', 'H']",4936774.5,11280.25,439.0,34,272,1995/11,28,FLORA PLAZA,花都廣場,True,10.0,2720.0,POINT Z (22.4854804 114.141195 0),22.485480399999997,114.141195
26,"LUNG FUNG GARDEN(Block C),LUNG SUM AVE|龍豐花園C座,龍琛路",NSS,4163166.0,11050.0,328.0,4352888.0,11341.0,328.0,5963039.999999999,13554.0,505.0,5,13,21,"['1', '2', '3', '4', '5', '6', '7', '8']",5375189.566666666,11971.333333333334,418.5,25,200,1991/07,32,LUNG FUNG GARDEN,龍豐花園,True,3.0,600.0,POINT Z (22.5026247 114.1298615 0),22.502624700000002,114.1298615
27,"AVON PARK(Block 6),YAT MING RD|碧湖花園6座,一鳴路",NSS,4422183.0,10747.0,397.0,4498407.0,10609.0,397.0,5590040.000000001,12337.0,488.0,6,16,25,"['A', 'B', 'C', 'D', 'E', 'F', 'G', 'H']",4881896.5,11384.75,429.625,25,200,1994/03,29,AVON PARK,碧湖花園,True,7.0,1328.0,POINT Z (22.4873999 114.1433122 0),22.4873999,114.1433122
28,"GRAND TOWER(Block A),LUEN WO RD|嘉宏中心A座,聯和道",NSS,3241866.8686690032,11482.0,297.0,3395007.0,11431.0,297.0,3639971.0565128718,12892.0,297.0,3,8,13,"['A', 'B']",3440560.839879658,12086.833333333334,297.0,15,30,1992/11,31,GRAND TOWER,嘉宏中心,True,2.0,64.0,POINT Z (22.4977503 114.1426697 0),22.4977503,114.1426697
29,"AMBER COURT(Block 1,FANLING TOWN CTR),FANLING STATION RD|粉嶺名都,1座(雅碧閣),粉嶺車站路",NSS,4369872.0,10258.0,376.0,4449249.0,10949.0,376.0,5184720.0,12262.0,456.0,5,12,18,"['A', 'B', 'C', 'D', 'E', 'F', 'G', 'H']",4652557.541666667,11442.416666666666,407.5,22,176,1993/05,30,FANLING TOWN CTR,粉嶺名都,True,7.0,1688.0,POINT Z (22.4918335 114.1401071 0),22.4918335,114.1401071
30,"ELEGANT COURT(Block 5,FANLING TOWN CTR),FANLING STATION RD|粉嶺名都,5座(怡景閣),粉嶺車站路",NSS,4061022.0,10178.0,376.0,4523280.0,10857.0,376.0,5197944.0,12309.0,456.0,5,12,19,"['A', 'B', 'C', 'D', 'E', 'F', 'G', 'H']",4666932.375,11478.458333333334,407.5,23,184,1993/05,30,FANLING TOWN CTR,粉嶺名都,True,7.0,1688.0,POINT Z (22.4918335 114.1401071 0),22.4918335,114.1401071
31,"VENICE GARDEN(Block 2),PO WING RD|威尼斯花園2座,保榮路",NSS,4094640.0,9131.0,439.0,4240720.0,9395.0,439.0,4755244.0,10084.0,494.0,4,10,15,"['A', 'B', 'C', 'D', 'E', 'F', 'G', 'H']",4376421.791666667,9658.083333333334,453.5,18,144,1993/03,30,VENICE GARDEN,威尼斯花園,True,2.0,288.0,POINT Z (22.4975126 114.1274462 0),22.4975126,114.12744620000001
32,"GRAND TOWER(Block B),LUEN WO RD|嘉宏中心B座,聯和道",NSS,3350754.0,11282.0,297.0,3317787.0,11171.0,297.0,3412119.936236275,12085.0,297.0,4,10,15,"['A', 'B']",3376920.0171522275,11670.166666666666,297.0,18,36,1992/11,31,GRAND TOWER,嘉宏中心,True,2.0,64.0,POINT Z (22.4978627 114.1427858 0),22.4978627,114.1427858
33,"PARIS COURT(Block 3,SHEUNG SHUI TOWN CTR),CHI CHEONG RD|上水名都,3座(巴黎閣),智昌路",NSS,4168489.0000000005,9568.0,377.0,4060144.0000000005,9746.0,377.0,5169654.0,12543.0,461.0,5,13,21,"['A', 'B', 'C', 'D', 'E', 'F', 'G', 'H']",4470255.333333333,11017.75,406.8333333333333,25,200,1992/08,31,SHEUNG SHUI TOWN CTR,上水名都,True,4.0,784.0,POINT Z (22.5009463 114.1315105 0),22.500946300000003,114.1315105
34,"CHEERFUL PARK(Block 1),KAT CHEUNG CRES|欣翠花園1座,吉祥街",NSS,5810282.0,8986.0,614.0,5879050.0,8491.0,614.0,7558876.0,9990.0,793.0,3,6,10,"['A', 'B', 'C', 'D', 'E', 'F', 'G', 'H']",6466725.916666667,9522.083333333334,681.0,12,96,1992/04,31,CHEERFUL PARK,欣翠花園,True,4.0,384.0,POINT Z (22.496055 114.1315569 0),22.496055,114.1315569
35,"ROME COURT(Block 4,SHEUNG SHUI TOWN CTR),CHI CHEONG RD|上水名都,4座(羅馬閣),智昌路",NSS,4324567.0,11068.0,377.0,4432766.0,11392.0,377.0,5391856.0,12285.0,461.0,5,13,21,"['A', 'B', 'C', 'D', 'E', 'F', 'G', 'H']",4721140.666666667,11643.125,405.9166666666667,25,200,1992/08,31,SHEUNG SHUI TOWN CTR,上水名都,True,4.0,784.0,POINT Z (22.5009022 114.1313868 0),22.5009022,114.1313868
36,"CANARY COURT(Block 3,FANLING TOWN CTR),FANLING STATION RD|粉嶺名都,3座(嘉蘭閣),粉嶺車站路",NSS,4138827.0,10249.0,376.0,4268502.0,10698.0,376.0,5122248.0,11842.0,456.0,5,13,21,"['A', 'B', 'C', 'D', 'E', 'F', 'G', 'H']",4609054.916666667,11326.791666666666,407.5,25,200,1993/05,30,FANLING TOWN CTR,粉嶺名都,True,7.0,1688.0,POINT Z (22.492305 114.13987 0),22.492304999999998,114.13987
37,"FLORA PLAZA(Block 5),PAK WO RD|花都廣場5座,百和路",NSS,4324710.0,10337.0,390.0,4516200.0,10542.0,390.0,6113080.0,12007.0,536.0,9,20,30,"['A', 'B', 'C', 'D', 'E', 'F', 'G', 'H']",5079826.958333333,11244.791666666666,453.75,34,272,1995/11,28,FLORA PLAZA,花都廣場,True,10.0,2720.0,POINT Z (22.4854804 114.141195 0),22.485480399999997,114.141195
38,"PARKFORD GARDEN,CHI FUK CIRT|百褔花園,置福圍",NSS,7132302.18469061,9748.0,756.0,7184048.028835885,9824.0,756.0,9091875.625925211,10053.0,968.0,3,6,8,"['A', 'B', 'C', 'D', 'E', 'F', 'G', 'H']",8203737.087151286,9911.452380952382,853.375,8,64,1995/12,28,blank,,False,,,POINT Z (22.4922175 114.1354122 0),22.4922175,114.13541219999999
39,"AVON PARK(Block 7),YAT MING RD|碧湖花園7座,一鳴路",NSS,4341195.0,10417.0,397.0,4447194.0,10707.0,397.0,5469830.000000001,12028.0,485.0,5,12,20,"['A', 'B', 'C', 'D', 'E', 'F', 'G', 'H']",4776040.916666667,11146.333333333334,429.25,20,160,1994/03,29,AVON PARK,碧湖花園,True,7.0,1328.0,POINT Z (22.4869506 114.1432201 0),22.486950600000004,114.1432201
40,"DRAGON COURT(Block 4,FANLING TOWN CTR),FANLING STATION RD|粉嶺名都,4座(龍騰閣),粉嶺車站路",NSS,4343598.0,11031.0,376.0,4455976.0,11325.0,376.0,5814912.0,12909.0,456.0,5,13,21,"['A', 'B', 'C', 'D', 'E', 'F', 'G', 'H']",4830305.541666667,11836.083333333334,407.75,25,200,1993/05,30,FANLING TOWN CTR,粉嶺名都,True,7.0,1688.0,POINT Z (22.4918335 114.1401071 0),22.4918335,114.1401071
41,"VENICE GARDEN(Block 1),PO WING RD|威尼斯花園1座,保榮路",NSS,3919520.0,8908.0,439.0,3981560.0,9049.0,439.0,4798222.0,10010.0,494.0,4,10,15,"['A', 'B', 'C', 'D', 'E', 'F', 'G', 'H']",4280316.75,9439.166666666666,453.5,18,144,1993/03,30,VENICE GARDEN,威尼斯花園,True,2.0,288.0,POINT Z (22.4976429 114.1277249 0),22.4976429,114.1277249
42,"WO FUNG COURT,WO FUNG ST|和豐閣,和豐街",NSS,4142114.776521809,8618.0,428.0,4166651.7255724017,8672.0,428.0,5147044.757253249,9139.0,537.0,4,6,9,"['A', 'B', 'C', 'D']",4627947.954195305,8884.416666666666,482.5,10,40,1991/03,32,blank,,False,,,POINT Z (22.4981563 114.14224 0),22.498156299999998,114.14223999999999
43,"FLORA PLAZA(Block 9),PAK WO RD|花都廣場9座,百和路",NSS,4424550.0,10815.0,390.0,4482270.0,11289.0,390.0,6337128.0,12438.0,536.0,9,20,30,"['A', 'B', 'C', 'D', 'E', 'F', 'G', 'H']",5064450.208333333,11561.041666666666,438.75,34,272,1995/11,28,FLORA PLAZA,花都廣場,True,10.0,2720.0,POINT Z (22.4854804 114.141195 0),22.485480399999997,114.141195
44,"GOOD VIEW NEW VILLAGE(Block 9C),LING SHAN RD|美景新村9C座,靈山路",NSS,2655148.4157098997,4095.0,350.0,2306369.368968192,4098.0,350.0,2657093.5793844126,6092.0,453.0,1,2,2,"['2', '3', '5', '6']",2524298.0117025976,4628.333333333333,400.0,2,8,1983/06,40,GOOD VIEW NEW VILLAGE,美景新村,True,3.0,40.0,POINT Z (22.5028465 114.1381642 0),22.5028465,114.1381642
45,"FLORA PLAZA(Block 1),PAK WO RD|花都廣場1座,百和路",NSS,4394910.0,10316.0,390.0,4411290.0,10669.0,390.0,5935128.0,11738.0,536.0,9,20,30,"['A', 'B', 'C', 'D', 'E', 'F', 'G', 'H']",5014942.458333333,11098.125,453.75,34,272,1995/11,28,FLORA PLAZA,花都廣場,True,10.0,2720.0,POINT Z (22.4854804 114.141195 0),22.485480399999997,114.141195
46,"WOODLAND CREST(Block 9),TIN PING RD|奕翠園9座,天平路",NSS,8471159.914233409,8314.0,937.0,8830105.27212599,8506.0,937.0,13549243.989383746,9948.0,1478.0,2,6,8,"['A', 'B', 'C', 'D', 'E', 'F', 'G']",10069544.492335478,9013.047619047618,1062.4285714285713,10,70,1996/06,27,WOODLAND CREST,奕翠園,True,8.0,558.0,POINT Z (22.5065026 114.133322 0),22.5065026,114.13332199999999
47,"WOODLAND CREST(Block 7),TIN PING RD|奕翠園7座,天平路",NSS,8602597.0,9028.0,935.0,8693486.0,9124.0,935.0,9466730.0,9396.0,1030.0,2,6,9,"['A', 'B', 'C', 'D', 'E', 'F', 'G', 'H']",9032984.333333334,9209.375,981.25,9,72,1996/03,27,WOODLAND CREST,奕翠園,True,8.0,558.0,POINT Z (22.5063694 114.1326485 0),22.5063694,114.13264850000002
48,"BRILLIANT COURT(Block 2,FANLING TOWN CTR),FANLING STATION RD|粉嶺名都,2座(百利閣),粉嶺車站路",NSS,4114944.0,10293.0,376.0,4215336.0,10696.0,376.0,4997304.0,12096.0,456.0,5,12,19,"['A', 'B', 'C', 'D', 'E', 'F', 'G', 'H']",4533371.75,11147.875,407.5,23,184,1993/05,30,FANLING TOWN CTR,粉嶺名都,True,7.0,1688.0,POINT Z (22.4918335 114.1401071 0),22.4918335,114.1401071
49,"WING HAY COURT,WO FUNG ST|榮熙閣,和豐街",NSS,3895374.899468454,9828.0,402.0,3930533.782108609,9913.0,402.0,5066130.327162317,11814.0,531.0,3,6,9,"['A', 'B', 'C', 'D']",4609986.0338179795,10469.083333333334,466.5,10,40,1993/09,30,blank,,False,,,POINT Z (22.4983675 114.1420078 0),22.4983675,114.1420078
50,"FOO HOO COURT,LUEN ON ST|富好閣,聯安街",NSS,3218044.5011565755,10815.0,284.0,3271407.4029313917,11259.0,284.0,3586744.0978544718,12225.0,317.0,3,6,9,"['A', 'B', 'C', 'D']",3367818.64135433,11774.416666666666,301.25,11,44,1991/12,32,blank,,False,,,POINT Z (22.4995899 114.1437714 0),22.499589899999997,114.14377140000002
51,"GREENPARK VILLA(Block 1),KAT CHEUNG CRES|蔚翠花園1座,吉祥街",NSS,5246968.895437952,9313.0,538.0,5301694.080330423,9457.0,538.0,8551934.284449743,10646.0,845.0,3,8,11,"['A', 'B', 'C', 'D', 'E', 'F']",7084251.414904691,10106.388888888889,732.3333333333334,12,72,1994/01,29,GREENPARK VILLA,蔚翠花園,True,6.0,544.0,POINT Z (22.4959617 114.1328343 0),22.4959617,114.13283429999998
52,"EDEN GARDEN,WAI HON RD|海裕苑,維翰路",NSS,,,1077.0,,,1077.0,,,1193.0,2,6,10,"['10A', '10B', '11B', '12A', '15B', '16B', '18B', '1A', '1B', '2A', '3A', '3B', '4A', '5A', '5B', '6A', '7B', '8A', '9A', 'A', 'B']",,,1166.4285714285716,12,252,1992/12,31,blank,,False,,,POINT Z (22.4951548 114.1300125 0),22.4951548,114.1300125
53,"FLORA PLAZA(Block 10),PAK WO RD|花都廣場10座,百和路",NSS,4438590.0,10266.0,390.0,4540770.0,10685.0,390.0,6335520.0,11948.0,536.0,9,20,30,"['A', 'B', 'C', 'D', 'E', 'F', 'G', 'H']",5128468.666666667,11342.833333333334,453.75,34,272,1995/11,28,FLORA PLAZA,花都廣場,True,10.0,2720.0,POINT Z (22.4854804 114.141195 0),22.485480399999997,114.141195
54,"NEW YORK COURT(Block 2,SHEUNG SHUI TOWN CTR),CHI CHEONG RD|上水名都,2座(紐約閣),智昌路",NSS,4225039.0,10963.0,371.0,4417868.0,10914.0,371.0,5438160.000000001,12356.0,461.0,5,12,20,"['A', 'B', 'C', 'D', 'E', 'F', 'G', 'H']",4704581.833333333,11550.0,407.7916666666667,24,192,1992/08,31,SHEUNG SHUI TOWN CTR,上水名都,True,4.0,784.0,POINT Z (22.5007424 114.1316963 0),22.5007424,114.1316963
55,"SHEUNG SHUI CTR(Block 5),CHI CHEONG RD|上水中心5座,智昌路",NSS,4573115.0,12684.0,353.0,4658541.0,12915.0,353.0,7334850.0,13777.0,535.0,6,13,20,"['5A', '5B', '5C', '5D', '5E', '5F', '5G', 'A', 'B', 'C', 'D', 'E', 'F', 'G', 'H']",5844170.555555556,13250.022222222222,440.8666666666666,23,345,1993/11,30,SHEUNG SHUI CTR,上水中心,True,6.0,2117.0,POINT Z (22.5009195 114.1303028 0),22.500919500000002,114.1303028
56,"SHEUNG SHUI CTR(Block 6),CHI CHEONG RD|上水中心6座,智昌路",NSS,5575888.0,11214.0,488.0,5736927.999999999,11756.0,480.0,7714043.999999999,12575.0,622.0,6,13,20,"['6A', '6B', '6C', '6D', '6E', '6F', '6G', '6H', 'A', 'B', 'C', 'D', 'E', 'F', 'G', 'H']",6672065.916666667,11968.708333333334,558.3333333333334,23,368,1993/11,30,SHEUNG SHUI CTR,上水中心,True,6.0,2117.0,POINT Z (22.5010553 114.13077 0),22.5010553,114.13077
57,"SHEUNG SHUI CTR(Block 4),CHI CHEONG RD|上水中心4座,智昌路",NSS,4599943.0,12583.0,353.0,4599590.0,12810.0,353.0,7394235.0,13821.0,535.0,6,13,20,"['4A', '4B', '4C', '4D', '4E', '4F', '4G', '4H', 'A', 'B', 'C', 'D', 'E', 'F', 'G', 'H']",5871335.708333333,13155.291666666666,446.3333333333333,23,368,1993/11,30,SHEUNG SHUI CTR,上水中心,True,6.0,2117.0,POINT Z (22.5008858 114.1299577 0),22.500885800000002,114.1299577
58,"SHEUNG SHUI CTR(Block 2),CHI CHEONG RD|上水中心2座,智昌路",NSS,4238729.0,12084.0,323.0,4491344.0,13000.0,338.0,4863145.0,13886.0,355.0,5,12,20,"['2A', '2B', '2C', '2D', '2E', '2F', '2G', '2H', 'A', 'B', 'C', 'D', 'E', 'F', 'G', 'H']",4618900.145833333,13237.583333333334,348.9791666666667,24,384,1993/11,30,SHEUNG SHUI CTR,上水中心,True,6.0,2117.0,POINT Z (22.5009432 114.1293274 0),22.500943200000002,114.1293274
59,"METROPOLIS PLAZA(Block 3),LUNG WAN ST|新都廣場3座,龍運街",NSS,4697076.0,10389.0,414.0,4828284.0,10578.0,414.0,6477328.0,12710.0,596.0,8,16,24,"['A', 'B', 'C', 'D', 'E', 'F', 'G', 'H']",5452114.041666667,11332.833333333334,483.25,25,200,1991/03,32,METROPOLIS PLAZA,新都廣場,True,3.0,592.0,POINT Z (22.5016194 114.1292912 0),22.5016194,114.1292912
60,"GREENPARK VILLA(Block 5),KAT CHEUNG CRES|蔚翠花園5座,吉祥街",NSS,5279247.305051942,9013.0,554.0,5494651.549641551,8999.0,554.0,7015579.999999999,10497.0,735.0,3,8,11,"['A', 'B', 'C', 'D', 'E', 'F', 'G', 'H']",6464843.476793329,9596.708333333334,699.5416666666666,12,96,1994/01,29,GREENPARK VILLA,蔚翠花園,True,6.0,544.0,POINT Z (22.4948766 114.1333337 0),22.4948766,114.13333370000001
61,"SHEUNG SHUI CTR(Block 3),CHI CHEONG RD|上水中心3座,智昌路",NSS,4195447.0,12634.0,323.0,4444362.0,12982.0,338.0,4935000.0,13630.0,375.0,5,12,20,"['3A', '3B', '3C', '3D', '3E', '3F', '3G', '3H', 'A', 'B', 'C', 'D', 'E', 'F', 'G', 'H']",4581872.520833333,13106.666666666666,349.6041666666667,24,384,1993/11,30,SHEUNG SHUI CTR,上水中心,True,6.0,2117.0,POINT Z (22.5008858 114.1299577 0),22.500885800000002,114.1299577
62,"VIENNA GARDEN(Block 1),KAT CHEUNG CRES|維也納花園1座,吉祥街",NSS,4269018.0,8032.0,476.0,4316340.0,8135.0,476.0,6306911.999999999,9385.0,732.0,3,6,10,"['A', 'B', 'C', 'D', 'E', 'F', 'G', 'H']",5440873.041666667,8585.958333333334,637.5,12,96,1993/03,30,VIENNA GARDEN,維也納花園,True,3.0,288.0,POINT Z (22.4959228 114.130326 0),22.4959228,114.130326
63,"SHEUNG SHUI CTR(Block 1),CHI CHEONG RD|上水中心1座,智昌路",NSS,4321330.0,12509.0,338.0,4428814.0,12976.0,338.0,4974260.0,14183.0,355.0,5,12,20,"['1A', '1B', '1C', '1D', '1E', '1F', '1G', '1H', 'A', 'B', 'C', 'D', 'E', 'F', 'G', 'H']",4677916.541666667,13360.8125,350.125,24,384,1993/11,30,SHEUNG SHUI CTR,上水中心,True,6.0,2117.0,POINT Z (22.5011544 114.1290951 0),22.5011544,114.12909509999999
64,"GREENPARK VILLA(Block 2),KAT CHEUNG CRES|蔚翠花園2座,吉祥街",NSS,6520737.0,9019.0,715.0,6586530.000000001,9110.0,715.0,6885480.0,9445.0,742.0,3,8,11,"['A', 'B', 'C', 'D', 'E', 'F', 'G', 'H']",6689852.0,9263.75,722.1666666666666,12,96,1994/01,29,GREENPARK VILLA,蔚翠花園,True,6.0,544.0,POINT Z (22.495581 114.133057 0),22.495581,114.13305700000001
65,"GREENPARK VILLA(Block 6),KAT CHEUNG CRES|蔚翠花園6座,吉祥街",NSS,6638060.0,9284.0,715.0,6698119.999999999,9368.0,715.0,7410260.0,10364.0,729.0,3,8,11,"['A', 'B', 'C', 'D', 'E', 'F', 'G', 'H']",7035117.222222221,9775.666666666666,722.0,12,96,1994/01,29,GREENPARK VILLA,蔚翠花園,True,6.0,544.0,POINT Z (22.4951099 114.1336136 0),22.4951099,114.13361359999999
66,"UNION PLAZA(Block 2),WO MUK RD|海聯廣場2座,和睦路",NSS,4201652.0,8619.0,442.0,4258670.0,8779.0,442.0,6114276.0,9933.0,684.0,7,14,21,"['A', 'B', 'C', 'D', 'E', 'F', 'G', 'H']",5044490.166666667,9340.0,543.375,20,160,1994/05,29,UNION PLAZA,海聯廣場,True,1.0,160.0,POINT Z (22.4999531 114.1413575 0),22.499953100000003,114.1413575
67,"GREENPARK VILLA(Block 3),KAT CHEUNG CRES|蔚翠花園3座,吉祥街",NSS,6201195.000000001,8673.0,715.0,5379894.0,8697.0,554.0,6826960.0,9762.0,730.0,3,8,11,"['A', 'B', 'C', 'D', 'E', 'F', 'G', 'H']",6523794.375,9233.416666666666,707.25,12,96,1994/01,29,GREENPARK VILLA,蔚翠花園,True,6.0,544.0,POINT Z (22.4953512 114.1328343 0),22.495351199999998,114.13283429999998
68,"METROPOLIS PLAZA(Block 2),LUNG WAN ST|新都廣場2座,龍運街",NSS,4815300.0,11202.0,414.0,4977108.0,11419.0,414.0,7534029.999999999,12625.0,602.0,8,16,24,"['A', 'B', 'C', 'D', 'E', 'F', 'G', 'H']",5730739.125,11911.958333333334,480.75,25,200,1991/03,32,METROPOLIS PLAZA,新都廣場,True,3.0,592.0,POINT Z (22.5020588 114.1297509 0),22.5020588,114.1297509
69,"TONG WU HSE(Block C,YUK PO COURT),CHOI YUEN RD|旭埔苑,C座(唐湖閣),彩園路",NSS,2770404.0,5074.0,546.0,2827188.0,5178.0,546.0,3064698.0,5613.0,546.0,4,10,15,"['1', '2', '3', '4', '5', '6', '7']",2883062.0,5280.333333333333,546.0,16,112,1982/12,41,YUK PO COURT,旭埔苑,True,8.0,970.0,POINT Z (22.499941 114.128293 0),22.499941,114.128293
70,"METROPOLIS PLAZA(Block 1),LUNG WAN ST|新都廣場1座,龍運街",NSS,4749980.0,10053.0,435.0,5005800.0,10300.0,435.0,5893888.0,11935.0,506.0,8,16,23,"['A', 'B', 'C', 'D', 'E', 'F', 'G', 'H']",5303284.666666667,11115.083333333334,477.5,24,192,1991/03,32,METROPOLIS PLAZA,新都廣場,True,3.0,592.0,POINT Z (22.5024264 114.1290487 0),22.5024264,114.1290487
71,"TSUN WU HSE(Block H,YUK PO COURT),CHOI YUEN RD|旭埔苑,H座(秦湖閣),彩園路",NSS,4454534.604870305,8229.0,546.0,4487235.103601001,8382.0,546.0,4802616.0,9012.0,546.0,3,10,16,"['1', '2', '3', '4', '5', '6', '7']",4571564.9825319955,8681.285714285714,546.0,20,140,1982/12,41,YUK PO COURT,旭埔苑,True,8.0,970.0,POINT Z (22.499941 114.128293 0),22.499941,114.128293
72,"MAN SHANG COURT,MAN SHANG ST|民生閣,民生街",NSS,2699579.3201213987,13898.0,202.0,2789453.881142387,13945.0,208.0,2873314.622901488,14185.0,215.0,3,4,5,"['A', 'B']",2827071.4645757223,14041.833333333334,211.83333333333334,3,6,1996/04,27,blank,,False,,,POINT Z (22.5374253 114.1244094 0),22.5374253,114.1244094
73,"GREENPARK VILLA(Block 4),KAT CHEUNG CRES|蔚翠花園4座,吉祥街",NSS,6307452.0,8724.0,715.0,6220692.0,8604.0,715.0,7042020.0,9740.0,730.0,3,8,11,"['A', 'B', 'C', 'D', 'E', 'F', 'G', 'H']",6587190.166666667,9153.583333333334,719.625,12,96,1994/01,29,GREENPARK VILLA,蔚翠花園,True,6.0,544.0,POINT Z (22.4951326 114.133113 0),22.4951326,114.133113
74,"MING WU HSE(Block B,YUK PO COURT),CHOI YUEN RD|旭埔苑,B座(明湖閣),彩園路",NSS,4258227.2019708855,7210.0,546.0,4468480.86131924,7566.0,546.0,4863001.772680759,8234.0,546.0,3,10,16,"['1', '2', '3', '4', '5', '6', '8']",4546440.08332481,7698.0,546.0,18,126,1982/12,41,YUK PO COURT,旭埔苑,True,8.0,970.0,POINT Z (22.499941 114.128293 0),22.499941,114.128293
75,"VIENNA GARDEN(Block 3),KAT CHEUNG CRES|維也納花園3座,吉祥街",NSS,4171028.0,8096.0,478.0,4229344.0,8053.0,478.0,6205952.0,9689.0,736.0,3,6,10,"['A', 'B', 'C', 'D', 'E', 'F', 'G', 'H']",5371233.10221757,8516.75,638.25,12,96,1993/03,30,VIENNA GARDEN,維也納花園,True,3.0,288.0,POINT Z (22.4960815 114.1309763 0),22.4960815,114.1309763
76,"VIENNA GARDEN(Block 2),KAT CHEUNG CRES|維也納花園2座,吉祥街",NSS,4386606.0,8358.0,478.0,4493200.0,8364.0,478.0,6408660.0,9585.0,732.0,3,6,10,"['A', 'B', 'C', 'D', 'E', 'F', 'G', 'H']",5651424.541666667,8908.458333333334,637.75,12,96,1993/03,30,VIENNA GARDEN,維也納花園,True,3.0,288.0,POINT Z (22.4958096 114.1306279 0),22.4958096,114.13062790000001
77,"FORUM COURT(Block 6,FANLING TOWN CTR),FANLING STATION RD|粉嶺名都,6座(富臨閣),粉嶺車站路",NSS,4316250.0,11108.0,375.0,4472625.0,11352.0,375.0,5321976.0,12447.0,456.0,5,12,18,"['A', 'B', 'C', 'D', 'E', 'F', 'G', 'H']",4747429.375,11700.875,406.25,22,176,1993/05,30,FANLING TOWN CTR,粉嶺名都,True,7.0,1688.0,POINT Z (22.49297 114.1390583 0),22.49297,114.13905829999999
78,"HON WU HSE(Block D,YUK PO COURT),CHOI YUEN RD|旭埔苑,D座(漢湖閣),彩園路",NSS,4571841.155872484,8808.0,546.0,4651256.652789887,8961.0,546.0,4798668.424845721,9245.0,546.0,4,10,16,"['1', '2', '3', '4', '5', '6', '7', '8']",4691937.630377479,9039.375,546.0,19,152,1982/12,41,YUK PO COURT,旭埔苑,True,8.0,970.0,POINT Z (22.499941 114.128293 0),22.499941,114.128293
79,"OTB BLDG FANLING,LUEN HING ST|粉嶺海外大廈,聯興街",NSS,2949932.3534439737,9208.0,315.0,2949932.3534439737,9208.0,315.0,3478470.6342102527,9908.0,396.0,2,2,4,"['A', 'D']",3213030.766918954,9544.333333333334,355.5,4,8,1984/01,39,blank,,False,,,POINT Z (22.498096 114.142534 0),22.498096,114.14253400000001
80,"FORTUNE HSE,CHI FUK CIRT|廣福苑,置福圍",NSS,7666864.741881575,8165.0,908.0,7739372.807443167,8251.0,908.0,8454176.373542024,9520.0,1816.0,3,6,9,"['A', 'B', 'C', 'D', 'E']",8207057.826915135,8755.316666666668,982.5333333333333,9,45,1996/09,27,blank,,False,,,POINT Z (22.4919322 114.1363876 0),22.491932199999997,114.13638759999999
81,"CHOW WU HSE(Block F,YUK PO COURT),CHOI YUEN RD|旭埔苑,F座(周湖閣),彩園路",NSS,4406766.0,8071.0,546.0,4448808.0,8148.0,546.0,4609332.0,8442.0,546.0,4,10,16,"['1', '2', '3', '4', '5', '6', '7', '8']",4508504.0,8257.333333333334,546.0,18,144,1982/12,41,YUK PO COURT,旭埔苑,True,8.0,970.0,POINT Z (22.499941 114.128293 0),22.499941,114.128293
82,"SEUNG WU HSE(Block G,YUK PO COURT),CHOI YUEN RD|旭埔苑,G座(商湖閣),彩園路",NSS,4301388.0,7878.0,546.0,4340154.0,7949.0,546.0,4527432.0,8292.0,546.0,4,10,16,"['1', '2', '3', '4', '5', '6', '7', '8']",4419278.5,8093.916666666667,546.0,18,144,1982/12,41,YUK PO COURT,旭埔苑,True,8.0,970.0,POINT Z (22.499941 114.128293 0),22.499941,114.128293
83,"GOOD VIEW NEW VILLAGE(Block 13B),LING SHAN RD|美景新村13B座,靈山路",NSS,,,350.0,,,350.0,,,367.0,1,2,2,"['1', '2', '4', '5', '6']",,,358.6000000000001,2,10,1983/06,40,GOOD VIEW NEW VILLAGE,美景新村,True,3.0,40.0,POINT Z (22.5029623 114.1375023 0),22.502962300000004,114.13750230000001
84,6-20 SAN LOK ST|6-20 新樂街,NSS,,,630.0,5744040.929064216,8429.0,630.0,5744040.929064216,8429.0,630.0,1,2,2,"['A', 'C', 'E', 'F']",5744040.929064216,8429.0,630.0,2,8,1974/04,49,blank,,False,,,POINT Z (22.5039286 114.1286449 0),22.503928600000002,114.1286449
85,"YAN HEI HSE(Block C,Phase 1,YAN SHING COURT),15 WAH MING RD|欣盛苑,1期,C座(欣喜閣),15 華明路",NSS,2591091.9599653357,6005.0,401.0,2682201.416848036,6222.0,401.0,4041403.474081031,7407.0,645.0,6,18,29,"['1', '10', '2', '3', '4', '5', '6', '7', '8', '9']",3235948.3578859405,6758.274074074075,511.0,32,320,1993/09,30,YAN SHING COURT,欣盛苑,True,7.0,2135.0,POINT Z (22.487455 114.139492 0),22.487454999999997,114.13949199999999
86,"YAN YIU HSE(Block E,Phase 2,YAN SHING COURT),15 WAH MING RD|欣盛苑,2期,E座(欣耀閣),15 華明路",NSS,2563192.0,5770.0,401.0,2641788.0,5958.0,401.0,3994485.0,6828.0,645.0,7,18,30,"['1', '10', '2', '3', '4', '5', '6', '7', '8', '9']",3204222.2999999993,6317.133333333334,511.0,33,330,1993/09,30,YAN SHING COURT,欣盛苑,True,7.0,2135.0,POINT Z (22.4871847 114.1392441 0),22.487184699999997,114.13924409999998
87,"YAN CHOI HSE(Block F,Phase 2,YAN SHING COURT),15 WAH MING RD|欣盛苑,2期,F座(欣彩閣),15 華明路",NSS,2432126.92431644,5671.0,401.0,2448506.0,5835.0,401.0,4306906.084349137,7024.0,645.0,6,18,30,"['1', '10', '2', '3', '4', '5', '6', '7', '8', '9']",3142384.910382707,6343.877777777777,511.0,33,330,1993/09,30,YAN SHING COURT,欣盛苑,True,7.0,2135.0,POINT Z (22.487063 114.138537 0),22.487063,114.13853700000001
88,"SUNNINGDALE GARDEN(Block 4),CHI CHEONG RD|順欣花園4座,智昌路",NSS,,,428.0,,,428.0,,,583.0,6,12,18,"['A', 'B', 'C', 'D', 'E', 'F', 'G', 'H', 'J', 'K']",,,530.1,19,190,1992/05,31,SUNNINGDALE GARDEN,順欣花園,True,4.0,676.0,POINT Z (22.5019123 114.1316496 0),22.5019123,114.1316496
89,"SUNNINGDALE GARDEN(Block 3),CHI CHEONG RD|順欣花園3座,智昌路",NSS,4013356.0,9132.0,428.0,4083120.0000000005,9278.0,428.0,5603056.203146367,10127.0,583.0,4,10,18,"['A', 'B', 'C', 'D', 'E', 'F', 'G', 'H', 'J', 'K']",5002445.191253462,9648.703703703703,531.8,20,200,1992/05,31,SUNNINGDALE GARDEN,順欣花園,True,4.0,676.0,POINT Z (22.5015557 114.1320679 0),22.5015557,114.1320679
90,"WING FOK CTR(Block 4),LUEN CHIT ST|榮福中心4座,聯捷街",NSS,3764785.0,8159.0,431.0,3872535.0,8401.0,431.0,5176721.0,9232.0,592.0,5,15,24,"['A', 'B', 'C', 'D', 'E', 'F', 'G', 'H', 'J', 'K']",4678726.902777777,8584.869444444446,535.8,27,270,1993/09,30,WING FOK CTR,榮福中心,True,6.0,1303.0,POINT Z (22.5017465 114.1403589 0),22.5017465,114.14035890000001
91,"YAN YUET HSE(Block D,Phase 1,YAN SHING COURT),15 WAH MING RD|欣盛苑,1期,D座(欣悅閣),15 華明路",NSS,2538330.0,5649.0,401.0,2610911.0,5788.0,401.0,3906765.0,6761.0,645.0,11,20,29,"['1', '10', '2', '3', '4', '5', '6', '7', '8', '9']",3138284.466666667,6194.033333333333,511.0,29,290,1993/09,30,YAN SHING COURT,欣盛苑,True,7.0,2135.0,POINT Z (22.4874713 114.1394996 0),22.487471300000003,114.13949960000001
92,"YAN FAI HSE(Block G,Phase 2,YAN SHING COURT),15 WAH MING RD|欣盛苑,2期,G座(欣輝閣),15 華明路",NSS,3499618.0,6099.0,401.0,3616511.9999999995,6300.0,401.0,4231845.0,11066.0,645.0,7,18,30,"['1', '10', '2', '3', '4', '5', '6', '7', '8', '9']",3873237.214108302,8095.866666666666,511.0,32,320,1993/09,30,YAN SHING COURT,欣盛苑,True,7.0,2135.0,POINT Z (22.486115 114.139083 0),22.486114999999998,114.13908300000001
93,"LUEN WO CTR,WO FUNG ST|聯和中心,和豐街",NSS,2619435.0514765168,7544.0,321.0,2601726.781642834,7493.0,321.0,2818739.89234973,8118.0,321.0,3,4,5,"['A', 'C']",2749585.047737799,7918.833333333333,321.0,3,6,1991/04,32,blank,,False,,,POINT Z (22.4989831 114.1430761 0),22.4989831,114.14307609999999
94,"CHING WU HSE(Block A,YUK PO COURT),CHOI YUEN RD|旭埔苑,A座(清湖閣),彩園路",NSS,4528240.490898223,8724.0,546.0,4614403.709775928,8890.0,546.0,5088820.469138717,9804.0,546.0,3,9,16,"['1', '2', '3', '4', '5', '6', '7', '8']",4857148.681835007,9357.666666666666,546.0,17,136,1982/12,41,YUK PO COURT,旭埔苑,True,8.0,970.0,POINT Z (22.499941 114.128293 0),22.499941,114.128293
95,"SUNNINGDALE GARDEN(Block 1),CHI CHEONG RD|順欣花園1座,智昌路",NSS,2727714.791963763,5883.0,428.0,2781422.7801110214,6075.0,428.0,3658469.777508296,7549.0,583.0,6,11,17,"['A', 'B', 'C', 'E', 'F', 'G', 'H', 'J', 'K']",3309400.4815037693,6578.2962962962965,526.1111111111111,17,153,1992/05,31,SUNNINGDALE GARDEN,順欣花園,True,4.0,676.0,POINT Z (22.5015399 114.1327181 0),22.501539899999997,114.13271809999999
96,"SUNNINGDALE GARDEN(Block 2),CHI CHEONG RD|順欣花園2座,智昌路",NSS,2861577.883633823,6736.0,428.0,2898603.8451595837,6823.0,428.0,3875173.5622387524,7341.0,583.0,6,12,18,"['A', 'B', 'C', 'D', 'E', 'F', 'G', 'H', 'J', 'K']",3523486.8821440823,6986.100000000001,531.8,18,180,1992/05,31,SUNNINGDALE GARDEN,順欣花園,True,4.0,676.0,POINT Z (22.5012935 114.1323466 0),22.5012935,114.1323466
97,"WING FOK CTR(Block 3),LUEN CHIT ST|榮福中心3座,聯捷街",NSS,2398084.0,5283.0,431.0,2463165.0,5425.0,431.0,3548447.9999999995,5994.0,592.0,6,14,23,"['A', 'B', 'C', 'D', 'E', 'F', 'G', 'H', 'J', 'K']",3011635.733333333,5627.733333333333,535.6,28,280,1993/09,30,WING FOK CTR,榮福中心,True,6.0,1303.0,POINT Z (22.501383 114.1404518 0),22.501382999999997,114.1404518
98,"YAN LAI HSE(Block B,Phase 1,YAN SHING COURT),15 WAH MING RD|欣盛苑,1期,B座(欣麗閣),15 華明路",NSS,2517137.003332516,5925.0,401.0,2567075.6596155027,6138.0,401.0,4143480.0000000005,7155.0,645.0,6,18,30,"['1', '10', '2', '3', '4', '5', '6', '7', '8', '9']",3254484.208188851,6526.799999999999,511.0,33,330,1993/09,30,YAN SHING COURT,欣盛苑,True,7.0,2135.0,POINT Z (22.487046 114.140489 0),22.487046,114.14048899999999
99,"FANLING CTR(Phase 2),Block K,SAN WAN RD|粉嶺中心2期,K座,新運路",NSS,4477844.0,11119.0,361.0,4578924.0,11231.0,361.0,5896192.0,13097.0,512.0,7,15,23,"['1', '2', '3', '4', '5', '6', '7', '8']",5360829.208333333,11870.5,454.4166666666667,25,200,1991/12,32,FANLING CTR,粉嶺中心,True,11.0,2200.0,POINT Z (22.4910725 114.1412646 0),22.4910725,114.1412646
100,"FANLING CTR(Phase 1),Block A,SAN WAN RD|粉嶺中心1期,A座,新運路",NSS,4496625.0,10127.0,375.0,4607250.0,10227.0,375.0,5992703.999999999,12631.0,544.0,7,15,23,"['1', '2', '3', '4', '5', '6', '7', '8']",5304681.541666667,11166.0,479.3333333333333,25,200,1990/12,33,FANLING CTR,粉嶺中心,True,11.0,2200.0,POINT Z (22.4900018 114.1425187 0),22.4900018,114.1425187
101,"FANLING CTR(Phase 1),Block D,SAN WAN RD|粉嶺中心1期,D座,新運路",NSS,4333125.0,10265.0,375.0,4431000.0,10643.0,375.0,6040032.000000001,12289.0,544.0,7,15,23,"['1', '2', '3', '4', '5', '6', '7', '8']",5283303.208333333,11081.125,479.6666666666667,25,200,1990/12,33,FANLING CTR,粉嶺中心,True,11.0,2200.0,POINT Z (22.4906428 114.1417756 0),22.4906428,114.1417756
102,"FANLING CTR(Phase 1),Block G,SAN WAN RD|粉嶺中心1期,G座,新運路",NSS,4318125.0,10200.0,375.0,4462500.0,10381.0,375.0,5960196.0,12427.0,544.0,7,15,23,"['1', '2', '3', '4', '5', '6', '7', '8']",5091394.541666667,11336.375,454.0,25,200,1990/12,33,FANLING CTR,粉嶺中心,True,11.0,2200.0,POINT Z (22.4904219 114.1413807 0),22.490421899999998,114.1413807
103,"SIN HUA BANK BLDG,LUEN SHING ST|新華銀行大廈,聯盛街",NSS,4698698.104324698,6546.0,492.0,4164723.8608259535,3036.0,492.0,4781505.3687353665,10223.0,492.0,4,7,10,"['A', 'B']",4657528.745932654,7750.833333333333,492.0,11,22,1989/02,34,blank,,False,,,POINT Z (22.4988738 114.1432154 0),22.498873800000002,114.14321540000002
104,"DAWNING VIEWS(Block 5),YAT MING RD|牽晴間5座,一鳴路",NSS,4799093.0,11145.0,389.0,4909958.0,11270.0,389.0,6844951.0,13275.0,577.0,8,17,26,"['A', 'B', 'C', 'D', 'E', 'F', 'G', 'H']",5523960.083333333,12403.0,448.5,29,232,1999/06,24,DAWNING VIEWS,牽晴間,True,12.0,2784.0,POINT Z (22.4868693 114.1445392 0),22.4868693,114.1445392
105,"DAWNING VIEWS(Block 4),YAT MING RD|牽晴間4座,一鳴路",NSS,4802594.0,11291.0,388.0,4865223.0,11424.0,388.0,6826180.0,13242.0,578.0,8,17,26,"['A', 'B', 'C', 'D', 'E', 'F', 'G', 'H']",5372071.208333333,12471.958333333334,432.625,29,232,1999/06,24,DAWNING VIEWS,牽晴間,True,12.0,2784.0,POINT Z (22.4866087 114.1439818 0),22.4866087,114.14398179999999
106,"DAWNING VIEWS(Block 7),YAT MING RD|牽晴間7座,一鳴路",NSS,4785478.0,11309.0,389.0,4980367.0,11436.0,389.0,8486728.0,13403.0,724.0,8,17,26,"['A', 'B', 'C', 'D', 'E', 'F', 'G', 'H']",5749291.041666667,12471.0,466.125,29,232,1999/06,24,DAWNING VIEWS,牽晴間,True,12.0,2784.0,POINT Z (22.4864469 114.1450037 0),22.486446899999997,114.1450037
107,"DAWNING VIEWS(Block 6),YAT MING RD|牽晴間6座,一鳴路",NSS,4699509.0,11166.0,389.0,4879227.0,11454.0,389.0,6812639.0,13071.0,577.0,8,17,26,"['A', 'B', 'C', 'D', 'E', 'F', 'G', 'H']",5500897.791666667,12357.541666666666,448.5,29,232,1999/06,24,DAWNING VIEWS,牽晴間,True,12.0,2784.0,POINT Z (22.48664 114.1447482 0),22.486639999999998,114.14474820000001
108,"DAWNING VIEWS(Block 3),YAT MING RD|牽晴間3座,一鳴路",NSS,4808484.0,11346.0,388.0,4941956.0,11664.0,388.0,7001892.0,13403.0,578.0,8,17,26,"['A', 'B', 'C', 'D', 'E', 'F', 'G', 'H']",5577281.375,12428.333333333334,451.5,29,232,1999/06,24,DAWNING VIEWS,牽晴間,True,12.0,2784.0,POINT Z (22.4867509 114.1437728 0),22.4867509,114.1437728
109,"DAWNING VIEWS(Block 1),YAT MING RD|牽晴間1座,一鳴路",NSS,4812708.0,11487.0,388.0,4976088.0,11668.0,388.0,6809725.0,13356.0,575.0,8,17,26,"['A', 'B', 'C', 'D', 'E', 'F', 'G', 'H']",5573870.208333333,12527.875,447.5,29,232,1999/06,24,DAWNING VIEWS,牽晴間,True,12.0,2784.0,POINT Z (22.4870983 114.1432881 0),22.4870983,114.1432881
110,"DAWNING VIEWS(Block 11),YAT MING RD|牽晴間11座,一鳴路",NSS,4724016.0,11269.0,389.0,4902178.0,11323.0,389.0,7406010.0,13213.0,639.0,8,17,26,"['A', 'B', 'C', 'D', 'E', 'F', 'G', 'H']",5544812.166666667,12371.0,451.625,29,232,1999/06,24,DAWNING VIEWS,牽晴間,True,12.0,2784.0,POINT Z (22.4877572 114.1438889 0),22.487757199999997,114.1438889
111,"DAWNING VIEWS(Block 12),YAT MING RD|牽晴間12座,一鳴路",NSS,5046480.0,11119.0,387.0,5093166.0,11390.0,387.0,8246211.0,13850.0,719.0,8,17,26,"['A', 'B', 'C', 'D', 'E', 'F', 'G', 'H']",6246033.666666667,12584.416666666666,506.125,29,232,1999/06,24,DAWNING VIEWS,牽晴間,True,12.0,2784.0,POINT Z (22.4877927 114.1438772 0),22.4877927,114.1438772
112,"DAWNING VIEWS(Block 2),YAT MING RD|牽晴間2座,一鳴路",NSS,4357869.0,10834.0,388.0,4090684.0,10543.0,388.0,7004782.0,13149.0,578.0,8,17,26,"['A', 'B', 'C', 'D', 'E', 'F', 'G', 'H']",5368474.541666667,11945.583333333334,451.5,29,232,1999/06,24,DAWNING VIEWS,牽晴間,True,12.0,2784.0,POINT Z (22.4869439 114.1435173 0),22.4869439,114.1435173
113,"MOON WAH BLDG,SAN FUNG AVE|滿華大廈,新豐路",NSS,3064238.649373354,6292.0,415.0,3064238.649373354,6292.0,415.0,3617480.1053561224,7812.0,530.0,4,4,5,"['A', 'B', 'D', 'E', 'F', 'G', 'H']",3339691.212061251,6924.095238095238,474.0,2,14,1981/07,42,blank,,False,,,POINT Z (22.5033435 114.1264243 0),22.5033435,114.1264243
114,"DAWNING VIEWS(Block 9),YAT MING RD|牽晴間9座,一鳴路",NSS,4701065.0,11130.0,389.0,4769140.0,11346.0,389.0,7478856.0,13193.0,639.0,8,17,26,"['A', 'B', 'C', 'D', 'E', 'F', 'G', 'H']",5558248.708333333,12360.875,452.625,29,232,1999/06,24,DAWNING VIEWS,牽晴間,True,12.0,2784.0,POINT Z (22.4874678 114.144848 0),22.4874678,114.144848
115,"DAWNING VIEWS(Block 10),YAT MING RD|牽晴間10座,一鳴路",NSS,4693564.0,11611.0,389.0,4755342.0,11884.0,389.0,6785520.0,13011.0,560.0,8,17,26,"['A', 'B', 'C', 'D', 'E', 'F', 'G', 'H']",5457691.791666667,12366.833333333334,442.75,29,232,1999/06,24,DAWNING VIEWS,牽晴間,True,12.0,2784.0,POINT Z (22.4875808 114.1445403 0),22.487580800000003,114.14454029999999
116,"FANLING CTR(Phase 1),Block C,SAN WAN RD|粉嶺中心1期,C座,新運路",NSS,4272375.0,10485.0,375.0,4350375.0,10815.0,375.0,6158080.0,11946.0,544.0,7,15,23,"['1', '2', '3', '4', '5', '6', '7', '8']",5296811.875,11089.75,479.3333333333333,25,200,1990/12,33,FANLING CTR,粉嶺中心,True,11.0,2200.0,POINT Z (22.4904752 114.1420078 0),22.4904752,114.1420078
117,"FANLING CTR(Phase 1),Block B,SAN WAN RD|粉嶺中心1期,B座,新運路",NSS,4502250.0,10184.0,375.0,4589625.0,10351.0,375.0,5866496.0,12694.0,544.0,7,15,23,"['1', '2', '3', '4', '5', '6', '7', '8']",5243139.833333333,11034.125,479.3333333333333,25,200,1990/12,33,FANLING CTR,粉嶺中心,True,11.0,2200.0,POINT Z (22.490162 114.1423329 0),22.490161999999998,114.14233290000001
118,"DAWNING VIEWS(Block 8),YAT MING RD|牽晴間8座,一鳴路",NSS,4781588.0,10548.0,387.0,4865223.0,10632.0,387.0,8367003.0,13131.0,719.0,8,17,26,"['A', 'B', 'C', 'D', 'E', 'F', 'G', 'H']",6021203.708333333,12110.208333333334,506.125,29,232,1999/06,24,DAWNING VIEWS,牽晴間,True,12.0,2784.0,POINT Z (22.4874137 114.1452468 0),22.487413699999998,114.14524679999998
119,"FANLING CTR(Phase 2),Block H,SAN WAN RD|粉嶺中心2期,H座,新運路",NSS,4313228.0,11053.0,361.0,4459433.0,11329.0,361.0,5979722.0,12655.0,511.0,7,15,23,"['1', '2', '3', '4', '5', '6', '7', '8']",5113981.166666667,11892.583333333334,432.75,25,200,1991/12,32,FANLING CTR,粉嶺中心,True,11.0,2200.0,POINT Z (22.4905714 114.1411253 0),22.490571399999997,114.1411253
120,"FANLING CTR(Phase 1),Block E,SAN WAN RD|粉嶺中心1期,E座,新運路",NSS,3952500.0,9223.0,375.0,4254750.0,9464.0,375.0,5964959.999999999,12039.0,544.0,7,15,23,"['1', '2', '3', '4', '5', '6', '7', '8']",4877987.833333333,10850.625,454.0,25,200,1990/12,33,FANLING CTR,粉嶺中心,True,11.0,2200.0,POINT Z (22.4900465 114.1419613 0),22.4900465,114.14196129999999
121,"FANLING CTR(Phase 2),Block J,SAN WAN RD|粉嶺中心2期,J座,新運路",NSS,4344274.0,11057.0,361.0,4493728.0,11337.0,361.0,6095466.000000001,12895.0,513.0,7,15,23,"['1', '2', '3', '4', '5', '6', '7', '8']",5358785.25,11850.208333333334,454.0833333333333,25,200,1991/12,32,FANLING CTR,粉嶺中心,True,11.0,2200.0,POINT Z (22.4909049 114.1414969 0),22.4909049,114.1414969
122,"FANLING CTR(Phase 1),Block F,SAN WAN RD|粉嶺中心1期,F座,新運路",NSS,4338375.0,10282.0,375.0,4453500.0,10514.0,375.0,6062880.0,12749.0,544.0,7,15,23,"['1', '2', '3', '4', '5', '6', '7', '8']",5177393.583333333,11515.208333333334,454.0,25,200,1990/12,33,FANLING CTR,粉嶺中心,True,11.0,2200.0,POINT Z (22.4901778 114.1416827 0),22.4901778,114.1416827
123,"FANLING CTR(Phase 2),Block L,SAN WAN RD|粉嶺中心2期,L座,新運路",NSS,4442827.0,10793.0,361.0,4537770.0,11029.0,361.0,6103160.999999999,13167.0,513.0,7,15,23,"['1', '2', '3', '4', '5', '6', '7', '8']",5382693.375,11926.375,454.0833333333333,25,200,1991/12,32,FANLING CTR,粉嶺中心,True,11.0,2200.0,POINT Z (22.4912838 114.1410324 0),22.4912838,114.1410324
124,"BELAIR MONTE(Block 5),MA SIK RD|綠悠軒5座,馬適路",NSS,4774995.0,9592.0,435.0,4890705.0,9860.0,435.0,6425220.0,11655.0,619.0,6,16,25,"['A', 'B', 'C', 'D', 'E', 'F', 'G', 'H']",5569836.708333333,10588.333333333334,531.0416666666666,30,240,1998/12,25,BELAIR MONTE,綠悠軒,True,7.0,1680.0,POINT Z (22.5015235 114.1446553 0),22.501523499999998,114.14465530000001
125,"BELAIR MONTE(Block 3),MA SIK RD|綠悠軒3座,馬適路",NSS,4521390.0,9753.0,435.0,4689735.0,10026.0,435.0,6630109.0,11204.0,619.0,6,16,25,"['A', 'B', 'C', 'D', 'E', 'F', 'G', 'H']",5523976.541666667,10552.958333333334,527.0,30,240,1998/12,25,BELAIR MONTE,綠悠軒,True,7.0,1680.0,POINT Z (22.501173 114.1454914 0),22.501173,114.14549140000001
126,"BELAIR MONTE(Block 2),MA SIK RD|綠悠軒2座,馬適路",NSS,4471365.0,9618.0,435.0,4694520.0,10022.0,435.0,6601016.0,11513.0,634.0,6,16,25,"['A', 'B', 'C', 'D', 'E', 'F', 'G', 'H']",5556380.666666667,10604.458333333334,527.625,30,240,1998/12,25,BELAIR MONTE,綠悠軒,True,7.0,1680.0,POINT Z (22.501434 114.14577 0),22.501434,114.14577
127,"BELAIR MONTE(Block 7),MA SIK RD|綠悠軒7座,馬適路",NSS,4879732.0,9973.0,449.0,5079537.0,10299.0,449.0,7848555.0,11937.0,715.0,6,16,25,"['A', 'B', 'C', 'D', 'E', 'F', 'G', 'H']",6106827.916666667,10834.791666666666,567.25,30,240,1998/12,25,BELAIR MONTE,綠悠軒,True,7.0,1680.0,POINT Z (22.5018854 114.1453985 0),22.5018854,114.14539850000001
128,"SAN FUNG HSE,SAN FUNG AVE|新豐樓,新豐路",NSS,,,355.0,,,355.0,,,461.0,1,2,2,"['A', 'D', 'E', 'F']",,,397.75,2,8,1966/07,57,blank,,False,,,POINT Z (22.5034443 114.1268888 0),22.503444299999998,114.1268888
129,"BELAIR MONTE(Block 6),MA SIK RD|綠悠軒6座,馬適路",NSS,4720620.0,10043.0,435.0,4809360.0,10145.0,435.0,6686438.0,11436.0,619.0,6,16,25,"['A', 'B', 'C', 'D', 'E', 'F', 'G', 'H']",5655162.958333333,10717.791666666666,530.5,30,240,1998/12,25,BELAIR MONTE,綠悠軒,True,7.0,1680.0,POINT Z (22.5018282 114.144934 0),22.501828200000002,114.144934
130,"BELAIR MONTE(Block 4),MA SIK RD|綠悠軒4座,馬適路",NSS,4686690.0,9808.0,435.0,4549665.0,9977.0,435.0,6400460.0,11506.0,619.0,6,16,25,"['A', 'B', 'C', 'D', 'E', 'F', 'G', 'H']",5516578.708333333,10550.791666666666,527.0,30,240,1998/12,25,BELAIR MONTE,綠悠軒,True,7.0,1680.0,POINT Z (22.5008938 114.1451895 0),22.5008938,114.1451895
131,"BELAIR MONTE(Block 1),MA SIK RD|綠悠軒1座,馬適路",NSS,4634490.0,9420.0,435.0,4707135.0,9605.0,435.0,6292135.0,11397.0,619.0,6,16,25,"['A', 'B', 'C', 'D', 'E', 'F', 'G', 'H']",5464160.375,10474.791666666666,527.0,30,240,1998/12,25,BELAIR MONTE,綠悠軒,True,7.0,1680.0,POINT Z (22.5017206 114.1460255 0),22.501720600000002,114.1460255
132,"PEARL VISTA,SAN LOK ST|明珠華軒,新樂街",NSS,4630464.314734658,9630.0,441.0,4745426.908723641,9850.0,441.0,4912134.081787444,10231.0,449.0,5,10,16,"['A', 'B', 'C']",4782732.912212909,9966.555555555557,443.6666666666667,15,45,1998/12,25,blank,,False,,,POINT Z (22.503701 114.1276087 0),22.503701,114.12760870000001
133,"REGENTVILLE(Block 2),WO MUN ST|帝庭軒2座,和滿街",NSS,4928538.0,11062.0,422.0,5088054.0,11578.0,422.0,7434540.0,12781.0,618.0,7,19,30,"['A', 'B', 'C', 'D', 'E', 'F', 'G', 'H']",5757377.416666667,11945.875,483.5,31,248,2000/09,23,REGENTVILLE,帝庭軒,True,4.0,1000.0,POINT Z (22.4997748 114.144285 0),22.4997748,114.14428500000001
134,"ROYAL JUBILEE(Block 1),SAN SHING AVE|海禧華庭1座,新成路",NSS,4406382.0,10435.0,387.0,4483782.0,10641.0,387.0,5897501.999999999,11878.0,542.0,8,14,20,"['A', 'B', 'C', 'D', 'E', 'F', 'G', 'H']",4844417.958333333,11335.125,429.5,18,144,2001/01,22,ROYAL JUBILEE,海禧華庭,True,2.0,280.0,POINT Z (22.5047596 114.1289093 0),22.504759600000003,114.12890929999999
135,"REGENTVILLE(Block 1),WO MUN ST|帝庭軒1座,和滿街",NSS,5046152.0,10691.0,422.0,5056826.0,11286.0,422.0,7695954.000000001,13008.0,618.0,7,19,30,"['A', 'B', 'C', 'D', 'E', 'F', 'G', 'H']",5764889.666666667,11957.416666666666,483.5,31,248,2000/09,23,REGENTVILLE,帝庭軒,True,4.0,1000.0,POINT Z (22.5003493 114.1437134 0),22.500349300000003,114.14371340000001
136,"REGENTVILLE(Block 5),WO MUN ST|帝庭軒5座,和滿街",NSS,4982554.0,10927.0,422.0,5112108.0,11490.0,422.0,5702220.0,12689.0,474.0,7,20,31,"['A', 'B', 'C', 'D', 'E', 'F', 'G', 'H']",5330736.291666667,11921.916666666666,447.8333333333333,32,256,2000/09,23,REGENTVILLE,帝庭軒,True,4.0,1000.0,POINT Z (22.5001992 114.1446688 0),22.5001992,114.1446688
137,"REGENTVILLE(Block 3),WO MUN ST|帝庭軒3座,和滿街",NSS,4914612.0,10720.0,422.0,5053450.0,11257.0,422.0,7323300.0,12574.0,618.0,7,19,30,"['A', 'B', 'C', 'D', 'E', 'F', 'G', 'H']",5709692.083333333,11866.375,483.5,31,248,2000/09,23,REGENTVILLE,帝庭軒,True,4.0,1000.0,POINT Z (22.5003493 114.1437134 0),22.500349300000003,114.14371340000001
138,"ROYAL JUBILEE(Block 2),SAN SHING AVE|海禧華庭2座,新成路",NSS,4371165.0,10315.0,387.0,4428054.0,10453.0,387.0,5776395.0,11659.0,542.0,8,13,19,"['A', 'B', 'C', 'D', 'E', 'F', 'G', 'H']",4781525.5,11187.125,429.5,17,136,2001/01,22,ROYAL JUBILEE,海禧華庭,True,2.0,280.0,POINT Z (22.5049816 114.1287468 0),22.5049816,114.12874679999999
139,"KENTWOOD PLACE,SAN SHING AVE|金湖居,新成路",NSS,4082427.8744015275,7580.0,397.0,4159041.8023393573,7724.0,397.0,5930528.91082589,11260.0,643.0,7,12,18,"['A', 'B', 'C', 'D']",4861975.4497453,9584.75,487.5,15,60,2000/03,23,blank,,False,,,POINT Z (22.5061567 114.1280732 0),22.5061567,114.1280732
140,"GRAND REGENTVILLE(Block 7),WO MUN ST|御庭軒7座,和滿街",NSS,4981671.0,11464.0,423.0,5119569.0,11626.0,423.0,6490770.0,13139.0,510.0,12,22,32,"['A', 'B', 'C', 'D', 'E', 'F', 'G', 'H']",5596887.5,12290.375,455.4166666666667,28,224,2002/10,21,GRAND REGENTVILLE,御庭軒,True,3.0,672.0,POINT Z (22.4998734 114.1448875 0),22.4998734,114.1448875
141,"GRAND REGENTVILLE(Block 8),WO MUN ST|御庭軒8座,和滿街",NSS,5215167.0,11870.0,423.0,5333607.0,12085.0,423.0,7530460.000000001,12905.0,596.0,12,22,32,"['A', 'B', 'C', 'D', 'E', 'F', 'G', 'H']",5930475.083333333,12436.458333333334,477.1666666666667,28,224,2002/10,21,GRAND REGENTVILLE,御庭軒,True,3.0,672.0,POINT Z (22.4995325 114.1445624 0),22.4995325,114.14456240000001
142,"GRAND REGENTVILLE(Block 6),WO MUN ST|御庭軒6座,和滿街",NSS,5021856.0,11524.0,423.0,5176674.0,11868.0,423.0,6369390.000000001,12805.0,510.0,12,22,32,"['A', 'B', 'C', 'D', 'E', 'F', 'G', 'H']",5548351.625,12192.458333333334,455.4166666666667,28,224,2002/10,21,GRAND REGENTVILLE,御庭軒,True,3.0,672.0,POINT Z (22.5001961 114.1451895 0),22.5001961,114.1451895
143,"KENSINGTON GREEN(Block A),KA SIU CLOSE|嘉兆軒A座,嘉兆里",NSS,6437067.847881953,3180.0,567.0,6457310.199604853,2949.0,567.0,10349566.419332674,9591.0,995.0,1,2,3,"['A', 'B', 'C', 'D', 'E']",8471350.014110899,6034.966666666667,827.4,3,15,2000/12,23,KENSINGTON GREEN,嘉兆軒,True,1.0,15.0,POINT Z (22.4970309 114.1380597 0),22.4970309,114.13805970000001
144,"NOBLE HILL(Block 6),MA SIK RD|皇府山6座,馬適路",NSS,6146308.0,9566.0,511.0,6222447.0,9695.0,511.0,12813063.0,12370.0,1297.0,5,10,17,"['A', 'B', 'C', 'D', 'E', 'E & F', 'F']",8958103.523809524,11005.285714285716,828.0,18,126,2006/01,17,NOBLE HILL,皇府山,True,7.0,814.0,POINT Z (22.503499 114.135916 0),22.503498999999998,114.135916
145,"NOBLE HILL(Block 2),MA SIK RD|皇府山2座,馬適路",NSS,5378906.000000001,11659.0,443.0,5492757.0,11852.0,443.0,6333039.000000001,13039.0,489.0,4,10,15,"['A', 'B', 'C', 'D', 'E', 'F', 'G', 'H']",5762604.25,12378.833333333334,466.0,16,128,2006/01,17,NOBLE HILL,皇府山,True,7.0,814.0,POINT Z (22.5037634 114.1347851 0),22.5037634,114.1347851
146,"NOBLE HILL(Block 3),MA SIK RD|皇府山3座,馬適路",NSS,6008500.0,11521.0,500.0,6106965.0,11822.0,500.0,7542666.0,12593.0,621.0,5,10,17,"['A', 'B', 'C', 'D', 'E', 'F']",6364351.555555556,12158.055555555555,524.0,18,108,2006/01,17,NOBLE HILL,皇府山,True,7.0,814.0,POINT Z (22.5039701 114.1349941 0),22.5039701,114.13499409999999
147,"NOBLE HILL(Block 1),MA SIK RD|皇府山1座,馬適路",NSS,5153419.0,11633.0,443.0,5256638.0,11717.0,443.0,6104186.999999999,12483.0,489.0,4,10,15,"['A', 'B', 'C', 'D', 'E', 'F', 'G', 'H']",5628656.083333333,12077.916666666666,466.0,16,128,2006/01,17,NOBLE HILL,皇府山,True,7.0,814.0,POINT Z (22.5036184 114.1345993 0),22.503618399999997,114.1345993
148,"NOBLE HILL(Block 7),MA SIK RD|皇府山7座,馬適路",NSS,6066027.999999999,11315.0,508.0,6124447.999999999,11456.0,508.0,8534700.0,12450.0,725.0,5,10,17,"['A', 'B', 'C', 'D', 'E', 'F']",7257158.5,12136.055555555555,599.0,18,108,2006/01,17,NOBLE HILL,皇府山,True,7.0,814.0,POINT Z (22.503499 114.135916 0),22.503498999999998,114.135916
149,"NOBLE HILL(Block 5),MA SIK RD|皇府山5座,馬適路",NSS,7993006.0,10710.0,511.0,8295826.000000001,10863.0,511.0,9882318.0,11729.0,874.0,5,10,17,"['A', 'B', 'C', 'D', 'E', 'F']",8872197.466666667,11142.133333333333,749.8333333333334,18,108,2006/01,17,NOBLE HILL,皇府山,True,7.0,814.0,POINT Z (22.504024 114.1353425 0),22.504023999999998,114.13534250000001
150,"MAGDALENE GARDEN,PAK WO RD|禎祥園,百和路",NSS,6337385.74393441,9537.0,699.0,6404500.765444043,9638.0,699.0,6464970.73531906,9729.0,699.0,4,7,10,['whole floor'],6402285.748232503,9634.666666666666,699.0,9,9,1999/09,24,MAGDALENE GARDEN,禎祥園,True,1.0,74.0,POINT Z (22.4914296 114.1360508 0),22.4914296,114.13605079999999
151,"ROYAL GREEN(Phase 1),Block 2,CHING HIU RD|御皇庭1期,2座,清曉路",NSS,4572912.0,10776.0,376.0,4851392.0,11095.0,377.0,6552598.0,13750.0,559.0,9,22,37,"['A', 'B', 'C', 'D', 'E', 'F', 'G', 'H']",5469319.833333333,11887.166666666666,464.25,40,320,2005/05,18,ROYAL GREEN,御皇庭,True,3.0,952.0,POINT Z (22.4948909 114.1272951 0),22.494890899999998,114.12729509999998
152,"TSUI LAI GARDEN(Block 2),FUNG NAM RD|翠麗花園2座,鳳南路",NSS,3546235.0,7493.0,427.0,3653412.0,7693.0,427.0,4863292.0,8907.0,601.0,4,13,23,"['A', 'B', 'C', 'D', 'E', 'F', 'G', 'H', 'J', 'K', 'L', 'M']",4391210.777777777,7989.86111111111,551.4722222222222,27,324,1989/11,34,TSUI LAI GARDEN,翠麗花園,True,6.0,1871.0,POINT Z (22.5082913 114.129188 0),22.5082913,114.12918799999998
153,"ROYAL GREEN(Phase 1),Block 1,CHING HIU RD|御皇庭1期,1座,清曉路",NSS,4517264.0,9684.0,376.0,4429568.0,10281.0,377.0,7370300.0,12841.0,700.0,9,22,37,"['A', 'B', 'C', 'D', 'E', 'F', 'G', 'H']",5472971.166666667,11501.125,481.7916666666667,40,320,2005/05,18,ROYAL GREEN,御皇庭,True,3.0,952.0,POINT Z (22.4948909 114.1272951 0),22.494890899999998,114.12729509999998
154,"ROYAL GREEN(Phase 2),Block 3,CHING HIU RD|御皇庭2期,3座,清曉路",NSS,4664656.0,10668.0,376.0,4787523.0,11226.0,377.0,9916725.0,13399.0,975.0,9,23,38,"['A', 'B', 'C', 'D', 'E', 'F', 'G', 'H']",6293657.791666667,11970.5,536.0833333333334,39,312,2006/12,17,ROYAL GREEN,御皇庭,True,3.0,952.0,POINT Z (22.4947566 114.1262617 0),22.494756600000002,114.12626170000001
155,"NOBLE HILL(Block 8),MA SIK RD|皇府山8座,馬適路",NSS,5976009.0,10717.0,501.0,5989191.0,10758.0,501.0,8547800.0,12183.0,790.0,5,10,17,"['A', 'B', 'C', 'D', 'E', 'F']",7225404.0,11457.166666666666,637.1666666666666,18,108,2006/01,17,NOBLE HILL,皇府山,True,7.0,814.0,POINT Z (22.503499 114.135916 0),22.503498999999998,114.135916
156,"GLORIOUS PEAK,CHING HIU RD|顯峰,清曉路",NSS,4706688.0,10715.0,408.0,4875192.0,10967.0,408.0,6698837.0,12683.0,569.0,9,22,36,"['A', 'B', 'C', 'D', 'E', 'F']",5644105.055555556,11557.222222222224,490.1666666666667,37,222,2007/04,16,blank,,False,,,POINT Z (22.4951137 114.1277249 0),22.495113699999997,114.1277249
157,"CHOI PIK HSE(Block C,Phase 1,CHOI PO COURT),2 CHOI YUEN RD|彩蒲苑,1期,C座(彩碧閣),2 彩園路",NSS,3581786.0,9589.0,338.0,3583138.0,9918.0,338.0,4490376.0,11058.0,438.0,8,18,29,"['1', '10', '11', '12', '13', '14', '15', '16', '2', '3', '4', '5', '6', '7', '8', '9']",3968676.875,10337.291666666666,384.875,34,544,1984/11,39,CHOI PO COURT,彩蒲苑,True,4.0,2096.0,POINT Z (22.502893 114.124813 0),22.502893,114.12481299999999
158,"CHOI CHING HSE(Block B,Phase 1,CHOI PO COURT),2 CHOI YUEN RD|彩蒲苑,1期,B座(彩晶閣),2 彩園路",NSS,3251222.0,9064.0,338.0,3319160.0,9094.0,338.0,4551258.0,10868.0,438.0,6,17,28,"['1', '10', '11', '12', '13', '14', '15', '16', '2', '3', '4', '5', '6', '7', '8', '9']",3844255.2291666665,10002.125,384.875,33,528,1985/06,38,CHOI PO COURT,彩蒲苑,True,4.0,2096.0,POINT Z (22.5022275 114.1246592 0),22.5022275,114.1246592
159,"YUNG WUI HSE(Block A,YUNG SHING COURT),FAI MING RD|雍盛苑,A座(雍薈閣),暉明路",NSS,2060406.9265049484,4808.0,206.0,2057858.494932277,4845.0,206.0,4600824.0,8629.0,636.0,8,20,33,"['1', '10', '11', '12', '13', '14', '15', '16', '17', '18', '19', '2', '20', '21', '22', '23', '24', '3', '4', '5', '6', '7', '8', '9']",3313355.826332722,6525.75,427.5555555555556,40,960,2000/03,23,YUNG SHING COURT,雍盛苑,True,1.0,960.0,POINT Z (22.4824191 114.1372606 0),22.4824191,114.13726059999999
160,"FANLING GARDEN(Block 10),FAN LENG LAU RD|粉嶺花園10座,粉嶺樓路",NSS,4129678.089193427,9211.0,466.0,4084934.7415203373,9221.0,466.0,4811097.238160597,9665.0,547.0,1,2,3,"['A', 'C', 'D']",4355615.337421579,9297.111111111111,493.0,3,9,1987/09,36,FANLING GARDEN,粉嶺花園,True,10.0,94.0,POINT Z (22.4990266 114.1394996 0),22.4990266,114.13949960000001
161,"CHOI NGAN HSE(Block D,Phase 2,CHOI PO COURT),2 CHOI YUEN RD|彩蒲苑,2期,D座(彩顏閣),2 彩園路",NSS,3360057.9999999995,9119.0,338.0,3455712.0,9346.0,338.0,4296780.0,10828.0,438.0,6,17,28,"['1', '10', '11', '12', '13', '14', '15', '16', '2', '3', '4', '5', '6', '7', '8', '9']",3808740.4583333335,9924.729166666666,384.875,33,528,1985/06,38,CHOI PO COURT,彩蒲苑,True,4.0,2096.0,POINT Z (22.5024902 114.1241018 0),22.5024902,114.12410179999999
162,"CHOI YING HSE(Block A,Phase 1,CHOI PO COURT),2 CHOI YUEN RD|彩蒲苑,1期,A座(彩瑩閣),2 彩園路",NSS,3343158.0,8861.0,338.0,3392505.9999999995,9182.0,338.0,4434312.0,10457.0,438.0,6,16,26,"['1', '10', '11', '12', '13', '14', '15', '16', '2', '3', '4', '5', '6', '7', '8', '9']",3755584.2291666665,9775.625,384.875,31,496,1985/06,38,CHOI PO COURT,彩蒲苑,True,4.0,2096.0,POINT Z (22.5024902 114.1241018 0),22.5024902,114.12410179999999
163,"KA YIU HSE(Block C,Phase 2,KA SHING COURT),33 PAK WO RD|嘉盛苑,2期,C座(嘉耀閣),33 百和路",NSS,3804468.0000000005,8027.0,438.0,3999825.0,7509.0,435.0,5534080.0,9560.0,640.0,7,20,32,"['1', '10', '11', '12', '13', '14', '15', '16', '2', '3', '4', '5', '6', '7', '8', '9']",4688546.895833333,8670.479166666666,543.125,37,592,1995/06,28,KA SHING COURT,嘉盛苑,True,4.0,2336.0,POINT Z (22.4934588 114.1343206 0),22.493458800000003,114.1343206
164,"CHUN WU HSE(Block E,YUK PO COURT),CHOI YUEN RD|旭埔苑,E座(晉湖閣),彩園路",NSS,,,546.0,,,546.0,,,546.0,5,10,17,"['1', '2', '3', '5', '6', '7', '8']",,,546.0,15,105,1982/12,41,YUK PO COURT,旭埔苑,True,8.0,970.0,POINT Z (22.499941 114.128293 0),22.499941,114.128293
165,"8 ROYAL GREEN,CHING HIU RD|御景峰,清曉路",NSS,5290704.0,10333.0,432.0,5459616.0,10712.0,432.0,8234934.0,13005.0,762.0,9,22,36,"['A', 'B', 'C', 'D', 'E', 'F', 'G', 'H', 'J', 'K']",6734099.433333333,11617.033333333333,586.2,37,370,2009/09,14,blank,,False,,,POINT Z (22.4956223 114.1278178 0),22.4956223,114.1278178
166,"FANLING GARDEN(Block 4),FAN LENG LAU RD|粉嶺花園4座,粉嶺樓路",NSS,3987916.9876549267,8023.0,466.0,4127791.0999511885,8134.0,466.0,5130991.354762698,9422.0,604.0,1,2,3,"['A', 'B', 'C', 'D']",4530670.266566179,8514.25,520.75,3,12,1987/09,36,FANLING GARDEN,粉嶺花園,True,10.0,94.0,POINT Z (22.4994468 114.1401499 0),22.499446799999998,114.14014990000001
167,"KING SHING COURT(Phase 1),Block A,YAT MING RD|景盛苑1期,A座,一鳴路",NSS,2596464.0,5777.0,433.0,2656022.0,5860.0,433.0,3931920.0,6602.0,645.0,7,20,32,"['1', '10', '11', '12', '13', '14', '15', '16', '2', '3', '4', '5', '6', '7', '8', '9']",3298096.25,6107.291666666667,541.0625,38,608,1995/11,28,KING SHING COURT,景盛苑,True,4.0,2384.0,POINT Z (22.4877 114.140872 0),22.4877,114.140872
168,"LUEN WONG HSE,LUEN FAT ST|聯旺樓,聯發街",NSS,2206977.5546472226,6866.0,287.0,2229350.1791349305,6962.0,287.0,3316227.7533487445,8586.0,473.0,2,3,4,"['A', 'B', 'C', 'D', 'E', 'F', 'G', 'H', 'I', 'J', 'K', 'L', 'M', 'N', 'O', 'P', 'Q']",2867346.3230541483,7617.862745098039,399.8235294117647,5,85,1972/09,51,blank,,False,,,POINT Z (22.4984734 114.1417523 0),22.498473399999998,114.14175230000001
169,"FANLING GARDEN(Block 15),FAN LENG LAU RD|粉嶺花園15座,粉嶺樓路",NSS,4239091.62675797,5950.0,466.0,4247407.647604969,5971.0,466.0,5424383.357760717,6188.0,604.0,1,2,3,"['A', 'B', 'C']",4637076.873373491,6100.333333333333,512.0,3,9,1987/09,36,FANLING GARDEN,粉嶺花園,True,10.0,94.0,POINT Z (22.498248 114.1400105 0),22.498248,114.1400105
170,"WO FUNG BLDG,WO FUNG ST|和豐唐樓,和豐街",NSS,2184525.0754617588,10135.0,225.0,2166557.768466871,9001.0,225.0,2277370.4213694683,10272.0,290.0,2,3,4,"['A', 'B', 'C', 'D']",2237181.5113870245,10104.5,243.75,5,20,1982/11,41,blank,,False,,,POINT Z (22.4993467 114.1429832 0),22.4993467,114.14298319999999
171,"FANLING GARDEN(Block 9),FAN LENG LAU RD|粉嶺花園9座,粉嶺樓路",NSS,4344977.762155023,9145.0,466.0,4445982.547001204,9092.0,466.0,5579752.0,10224.0,604.0,1,2,3,"['A', 'B', 'C', 'D']",4882287.90612284,9759.666666666666,520.75,3,12,1987/09,36,FANLING GARDEN,粉嶺花園,True,10.0,94.0,POINT Z (22.4991648 114.1394532 0),22.499164800000003,114.1394532
172,"FANLING GARDEN(Block 13),FAN LENG LAU RD|粉嶺花園13座,粉嶺樓路",NSS,4058797.5384241766,8723.0,466.0,4078289.6898857206,8752.0,466.0,5041991.39281236,9390.0,604.0,1,2,3,"['A', 'B', 'C', 'D']",4470613.0472237505,9055.583333333334,520.75,3,12,1987/09,36,FANLING GARDEN,粉嶺花園,True,10.0,94.0,POINT Z (22.4985101 114.1397318 0),22.4985101,114.13973179999999
173,"KA MING HSE(Block A,Phase 1,KA SHING COURT),33 PAK WO RD|嘉盛苑,1期,A座(嘉明閣),33 百和路",NSS,3980544.0,8417.0,438.0,4127280.0,9067.0,435.0,5811840.0,10036.0,645.0,7,20,32,"['1', '10', '11', '12', '13', '14', '15', '16', '2', '3', '4', '5', '6', '7', '8', '9']",4555623.300865802,9351.343434343433,539.125,38,608,1995/06,28,KA SHING COURT,嘉盛苑,True,4.0,2336.0,POINT Z (22.494394 114.1341344 0),22.494394,114.13413440000001
174,"YAN KING HSE(Block C,Phase 2,KING SHING COURT),8 YAT MING RD|景盛苑,2期,C座(欣景閣),8 一鳴路",NSS,2704650.0,5943.0,438.0,2728755.0,6160.0,435.0,4213760.0,7027.0,645.0,7,19,32,"['1', '10', '11', '12', '13', '14', '15', '16', '2', '3', '4', '5', '6', '7', '8', '9']",3456942.8333333335,6370.4375,543.4166666666666,37,592,1996/02,27,KING SHING COURT,景盛苑,True,4.0,2384.0,POINT Z (22.4877037 114.1414736 0),22.487703699999997,114.1414736
175,"KA FAI HSE(Block B,Phase 1,KA SHING COURT),33 PAK WO RD|嘉盛苑,1期,B座(嘉輝閣),33 百和路",NSS,3733950.0,6987.0,435.0,3850620.0,7176.0,433.0,5710080.0,9827.0,640.0,7,20,32,"['1', '10', '11', '12', '13', '14', '15', '16', '2', '3', '4', '5', '6', '7', '8', '9']",4682790.875,8687.1875,541.5416666666666,37,592,1995/06,28,KA SHING COURT,嘉盛苑,True,4.0,2336.0,POINT Z (22.4940251 114.1345993 0),22.4940251,114.1345993
176,"TSUI LAI GARDEN(Block 1),FUNG NAM RD|翠麗花園1座,鳳南路",NSS,3619252.0,7758.0,427.0,3763578.0000000005,7980.0,427.0,4982130.0,9049.0,591.0,5,14,23,"['A', 'B', 'C', 'D', 'E', 'F', 'G', 'H', 'J', 'K', 'L', 'M']",4478802.583333333,8172.305555555556,549.25,26,312,1989/11,34,TSUI LAI GARDEN,翠麗花園,True,6.0,1871.0,POINT Z (22.5080653 114.1295132 0),22.508065300000002,114.1295132
177,"ON SHING COURT(Block A),TIN PING RD|安盛苑A座,天平路",NSS,3255750.0,7857.0,375.0,3433125.0,8083.0,375.0,5073565.0,9788.0,595.0,7,18,28,"['1', '10', '11', '12', '13', '14', '15', '16', '17', '18', '2', '3', '4', '5', '6', '7', '8', '9']",3951146.407407407,8826.018518518518,451.22222222222223,34,612,1990/02,33,ON SHING COURT,安盛苑,True,1.0,544.0,POINT Z (22.5023564 114.135024 0),22.5023564,114.135024
178,"FANLING GARDEN(Block 12),FAN LENG LAU RD|粉嶺花園12座,粉嶺樓路",NSS,,,466.0,,,466.0,,,604.0,2,2,3,"['A', 'B', 'C']",,,512.0,2,6,1987/09,36,FANLING GARDEN,粉嶺花園,True,10.0,94.0,POINT Z (22.4986557 114.1396389 0),22.4986557,114.1396389
179,"WING FAI CTR(Block 2),LUEN CHIT ST|榮輝中心2座,聯捷街",NSS,2710930.0,6150.0,419.0,2797663.0,6344.0,419.0,3827880.0,6845.0,588.0,6,18,29,"['A', 'B', 'C', 'D', 'F', 'G', 'H', 'J', 'K']",3446455.7037037034,6451.25925925926,535.4444444444445,32,288,1996/05,27,WING FAI CTR,榮輝中心,True,4.0,1189.0,POINT Z (22.5015382 114.1427742 0),22.5015382,114.1427742
180,"TSUI LAI GARDEN(Block 4),FUNG NAM RD|翠麗花園4座,鳳南路",NSS,3464251.0000000005,7897.0,427.0,3565877.0,7473.0,427.0,4894662.0,8780.0,591.0,5,14,23,"['A', 'B', 'C', 'D', 'E', 'F', 'G', 'H', 'J', 'K', 'L', 'M']",4130759.9444444445,8275.333333333334,500.6666666666667,27,324,1989/11,34,TSUI LAI GARDEN,翠麗花園,True,6.0,1871.0,POINT Z (22.5083546 114.1283752 0),22.5083546,114.12837520000001
181,"TSUI LAI GARDEN(Block 5),FUNG NAM RD|翠麗花園5座,鳳南路",NSS,3416427.0,7537.0,427.0,3471937.0,7713.0,427.0,4818530.0,8486.0,590.0,6,14,23,"['A', 'B', 'C', 'D', 'E', 'F', 'G', 'H', 'J', 'K', 'L', 'M']",4270056.305555556,8000.222222222223,535.3611111111112,26,312,1989/11,34,TSUI LAI GARDEN,翠麗花園,True,6.0,1871.0,POINT Z (22.5079661 114.1282126 0),22.5079661,114.1282126
182,"WING FOK CTR(Block 2),LUEN CHIT ST|榮福中心2座,聯捷街",NSS,2578457.0,5244.0,431.0,2649828.0,5406.0,431.0,3341397.0,5924.0,592.0,6,15,23,"['A', 'B', 'C', 'D', 'E', 'F', 'H', 'J', 'K']",3081723.142857143,5528.476190476191,529.8888888888889,25,225,1993/09,30,WING FOK CTR,榮福中心,True,6.0,1303.0,POINT Z (22.5011199 114.1415615 0),22.5011199,114.1415615
183,"FANLING GARDEN(Block 16),FAN LENG LAU RD|粉嶺花園16座,粉嶺樓路",NSS,4211258.431785633,4142.0,466.0,4217984.14682613,4246.0,466.0,5301455.190725829,4408.0,604.0,1,2,3,"['A', 'B', 'D']",4808010.986805714,4786.0,539.0,3,9,1987/09,36,FANLING GARDEN,粉嶺花園,True,10.0,94.0,POINT Z (22.4982548 114.1402428 0),22.4982548,114.14024280000001
184,"KA YEUNG HSE(Block D,Phase 2,KA SHING COURT),33 PAK WO RD|嘉盛苑,2期,D座(嘉揚閣),33 百和路",NSS,2687130.0,5901.0,435.0,2797485.0,6186.0,432.0,4355840.0,6806.0,640.0,8,21,32,"['1', '10', '11', '12', '13', '14', '15', '16', '2', '3', '4', '5', '6', '7', '8', '9']",3417622.8333333335,6306.979166666667,542.7708333333334,35,560,1995/06,28,KA SHING COURT,嘉盛苑,True,4.0,2336.0,POINT Z (22.4928634 114.1340094 0),22.492863399999997,114.13400940000001
185,"WING FAI CTR(Block 3),LUEN CHIT ST|榮輝中心3座,聯捷街",NSS,2793492.0,5868.0,419.0,2666097.0,6057.0,419.0,3705576.0,6545.0,588.0,7,18,29,"['A', 'C', 'D', 'E', 'F', 'G', 'H', 'J', 'K']",3262811.8888888885,6149.0,518.2222222222222,32,288,1996/05,27,WING FAI CTR,榮輝中心,True,4.0,1189.0,POINT Z (22.5017681 114.1435336 0),22.5017681,114.14353359999998
186,"TSUI LAI GARDEN(Block 6),FUNG NAM RD|翠麗花園6座,鳳南路",NSS,3776388.0,7165.0,427.0,3728137.0,7723.0,427.0,4981960.0,9565.0,590.0,5,14,23,"['A', 'B', 'C', 'D', 'E', 'F', 'G', 'H', 'J', 'K', 'L', 'M']",4411323.527777777,8373.916666666666,531.0833333333334,29,348,1989/11,34,TSUI LAI GARDEN,翠麗花園,True,6.0,1871.0,POINT Z (22.5077294 114.1284681 0),22.5077294,114.12846809999999
187,"YAN SAU HSE(Block A,Phase 1,YAN SHING COURT),15 WAH MING RD|欣盛苑,1期,A座(欣秀閣),15 華明路",NSS,2401548.0,5880.0,402.0,2491998.0,6093.0,402.0,4086720.0,6488.0,645.0,8,18,29,"['1', '2', '3', '4', '5', '7', '8', '9']",3200997.9166666665,6166.666666666667,519.75,34,272,1993/09,30,YAN SHING COURT,欣盛苑,True,7.0,2135.0,POINT Z (22.4865868 114.140266 0),22.4865868,114.140266
188,"TSUI LAI GARDEN(Block 3),FUNG NAM RD|翠麗花園3座,鳳南路",NSS,3345545.0,7233.0,427.0,3644872.0,7458.0,427.0,5000840.0,8776.0,591.0,5,14,23,"['A', 'B', 'C', 'D', 'E', 'F', 'G', 'H', 'J', 'K', 'L', 'M']",4383836.888888889,8000.888888888888,549.5555555555555,28,336,1989/11,34,TSUI LAI GARDEN,翠麗花園,True,6.0,1871.0,POINT Z (22.5085246 114.1288164 0),22.5085246,114.1288164
189,"FANLING GARDEN(Block 2),FAN LENG LAU RD|粉嶺花園2座,粉嶺樓路",NSS,4177189.5036384785,8253.0,466.0,4276490.376356807,8278.0,466.0,5609014.154686437,8662.0,624.0,1,2,3,"['A', 'B', 'C']",4734320.8853201205,8456.444444444445,518.6666666666666,3,9,1987/09,36,FANLING GARDEN,粉嶺花園,True,10.0,94.0,POINT Z (22.4990833 114.1402428 0),22.499083300000002,114.14024280000001
190,"WING FOK CTR(Block 5),LUEN CHIT ST|榮福中心5座,聯捷街",NSS,2465320.0,5522.0,431.0,2508851.0,5617.0,431.0,3417616.0,6002.0,592.0,8,16,23,"['A', 'B', 'C', 'D', 'E', 'F', 'G', 'H', 'J', 'K']",3058143.266666667,5720.566666666667,535.6,24,240,1993/09,30,WING FOK CTR,榮福中心,True,6.0,1303.0,POINT Z (22.5015563 114.1410092 0),22.5015563,114.1410092
191,"YIN KING HSE(Block D,Phase 3,KING SHING COURT),8 YAT MING RD|景盛苑,3期,D座(賢景閣),8 一鳴路",NSS,2624058.0,5584.0,438.0,2709714.0000000005,5843.0,433.0,4091520.0,6525.0,640.0,8,20,32,"['1', '10', '11', '12', '13', '14', '15', '16', '2', '3', '4', '5', '6', '7', '8', '9']",3268125.4375,6035.25,543.125,37,592,1996/02,27,KING SHING COURT,景盛苑,True,4.0,2384.0,POINT Z (22.4877 114.140872 0),22.4877,114.140872
192,"TAI KONG HSE,SAN KAN ST|大江樓,新勤街",NSS,2635893.9748037,8703.0,280.0,2632259.5122393374,8691.0,280.0,2641042.7967698798,8720.0,327.0,2,3,4,"['B', 'C', 'D']",2636398.7612709724,8704.666666666666,300.0,3,9,1981/04,42,blank,,False,,,POINT Z (22.5043477 114.1276552 0),22.504347699999997,114.12765520000002
193,"KIN FUNG BLDG,WO FUNG ST|建豐樓,和豐街",NSS,3035086.93143694,6732.0,260.0,3041361.2291176943,6837.0,260.0,3301947.098708122,7291.0,460.0,2,3,4,"['A', 'B', 'C', 'D', 'E']",3203410.3956541135,7007.277777777777,411.0,5,25,1981/07,42,blank,,False,,,POINT Z (22.4991355 114.1432154 0),22.4991355,114.14321540000002
194,"TIN LONG HSE(Block 8,TIN PING EST),TIN PING RD|天平村,8座(天朗樓),天平路",NSS,1648893.0357115725,4493.0,208.0,1699650.2026465484,4631.0,208.0,2040415.8655487949,4907.0,443.0,9,19,29,"['1', '10', '12', '13', '14', '18', '19', '20', '21', '5', '6', '9']",1821383.9735682074,4708.651515151515,390.5,29,348,1990/01,33,TIN PING EST,天平村,True,7.0,2459.0,POINT Z (22.5026732 114.1342893 0),22.5026732,114.13428929999999
195,"CHUEN WO BLDG,SAN FUNG AVE|全和大樓,新豐路",NSS,2679272.46061252,7934.0,335.0,2687552.6322487886,7955.0,335.0,3412504.9499575933,8496.0,450.0,2,3,4,"['A', 'B', 'C', 'D', 'E', 'F']",3028751.369570078,8222.666666666666,388.3333333333333,5,30,1981/12,42,blank,,False,,,POINT Z (22.5052181 114.126703 0),22.5052181,114.126703
196,"CHUNG MING HSE(Block 5,WAH MING EST),WAH MING RD|華明村,5座(頌明樓),華明路",NSS,1875000.0,4783.0,375.0,1935375.0,4940.0,375.0,2941502.0,5587.0,566.0,11,21,30,"['10', '15', '16', '17', '18', '3', '4', '5', '6', '7', '8', '9']",2343384.5277777775,5125.666666666667,459.0833333333333,27,324,1990/07,33,WAH MING EST,華明村,True,7.0,2653.0,POINT Z (22.4840745 114.1411358 0),22.4840745,114.1411358
197,"SHUN MING HSE(Block 2,WAH MING EST),WAH MING RD|華明村,2座(信明樓),華明路",NSS,2163837.86206912,6953.0,147.0,2209701.318238453,7119.0,147.0,3651401.755956837,9830.0,485.0,7,17,27,"['1', '10', '12', '14', '16', '17', '19', '20', '21', '23', '24', '25', '27', '28', '30', '31', '4', '5', '6', '7']",3017514.3797881077,8066.051282051281,338.55,31,620,1990/06,33,WAH MING EST,華明村,True,7.0,2653.0,POINT Z (22.4845085 114.1401731 0),22.4845085,114.14017309999998
198,"TIN MING HSE(Block 4,TIN PING EST),TIN PING RD|天平村,4座(天明樓),天平路",NSS,1844935.0,5197.0,348.0,1872980.0,5276.0,348.0,3441152.0,9208.0,704.0,6,11,17,"['1', '12', '16', '18', '19', '2', '20', '22', '23', '24', '34', '35', '36', '39', '40', '42', '46', '48', '49', '51', '52', '8', '9']",2940836.74193061,8657.378787878786,374.0144927536232,17,391,1989/01,34,TIN PING EST,天平村,True,7.0,2459.0,POINT Z (22.501893 114.133142 0),22.501893,114.13314199999999
199,"TIN MEI HSE(Block 5,TIN PING EST),TIN PING RD|天平村,5座(天美樓),天平路",NSS,1679067.0,4202.0,381.0,1738122.0,4311.0,381.0,2353923.0,5200.0,531.0,8,19,29,"['1', '10', '12', '13', '14', '16', '17', '18', '19', '21', '22', '24', '4', '5', '7', '9']",2147379.3333333335,4703.1875,457.5208333333333,31,496,1989/01,34,TIN PING EST,天平村,True,7.0,2459.0,POINT Z (22.5023564 114.135024 0),22.5023564,114.135024
200,"TIN YEE HSE(Block 1,TIN PING EST),TIN PING RD|天平村,1座(天怡樓),天平路",NSS,3004566.0,7579.0,381.0,3059429.9999999995,7809.0,381.0,3888640.0,8483.0,490.0,10,20,30,"['10', '11', '15', '17', '18', '19', '2', '20', '21', '22', '23', '24', '4', '6', '7', '8']",3258862.8125,8136.166666666667,401.4375,30,480,1987/01,36,TIN PING EST,天平村,True,7.0,2459.0,POINT Z (22.50499 114.131411 0),22.50499,114.13141100000001
201,"TIN CHEUNG HSE(Block 2,TIN PING EST),TIN PING RD|天平村,2座(天祥樓),天平路",NSS,1727454.0,4534.0,381.0,1776603.0,4663.0,381.0,2455390.0,5011.0,490.0,8,19,28,"['1', '10', '12', '14', '15', '16', '17', '18', '2', '22', '23', '3', '4', '5', '6', '7']",1892491.4791666667,4710.875,401.4375,27,432,1986/10,37,TIN PING EST,天平村,True,7.0,2459.0,POINT Z (22.5023564 114.135024 0),22.5023564,114.135024
202,"CHEONG CHING HSE(Block A,CHEONG SHING COURT),WAH MING RD|昌盛苑,A座(昌靖閣),華明路",NSS,3580928.0,6840.0,512.0,3719680.0,7156.0,512.0,4831805.0,7689.0,649.0,9,22,33,"['1', '2', '3', '4', '5', '6', '7', '8']",4211871.25,7267.333333333333,580.5,36,288,2000/03,23,CHEONG SHING COURT,昌盛苑,True,4.0,1083.0,POINT Z (22.483789 114.137851 0),22.483789,114.137851
203,"CHEONG WAH BLDG,LUEN CHEONG ST|昌華樓,聯昌街",NSS,2429967.0448723985,7512.0,333.0,2437881.2158106226,7534.0,333.0,2881705.0700727515,8530.0,384.0,2,3,4,"['A', 'B', 'C', 'D', 'E', 'F']",2636100.5921270647,7829.166666666667,354.4444444444444,5,30,1977/01,46,blank,,False,,,POINT Z (22.4990262 114.1433548 0),22.4990262,114.1433548
204,"WING FAI CTR(Block 1),LUEN CHIT ST|榮輝中心1座,聯捷街",NSS,2904508.0,6469.0,419.0,2999621.0,6474.0,419.0,4073664.0,7417.0,588.0,8,18,28,"['A', 'C', 'D', 'E', 'F', 'G', 'H', 'J', 'K']",3559892.851851852,6889.88888888889,518.2222222222222,29,261,1996/05,27,WING FAI CTR,榮輝中心,True,4.0,1189.0,POINT Z (22.5015246 114.1423097 0),22.5015246,114.14230970000001
205,"PO CHEUNG BLDG,LUEN ON ST|寶昌大樓,聯安街",NSS,2820650.449732029,5982.0,440.0,2828666.3403447745,5999.0,440.0,3175892.6285558706,6832.0,496.0,2,3,4,"['1', '2', '3', '4', '5', '6', '7', '8']",2979153.2048455738,6613.544444444444,479.25,5,40,1975/06,48,blank,,False,,,POINT Z (22.4997403 114.142957 0),22.499740300000003,114.14295700000001
206,"TIM MING HSE(Block 7,WAH MING EST),WAH MING RD|華明村,7座(添明樓),華明路",NSS,1662136.0,3752.0,381.0,1721498.0,3886.0,381.0,2464770.0,5082.0,489.0,6,18,28,"['10', '11', '13', '15', '16', '18', '2', '20', '22', '23', '24', '3', '4', '5', '6', '7', '8', '9']",2178070.212962963,4740.111111111111,456.7407407407407,32,576,1990/07,33,WAH MING EST,華明村,True,7.0,2653.0,POINT Z (22.4832833 114.1424026 0),22.4832833,114.14240259999998
207,"TIN HOR HSE(Block 3,TIN PING EST),TIN PING RD|天平村,3座(天賀樓),天平路",NSS,1997160.2869469759,5201.0,381.0,2064891.3304107198,5367.0,381.0,2646318.1380211036,5898.0,490.0,9,20,30,"['1', '10', '11', '12', '13', '14', '15', '2', '20', '21', '22', '23', '24', '3', '4', '5', '7', '8']",2232166.9585331236,5641.055555555555,417.3333333333333,29,522,1986/09,37,TIN PING EST,天平村,True,7.0,2459.0,POINT Z (22.5023564 114.135024 0),22.5023564,114.135024
208,"WING FAI CTR(Block 4),LUEN CHIT ST|榮輝中心4座,聯捷街",NSS,2912888.0,6224.0,419.0,2859675.0,6431.0,419.0,3926076.0,7040.0,588.0,7,18,29,"['A', 'B', 'C', 'D', 'E', 'F', 'G', 'H', 'J', 'K']",3493888.8037037035,6593.829629629629,523.8,32,320,1996/05,27,WING FAI CTR,榮輝中心,True,4.0,1189.0,POINT Z (22.5017681 114.1435336 0),22.5017681,114.14353359999998
209,"PING CHI HSE(Block A,TAI PING EST),PO PING RD|太平村,A座(平治樓),保平路",NSS,2437658.763438305,5841.0,377.0,2464368.258535044,5905.0,377.0,2493581.768797102,5975.0,572.0,10,18,23,"['1', '11', '2', '3', '7', '8', '9']",2465202.930256817,5907.0,446.85714285714283,18,126,1989/06,34,TAI PING EST,太平村,True,4.0,454.0,POINT Z (22.4984741 114.1263314 0),22.4984741,114.1263314
210,"PO CHEONG BLDG,WO LUNG ST|寶昌樓,和隆街",NSS,2723202.050889439,6656.0,405.0,2731287.339037138,6491.0,405.0,3225084.073024149,7151.0,500.0,2,3,4,"['A', 'C', 'D']",3019055.7553770174,6817.555555555555,464.3333333333333,5,15,1973/03,50,blank,,False,,,POINT Z (22.4991224 114.1424723 0),22.499122399999997,114.1424723
211,"WING FOK CTR(Block 6),LUEN CHIT ST|榮福中心6座,聯捷街",NSS,2651776.7770033595,5914.0,431.0,2713646.1053914167,6187.0,431.0,3658459.3203454944,6803.0,592.0,6,14,23,"['B', 'C', 'D', 'E', 'F', 'G', 'H', 'J', 'K']",3215403.4513864666,6406.814814814815,529.6666666666666,26,234,1993/09,30,WING FOK CTR,榮福中心,True,6.0,1303.0,POINT Z (22.5014827 114.1414736 0),22.5014827,114.1414736
212,"YIU MING HSE(Block 6,WAH MING EST),WAH MING RD|華明村,6座(耀明樓),華明路",NSS,1784404.0,4028.0,381.0,1834906.0,4142.0,381.0,2641578.0,5706.0,489.0,7,17,27,"['1', '11', '12', '13', '14', '15', '16', '17', '18', '20', '21', '4', '5', '6', '7', '9']",2414884.3214285714,5223.678571428572,464.25,29,464,1990/07,33,WAH MING EST,華明村,True,7.0,2653.0,POINT Z (22.4824137 114.1414465 0),22.4824137,114.14144650000001
213,"CHEUNG YUE HSE(CHEUNG WAH EST),SAN WAN RD|祥華村(祥裕樓),新運路",NSS,1765298.0,4779.0,358.0,1796085.9999999998,4857.0,358.0,,,424.0,7,15,21,"['1', '11', '13', '4', '6', '8']",1911762.0,4896.0,401.6666666666667,19,114,1984/03,39,CHEUNG WAH EST,祥華村,True,13.0,939.0,POINT Z (22.4928965 114.1415218 0),22.4928965,114.14152179999999
214,"WO TAI BLDG,WO TAI ST|和泰樓,和泰街",NSS,3503540.0,6190.0,564.0,3523349.9999999995,6225.0,564.0,3570328.0000000005,6308.0,566.0,2,3,4,"['A', 'B', 'C', 'D', 'E', 'F', 'G', 'H', 'I', 'J', 'K', 'L']",3540215.0909090913,6257.818181818181,565.75,5,60,1974/01,49,blank,,False,,,POINT Z (22.4991359 114.1419171 0),22.4991359,114.14191709999999
215,"CHEUNG SHUN HSE(CHEUNG WAH EST),SAN WAN RD|祥華村(祥順樓),新運路",NSS,1743183.0,4121.0,423.0,1785483.0,4221.0,423.0,1958915.5906292861,4668.0,476.0,8,16,23,"['11', '14', '2', '5', '7', '9']",1861137.6945337176,4388.0,441.8333333333333,23,138,1984/03,39,CHEUNG WAH EST,祥華村,True,13.0,939.0,POINT Z (22.4928938 114.1427045 0),22.4928938,114.1427045
216,"WING FOK CTR(Block 1),LUEN CHIT ST|榮福中心1座,聯捷街",NSS,3914773.0000000005,8402.0,431.0,3990629.0,8565.0,431.0,5199692.0,9492.0,592.0,7,16,24,"['A', 'B', 'C', 'D', 'E', 'G', 'H', 'J', 'K']",4768949.814814814,8833.74074074074,542.1111111111111,24,216,1993/09,30,WING FOK CTR,榮福中心,True,6.0,1303.0,POINT Z (22.5010183 114.1411021 0),22.501018300000002,114.1411021
217,"CHEUNG WO HSE(CHEUNG WAH EST),SAN WAN RD|祥華村(祥和樓),新運路",NSS,1944531.0,4597.0,423.0,1985561.9999999998,4694.0,423.0,2140576.0,4898.0,465.0,11,18,25,"['11', '12', '2', '3', '4', '9']",2032976.7333333334,4759.0,433.5,18,108,1984/03,39,CHEUNG WAH EST,祥華村,True,13.0,939.0,POINT Z (22.491917 114.141289 0),22.491917,114.14128899999999
218,"CHEUNG LAI HSE(CHEUNG WAH EST),SAN WAN RD|祥華村(祥禮樓),新運路",NSS,2436769.0,8797.0,277.0,2472225.0,8925.0,277.0,2528456.0,9128.0,277.0,5,10,16,"['10', '14', '21', '5', '7', '8']",2479857.8888888895,8952.555555555557,277.0,14,84,1984/06,39,CHEUNG WAH EST,祥華村,True,13.0,939.0,POINT Z (22.4934764 114.140266 0),22.4934764,114.140266
219,"TIN HEE HSE(Block 6,TIN PING EST),TIN PING RD|天平村,6座(天喜樓),天平路",NSS,1839849.0,4501.0,381.0,1892046.0,4630.0,381.0,2519595.0,5089.0,531.0,11,20,29,"['1', '11', '12', '13', '16', '18', '19', '20', '22', '23', '24', '3', '5', '6', '8']",2170093.3555555553,4802.022222222222,452.6000000000001,28,420,1989/01,34,TIN PING EST,天平村,True,7.0,2459.0,POINT Z (22.501606 114.134638 0),22.501606,114.134638
220,"CHEONG SIU HSE(Block B,CHEONG SHING COURT),WAH MING RD|昌盛苑,B座(昌兆閣),華明路",NSS,3398296.0000000005,6637.0,506.0,3611648.0,6944.0,512.0,4829858.0,7442.0,649.0,8,20,33,"['1', '2', '3', '4', '5', '6', '7', '8']",4091093.1666666665,7054.958333333333,580.0,40,320,2000/03,23,CHEONG SHING COURT,昌盛苑,True,4.0,1083.0,POINT Z (22.4833708 114.1386726 0),22.483370800000003,114.1386726
221,"CHEONG TO HSE(Block C,CHEONG SHING COURT),WAH MING RD|昌盛苑,C座(昌濤閣),華明路",NSS,4478749.0,6901.0,649.0,4580642.0,7058.0,649.0,4868798.0,7502.0,649.0,7,20,33,"['1', '2', '3', '4', '5', '6', '7', '8']",4692810.833333333,7230.833333333333,649.0,38,304,2000/03,23,CHEONG SHING COURT,昌盛苑,True,4.0,1083.0,POINT Z (22.4840021 114.1389655 0),22.4840021,114.1389655
222,"PO WING BLDG,WO LUNG ST|寶榮樓,和隆街",NSS,2983119.667068494,3310.0,485.0,2983119.667068494,3310.0,485.0,3540686.910442617,4162.0,516.0,2,2,4,"['A', 'C']",3258645.28654601,3730.3333333333335,500.5,4,8,1973/03,50,blank,,False,,,POINT Z (22.4990499 114.1423794 0),22.4990499,114.1423794
223,"CHUN KING HSE(Block B,Phase 2,KING SHING COURT),8 YAT MING RD|景盛苑,2期,B座(俊景閣),8 一鳴路",NSS,2731806.0,5740.0,438.0,2838375.0,5929.0,433.0,3993195.0,6992.0,645.0,7,20,32,"['1', '10', '11', '12', '13', '14', '15', '16', '2', '3', '4', '5', '6', '7', '8', '9']",3371194.7916666665,6237.895833333333,543.25,37,592,1996/02,27,KING SHING COURT,景盛苑,True,4.0,2384.0,POINT Z (22.486156 114.142437 0),22.486156,114.14243700000002
224,"SUN KING BLDG,WO FUNG ST|新景樓,和豐街",NSS,3323844.7356584044,5701.0,539.0,3323844.7356584044,5701.0,539.0,3561720.310495912,6109.0,560.0,2,2,3,"['A', 'D', 'E']",3403136.5939375735,5837.0,549.3333333333334,4,12,1976/07,47,blank,,False,,,POINT Z (22.4990131 114.1426116 0),22.499013100000003,114.1426116
225,"SHUN CHUNG LAU,SAN TSOI ST|慎忠樓,新財街",NSS,2762573.268836173,9148.0,297.0,2690732.5603915346,9174.0,297.0,2850540.0000000005,9530.0,323.0,3,4,4,"['B', 'C', 'D']",2784735.9011478894,9315.888888888889,309.3333333333333,4,12,1982/06,41,blank,,False,,,POINT Z (22.5047481 114.1273301 0),22.504748100000004,114.1273301
226,"LUEN CHEUNG BLDG,LUEN CHEONG ST|聯昌大樓,聯昌街",NSS,2964130.32857459,5836.0,500.0,2973161.5146302218,5852.0,500.0,3311331.8998554284,6344.0,565.0,2,3,4,"['1', '2', '4', '7', '8', 'B', 'C', 'F', 'H']",3173115.5652507413,6135.666666666667,544.0,5,45,1974/09,49,blank,,False,,,POINT Z (22.4997646 114.14296 0),22.499764600000002,114.14296000000002
227,"PO WAH BLDG,WO LUNG ST|寶華樓,和隆街",NSS,3361785.0,6657.0,505.0,3381755.187414915,6894.0,505.0,3440244.950915838,7166.0,516.0,3,4,4,"['B', 'C']",3396124.778677587,6941.5,510.5,4,8,1973/03,50,blank,,False,,,POINT Z (22.4989701 114.1423329 0),22.4989701,114.14233290000001
228,"MAY LUN BLDG,LUEN ON ST|美輪大廈,聯安街",NSS,,,375.0,,,375.0,,,525.0,2,3,4,"['1', '10', '2', '3', '6', '7', '8']",,,467.14285714285717,5,35,1977/02,46,blank,,False,,,POINT Z (22.4998251 114.1432712 0),22.499825100000002,114.1432712
229,"HONG MING HSE(Block 3,WAH MING EST),WAH MING RD|華明村,3座(康明樓),華明路",NSS,1796625.0,4532.0,375.0,1839750.0,4651.0,375.0,2759250.0,5305.0,566.0,8,18,29,"['10', '14', '15', '17', '18', '3', '4', '6', '7', '8']",2266868.3333333335,4816.166666666667,472.6000000000001,30,300,1990/07,33,WAH MING EST,華明村,True,7.0,2653.0,POINT Z (22.483419 114.139756 0),22.483419,114.139756
230,"CHEONG YUN HSE(Block D,CHEONG SHING COURT),WAH MING RD|昌盛苑,D座(昌潤閣),華明路",NSS,4404114.0,6786.0,649.0,4567662.0,7038.0,649.0,4990161.0,7689.0,649.0,8,20,32,"['1', '2', '3', '4', '5', '6', '7', '8']",4684482.0,7218.0,649.0,35,280,2000/03,23,CHEONG SHING COURT,昌盛苑,True,4.0,1083.0,POINT Z (22.4833708 114.1386726 0),22.483370800000003,114.1386726
231,"LAI MING HSE(Block 1,WAH MING EST),WAH MING RD|華明村,1座(禮明樓),華明路",NSS,3396060.5861270344,7142.0,381.0,3505977.7256333786,7324.0,381.0,3706047.0163005255,8609.0,489.0,9,19,29,"['12', '15', '16', '17', '18', '2', '20', '22', '23', '24', '4', '5', '7', '9']",3552367.7259764806,7827.38888888889,460.7142857142857,29,406,1990/05,33,WAH MING EST,華明村,True,7.0,2653.0,POINT Z (22.4853081 114.1400802 0),22.4853081,114.14008020000001
232,"TUNG HING HSE,SAN KIN ST|TUNG HING HSE,新健街",NSS,2882419.9597478923,5929.0,496.0,2889492.8044061973,5941.0,496.0,3492897.716271333,6143.0,637.0,2,3,4,"['A', 'B']",3121466.2650125385,6003.666666666667,548.1666666666666,5,10,1994/07,29,blank,,False,,,POINT Z (22.3251005 114.2109374 0),22.3251005,114.2109374
233,"CHEUNG CHUNG HSE(CHEUNG WAH EST),SAN WAN RD|祥華村(祥頌樓),新運路",NSS,1140132.0,4116.0,277.0,1156475.0,4175.0,277.0,1210692.0,4277.0,284.0,5,10,15,"['12', '15', '2', '20', '26', '4', '6']",1174038.142857143,4207.952380952381,279.0,14,98,1984/05,39,CHEUNG WAH EST,祥華村,True,13.0,939.0,POINT Z (22.492522 114.140191 0),22.492522,114.14019099999999
234,11 LUEN WO RD|11 聯和道,NSS,3338197.301743022,5987.0,555.0,3347694.3068688917,6004.0,555.0,3373862.8814534564,6363.0,587.0,2,3,4,"['F.P.', 'R.P.']",3351385.0515702926,6178.666666666667,571.0,5,10,1983/04,40,blank,,False,,,POINT Z (22.4979512 114.1430427 0),22.4979512,114.14304270000001
235,"PING HAY HSE(Block C,TAI PING EST),PO PING RD|太平村,C座(平熙樓),保平路",NSS,1631614.0869297537,3868.0,360.0,1666271.2835256362,3936.0,360.0,2461762.113929843,4607.0,494.0,6,13,20,"['10', '11', '12', '14', '4', '5', '9']",1963472.0879572502,4262.285714285715,441.85714285714283,22,154,1989/06,34,TAI PING EST,太平村,True,4.0,454.0,POINT Z (22.4980192 114.1266263 0),22.498019199999998,114.1266263
236,"DRAGON VIEW HSE,WO FUNG ST|龍景樓,和豐街",NSS,2947016.95053655,7653.0,356.0,2831849.9180283225,6797.0,366.0,2948238.1732255872,7153.0,401.0,3,4,4,"['A', 'B', 'D']",2909035.013930153,7201.0,388.2222222222222,4,12,1981/04,42,blank,,False,,,POINT Z (22.4987085 114.1423329 0),22.4987085,114.14233290000001
237,"GREEN CODE(Block 1),MA SIK RD|逸峰1座,馬適路",NSS,3939000.0,11653.0,300.0,4068599.9999999995,12132.0,300.0,9387216.0,13884.0,752.0,9,20,29,"['A', 'B', 'C', 'D', 'E']",6591246.133333333,12857.133333333333,518.0,28,140,2014/06,9,GREEN CODE,逸峰,True,4.0,749.0,POINT Z (22.5010014 114.1458862 0),22.5010014,114.14588619999999
238,"GREEN CODE(Block 3),MA SIK RD|逸峰3座,馬適路",NSS,4346136.0,11759.0,324.0,4257234.0,12242.0,326.0,7930381.0,13407.0,614.0,9,20,30,"['A', 'B', 'C', 'D', 'E', 'F', 'G', 'H']",6265649.666666667,12737.041666666666,493.4166666666667,29,232,2014/06,9,GREEN CODE,逸峰,True,4.0,749.0,POINT Z (22.5010014 114.1458862 0),22.5010014,114.14588619999999
239,"GREEN CODE(Block 2),MA SIK RD|逸峰2座,馬適路",NSS,5556887.999999999,11581.0,452.0,5769780.0,11767.0,452.0,8094978.0,13078.0,642.0,9,20,30,"['A', 'B', 'C', 'D', 'E']",6308040.733333333,12353.800000000001,511.4666666666667,29,145,2014/06,9,GREEN CODE,逸峰,True,4.0,749.0,POINT Z (22.5010014 114.1458862 0),22.5010014,114.14588619999999
240,"GREEN CODE(Block 5),MA SIK RD|逸峰5座,馬適路",NSS,5642028.0,12292.0,459.0,5858676.0,12764.0,455.0,8247248.0,13701.0,614.0,9,20,30,"['A', 'B', 'C', 'D', 'E', 'F', 'G', 'H']",6649011.208333333,13050.166666666666,509.3333333333333,29,232,2014/06,9,GREEN CODE,逸峰,True,4.0,749.0,POINT Z (22.5010014 114.1458862 0),22.5010014,114.14588619999999
241,"FU MING HSE(Block 4,WAH MING EST),WAH MING RD|華明村,4座(富明樓),華明路",NSS,2809125.0,6793.0,375.0,2903250.0,7016.0,375.0,4074634.0,8007.0,566.0,9,20,29,"['10', '12', '13', '14', '15', '16', '17', '3', '4', '5', '6', '7', '8']",3360812.4615384615,7396.0,457.9230769230769,30,390,1990/07,33,WAH MING EST,華明村,True,7.0,2653.0,POINT Z (22.4824137 114.1414465 0),22.4824137,114.14144650000001
242,"TAI CHEUNG BLDG,WO TAI ST|泰昌樓,和泰街",NSS,3493280.8286903244,7163.0,513.0,3493280.8286903244,7163.0,513.0,3507911.350100447,7193.0,587.0,2,2,4,"['B', 'E', 'G', 'J']",3498157.6691603656,7173.0,532.0,4,16,1977/04,46,blank,,False,,,POINT Z (22.5002132 114.1425894 0),22.500213199999997,114.1425894
243,41-53 WO TAI ST|41-53 和泰街,NSS,3875250.0000000005,5138.0,750.0,3880500.0,5140.0,750.0,4106860.0,5197.0,799.0,3,4,4,"['A', 'B', 'D', 'E']",3942644.3333333335,5172.916666666667,762.25,4,16,1971/01,52,blank,,False,,,POINT Z (22.5002343 114.1428224 0),22.5002343,114.14282240000001
244,"PING CHING HSE(Block B,TAI PING EST),PO PING RD|太平村,B座(平靜樓),保平路",NSS,3170850.374783337,8640.0,357.0,3212594.418034793,8762.0,357.0,4184329.1232951256,9623.0,494.0,6,11,17,"['13', '14', '3', '4', '5', '6']",3680003.6107858545,9004.72222222222,430.8333333333333,15,90,1989/06,34,TAI PING EST,太平村,True,4.0,454.0,POINT Z (22.497981 114.12669 0),22.497981,114.12669
245,"CHEUNG FUNG HSE(CHEUNG WAH EST),SAN WAN RD|祥華村(祥豐樓),新運路",NSS,1989314.5628925413,4351.0,358.0,2011029.336774934,5001.0,358.0,2007008.082352269,4991.0,465.0,16,21,26,"['10', '13', '15', '4', '9']",2035645.2165183455,4880.333333333333,418.6000000000001,15,75,1984/03,39,CHEUNG WAH EST,祥華村,True,13.0,939.0,POINT Z (22.4917437 114.1418452 0),22.4917437,114.1418452
246,"PING YEE HSE(Block D,TAI PING EST),PO PING RD|太平村,D座(平易樓),保平路",NSS,1700391.0,4339.0,357.0,1737519.0,4432.0,357.0,2575716.0,5374.0,572.0,8,16,22,"['10', '11', '12', '14', '2', '5', '7', '9']",2117841.25,4724.75,450.0,22,176,1989/06,34,TAI PING EST,太平村,True,4.0,454.0,POINT Z (22.4972344 114.1265869 0),22.4972344,114.12658689999999
247,"MOUNT ONE,LUEN HING ST|瓏山1號,聯興街",NSS,6365527.0,10208.0,511.0,6446776.0,10470.0,511.0,13125556.0,12904.0,1226.0,11,20,28,"['1A', '1B', '1C', '2A', '2B', '2C', '2D']",8786758.952380953,11487.095238095237,774.8571428571428,23,161,2014/07,9,blank,,False,,,POINT Z (22.499556 114.140689 0),22.499556,114.140689
248,"FU HING BLDG,FU HING ST|富興樓,符興街",NSS,2557221.922193989,7035.0,319.0,2519955.700685832,7054.0,319.0,2990915.8757644286,8938.0,352.0,3,4,4,"['A', 'B', 'C', 'D', 'H']",2758274.0399615327,8168.0,338.8,4,20,1981/01,42,blank,,False,,,POINT Z (22.5041995 114.1291416 0),22.5041995,114.1291416
249,"CHEUNG KING HSE(CHEUNG WAH EST),SAN WAN RD|祥華村(祥景樓),新運路",NSS,2001280.0,4720.0,271.0,2055552.0,4848.0,271.0,2119653.0,5011.0,424.0,4,11,18,"['10', '107', '11', '12', '13', '4']",2063628.8666666665,4876.266666666666,397.8333333333333,23,138,1984/03,39,CHEUNG WAH EST,祥華村,True,13.0,939.0,POINT Z (22.4927783 114.1423329 0),22.4927783,114.14233290000001
250,"GOLF PARKVIEW(Block 3),CASTLE PEAK RD KWU TUNG|哥爾夫景園3座,青山公路古洞段",NSS,8441912.225757875,7233.0,1079.0,8441912.225757875,7233.0,1079.0,8536619.18106226,7267.0,1086.0,2,2,4,"['A', 'B']",8473481.210859336,7244.333333333333,1080.1666666666667,4,8,2004/06,19,GOLF PARKVIEW,哥爾夫景園,True,2.0,16.0,POINT Z (22.5015815 114.1171347 0),22.5015815,114.11713470000001
251,"CHEUNG TAK HSE - WING A(CHEUNG WAH EST),SAN WAN RD|祥華村(祥德樓 - A翼),新運路",NSS,1818132.0,4567.0,381.0,1863090.0,4691.0,381.0,2583770.0,5273.0,490.0,14,22,30,"['3', '4', '5', '6', '7', '8']",2069754.5555555553,4961.555555555556,417.3333333333333,24,144,1985/01,38,CHEUNG WAH EST,祥華村,True,13.0,939.0,POINT Z (22.493687 114.141726 0),22.493686999999998,114.141726
252,"CHEUNG CHI HSE - WING A(CHEUNG WAH EST),SAN WAN RD|祥華村(祥智樓 - A翼),新運路",NSS,2260092.0,5843.0,381.0,2392680.0,5918.0,381.0,2955190.0000000005,6417.0,490.0,16,20,26,"['3', '4', '5', '7']",2532002.972222222,6174.472222222223,408.25,16,64,1986/02,37,CHEUNG WAH EST,祥華村,True,13.0,939.0,POINT Z (22.4928965 114.1415218 0),22.4928965,114.14152179999999
253,"CHEUNG CHI HSE - WING C(CHEUNG WAH EST),SAN WAN RD|祥華村(祥智樓 - C翼),新運路",NSS,,,381.0,,,381.0,,,490.0,8,16,23,"['1', '2', '6', '7', '8']",,,424.6000000000001,20,100,1986/02,37,CHEUNG WAH EST,祥華村,True,13.0,939.0,POINT Z (22.4928965 114.1415218 0),22.4928965,114.14152179999999
254,39 WO TAI ST|39 和泰街,NSS,4362402.24733541,5603.0,819.0,4374080.996882087,5618.0,819.0,4379531.080003869,5625.0,819.0,2,3,4,['whole floor'],4372004.774740455,5615.333333333333,819.0,5,5,1970/01,53,blank,,False,,,POINT Z (22.5002343 114.1428224 0),22.5002343,114.14282240000001
255,"CHEUNG CHI HSE - WING B(CHEUNG WAH EST),SAN WAN RD|祥華村(祥智樓 - B翼),新運路",NSS,,,381.0,,,381.0,,,490.0,6,16,24,"['1', '2', '5', '8']",,,408.25,26,104,1986/02,37,CHEUNG WAH EST,祥華村,True,13.0,939.0,POINT Z (22.4928965 114.1415218 0),22.4928965,114.14152179999999
256,"TUNG LOK MANSION,JOCKEY CLUB RD|同樂樓,馬會道",NSS,2900958.6080921944,7461.0,409.0,,,409.0,,,527.0,1,2,2,"['B', 'E', 'F']",2900958.6080921944,7461.0,448.3333333333333,2,6,1973/09/20,50,blank,,False,,,POINT Z (22.5058967 114.1285848 0),22.5058967,114.1285848
257,"COMMUNE MODERN(Block 2),WO FUNG ST|囍逸2座,和豐街",NSS,4159782.0000000005,11197.0,294.0,4212432.0,11560.0,294.0,9336284.0,14894.0,796.0,8,16,21,"['A', 'B', 'C', 'D', 'DH', 'E', 'EF', 'F', 'G', 'H', 'J']",5909945.818181817,13365.818181818182,452.8181818181818,18,198,2018/07,5,COMMUNE MODERN,囍逸,True,2.0,342.0,POINT Z (22.4984733 114.1428658 0),22.4984733,114.14286580000001
258,"COMMUNE MODERN(Block 1),WO FUNG ST|囍逸1座,和豐街",NSS,3574284.0,11592.0,235.0,3662820.0,12022.0,235.0,7874805.0,15923.0,645.0,8,16,21,"['A', 'B', 'C', 'D', 'E', 'F', 'G', 'H']",5228725.458333333,13751.25,393.125,18,144,2018/07,5,COMMUNE MODERN,囍逸,True,2.0,342.0,POINT Z (22.4984733 114.1428658 0),22.4984733,114.14286580000001
259,"CHEUNG TAK HSE - WING B(CHEUNG WAH EST),SAN WAN RD|祥華村(祥德樓 - B翼),新運路",NSS,2069962.1037181655,5269.0,381.0,1913130.3292807264,5154.0,381.0,2466046.157839064,6054.0,490.0,10,20,29,"['1', '3', '4', '6', '7', '8']",2233265.076296445,5566.444444444444,417.3333333333333,28,168,1985/01,38,CHEUNG WAH EST,祥華村,True,13.0,939.0,POINT Z (22.493687 114.141726 0),22.493686999999998,114.141726
260,"FANLING GARDEN(Block 19),FAN LENG LAU RD|粉嶺花園19座,粉嶺樓路",NSS,3992197.522483016,7858.0,466.0,4003791.025389216,7500.0,466.0,4913101.108434034,7962.0,604.0,1,2,3,"['A', 'B', 'D']",4536949.376616561,7795.0,539.0,3,9,1987/09,36,FANLING GARDEN,粉嶺花園,True,10.0,94.0,POINT Z (22.4986325 114.1403357 0),22.498632500000003,114.14033570000001
261,"EDEN MANOR(Block 2),CASTLE PEAK RD KWU TUNG|高爾夫御苑2座,青山公路古洞段",NSS,15176276.0,13697.0,1108.0,15550780.000000002,14035.0,1108.0,19742850.0,15152.0,1314.0,7,16,23,"['A', 'B']",17713144.333333332,14600.833333333334,1211.0,21,42,2019/05,4,EDEN MANOR,高爾夫御苑,True,6.0,415.0,POINT Z (22.5001325 114.1197882 0),22.5001325,114.1197882
262,"EDEN MANOR(Block 1),CASTLE PEAK RD KWU TUNG|高爾夫御苑1座,青山公路古洞段",NSS,15868776.000000002,12648.0,1108.0,16674292.0,12923.0,1108.0,31958290.0,16078.0,2422.0,9,16,20,"['A', 'AB', 'B']",22808239.333333332,14502.77777777778,1614.6666666666667,16,48,2019/05,4,EDEN MANOR,高爾夫御苑,True,6.0,415.0,POINT Z (22.5001325 114.1197882 0),22.5001325,114.1197882
263,"EDEN MANOR(Block 7),CASTLE PEAK RD KWU TUNG|高爾夫御苑7座,青山公路古洞段",NSS,3751116.0,13289.0,276.0,3815424.0,13697.0,276.0,6708425.0,16013.0,487.0,6,16,23,"['A', 'B', 'C', 'D', 'E', 'F', 'G', 'H', 'J', 'K']",5206921.600000001,14560.9,358.06666666666666,24,240,2019/05,4,EDEN MANOR,高爾夫御苑,True,6.0,415.0,POINT Z (22.5001325 114.1197882 0),22.5001325,114.1197882
264,"EDEN MANOR(Block 9),CASTLE PEAK RD KWU TUNG|高爾夫御苑9座,青山公路古洞段",NSS,13040640.0,11017.0,960.0,13371676.0,11337.0,960.0,22437988.0,15006.0,1927.0,7,16,23,"['A', 'AB', 'B']",16391551.444444442,13235.444444444445,1284.6666666666667,21,63,2019/05,4,EDEN MANOR,高爾夫御苑,True,6.0,415.0,POINT Z (22.5001325 114.1197882 0),22.5001325,114.1197882
265,"EDEN MANOR(Block 3),CASTLE PEAK RD KWU TUNG|高爾夫御苑3座,青山公路古洞段",NSS,12624000.0,10765.0,960.0,13113487.0,11065.0,960.0,21800151.0,14947.0,1927.0,7,16,23,"['A', 'AB', 'B']",15979175.0,12901.666666666666,1284.6666666666667,21,63,2019/05,4,EDEN MANOR,高爾夫御苑,True,6.0,415.0,POINT Z (22.5001325 114.1197882 0),22.5001325,114.1197882
266,"CHEUNG LOK HSE(CHEUNG WAH EST),SAN WAN RD|祥華村(祥樂樓),新運路",NSS,,,423.0,,,423.0,,,443.0,7,14,21,"['11', '14', '3', '5', '6', '7']",,,430.0,22,132,1984/03,39,CHEUNG WAH EST,祥華村,True,13.0,939.0,POINT Z (22.4928965 114.1415218 0),22.4928965,114.14152179999999
267,"MARIN POINT(Block 3),SHUN LUNG ST|尚澄3座,順隆街",NSS,3149372.0,8883.0,337.0,3159088.0,8915.0,345.0,5271862.0,10175.0,538.0,2,3,5,"['A', 'B', 'C', 'D', 'E', 'F', 'G', 'H', 'J', 'K', 'M']",3971272.4242424243,9399.454545454546,421.7878787878788,5,55,2018/08,5,MARIN POINT,尚澄,True,4.0,200.0,POINT Z (22.5438993 114.2253145 0),22.543899300000003,114.2253145
268,"MARIN POINT(Block 5),SHUN LUNG ST|尚澄5座,順隆街",NSS,2871600.0,9023.0,300.0,2770960.0,8581.0,300.0,4672335.0,10192.0,467.0,2,3,5,"['A', 'B', 'C', 'D', 'E', 'F', 'G', 'H', 'J', 'K', 'L', 'M', 'N']",3505211.307692308,9485.923076923076,368.4615384615384,5,65,2018/08,5,MARIN POINT,尚澄,True,4.0,200.0,POINT Z (22.5438993 114.2253145 0),22.543899300000003,114.2253145
269,"MARIN POINT(Block 2),SHUN LUNG ST|尚澄2座,順隆街",NSS,2514805.0560278357,8628.0,277.0,2498227.601034351,8689.0,277.0,4187589.0,9344.0,467.0,2,3,5,"['A', 'B', 'C', 'D', 'E', 'F', 'G', 'H', 'J', 'K', 'L', 'N', 'P']",3257618.5718287583,9079.307692307693,362.5128205128205,5,65,2018/08,5,MARIN POINT,尚澄,True,4.0,200.0,POINT Z (22.5438993 114.2253145 0),22.543899300000003,114.2253145
270,"MARIN POINT(Block 1),SHUN LUNG ST|尚澄1座,順隆街",NSS,3294512.0,8988.0,337.0,3391231.0000000005,9015.0,345.0,5026356.0,9948.0,523.0,2,3,5,"['C', 'D', 'E', 'F', 'G', 'H', 'J', 'K', 'L']",3960696.4814814813,9514.888888888889,417.4814814814815,5,45,2018/08,5,MARIN POINT,尚澄,True,4.0,200.0,POINT Z (22.5438993 114.2253145 0),22.543899300000003,114.2253145
271,29 WO TAI ST|29 和泰街,NSS,,,803.0,,,803.0,,,803.0,2,2,4,['whole floor'],,,803.0,4,4,1970/01,53,blank,,False,,,POINT Z (22.5002343 114.1428224 0),22.5002343,114.14282240000001
272,"EDEN MANOR(Block 6),CASTLE PEAK RD KWU TUNG|高爾夫御苑6座,青山公路古洞段",NSS,12631383.999999998,13144.0,961.0,13244502.0,13782.0,961.0,14861568.0,14208.0,1046.0,8,16,21,"['A', 'B']",13863523.5,13808.5,1003.5,18,36,2019/05,4,EDEN MANOR,高爾夫御苑,True,6.0,415.0,POINT Z (22.5001325 114.1197882 0),22.5001325,114.1197882
