,final_address,district,lowZone_value,lowZone_npsf_min,lowZone_nfa_min,midZone_value,midZone_npsf_min,midZone_nfa_min,highZone_value,highZone_npsf_max,highZone_nfa_max,oneSixth_floor,middle_floor,fifthSixth_floor,unit_list,value_avg,npsf_avg,unitSize_avg,noStorey,noFlat,op_date,bldgAge,est_name_en,est_name_ch,est_orNot,est_bldgNo,est_flatNo,final_coords,lat,long
0,"WINWAY COURT,TAI HANG RD|永威閣,大坑道",HCB,9455625.0,15338.0,615.0,9975300.0,16220.0,615.0,18094120.0,19352.0,935.0,6.0,14.0,21.0,"['A', 'B', 'C', 'D', 'E', 'F']",11315468.777777776,16448.55555555556,723.0555555555555,23,138,1982/06,39,blank,,False,,,POINT Z (22.2777694 114.192006 0),22.2777694,114.192006
1,"ILLUMINATION TERR(Block 1),TAI HANG RD|光明臺1座,大坑道",HCB,10300608.0,17355.0,576.0,11393280.0,19165.0,576.0,18934620.0,23091.0,820.0,8.0,22.0,37.0,"['A', 'B', 'C', 'D', 'E', 'F', 'G', 'H']",14361083.708333334,20498.25,698.25,44,352,1993/05,28,ILLUMINATION TERR,光明臺,True,2.0,704.0,POINT Z (22.2775651 114.1927491 0),22.2775651,114.19274909999999
2,"HONG KONG MANSION,YEE WO ST|香港大廈,怡和街",HCB,6279964.0,11012.0,478.0,6608183.0,11558.0,478.0,10037120.0,15683.0,766.0,6.0,13.0,20.0,"['A', 'B', 'C', 'D', 'E', 'F', 'G', 'H', 'I', 'J', 'K', 'L', 'M', 'N', 'O', 'P', 'Q']",7723599.568627451,13195.745098039215,589.6470588235294,21,357,1966/03,55,HONG KONG MANSION,香港大廈,True,1.0,357.0,POINT Z (22.2799698 114.1855626 0),22.2799698,114.1855626
3,"CHEE ON BLDG,EAST POINT RD|置安大廈,東角道",HCB,7441920.0,15448.0,480.0,7937760.0,16467.0,480.0,10638240.0,19257.0,555.0,7.0,16.0,24.0,"['5', 'I', 'J', 'K', 'L', 'M', 'M17', 'N', 'O', 'P']",9004485.0,17468.399999999998,515.5,26,260,1972/09,49,blank,,False,,,POINT Z (22.2803599 114.1849412 0),22.280359899999997,114.1849412
4,"BAY VIEW MANSION,MORETON TERR|灣景樓,摩頓臺",HCB,8437478.331814308,12664.0,340.0,5277315.937877343,13325.0,320.0,20528860.0,17215.0,1210.0,5.0,12.0,19.0,"['A1', 'A2', 'A3', 'A4', 'A5', 'A6', 'A7', 'A8', 'B1', 'B2', 'B3', 'B4', 'B5', 'C1', 'C2', 'C4', 'C5']",11693072.717331318,14623.743589743592,741.3333333333334,21,357,1966/12,55,BAY VIEW MANSION,灣景樓,True,1.0,357.0,POINT Z (22.2795895 114.188755 0),22.2795895,114.188755
5,"RONSDALE GARDEN(Block 2),TAI HANG DR|龍華花園2座,大坑徑",HCB,15053588.0,20966.0,718.0,16276342.0,22669.0,718.0,25323428.0,26215.0,988.0,6.0,17.0,28.0,"['A', 'B', 'C', 'D', 'E', 'F']",21174559.944444444,23705.77777777778,892.8333333333334,33,198,1986/07,35,RONSDALE GARDEN,龍華花園,True,2.0,396.0,POINT Z (22.2747388 114.195884 0),22.2747388,114.195884
6,"ILLUMINATION TERR(Block 2),TAI HANG RD|光明臺2座,大坑道",HCB,9753408.0,16933.0,576.0,10370880.0,18005.0,576.0,19186360.0,23398.0,820.0,8.0,22.0,37.0,"['A', 'B', 'C', 'D', 'E', 'F', 'G', 'H']",14222681.875,20257.0,698.25,44,352,1993/05,28,ILLUMINATION TERR,光明臺,True,2.0,704.0,POINT Z (22.2774193 114.1931206 0),22.2774193,114.1931206
7,"CATHAY MANSION,TUNG LO WAN RD|國泰大廈,銅鑼灣道",HCB,6998090.0,12386.0,520.0,6499203.112275792,11687.0,520.0,11728518.291272536,14837.0,765.0,4.0,8.0,11.0,"['A', 'B', 'C', 'D', 'E', 'F', 'G', 'H']",9369146.013274552,13890.333333333334,631.25,12,96,1966/12,55,blank,,False,,,POINT Z (22.2791945 114.1881013 0),22.2791945,114.1881013
8,"HOI TO COURT,GLOUCESTER RD|海都大廈,告士打道",HCB,7474458.950221875,12503.0,405.0,7698037.893995976,12854.0,420.0,13507918.49281609,14860.0,946.0,4.0,8.0,13.0,"['A', 'B', 'C', 'D', 'E', 'F', 'G', 'H', 'I', 'J1J2']",11453398.973236283,13659.946031746033,735.6666666666666,16,160,1964/10,57,blank,,False,,,POINT Z (22.281659 114.1833676 0),22.281659,114.1833676
9,"YEE ON BLDG,EAST POINT RD|怡安大廈,東角道",HCB,7472640.0,14897.0,480.0,7737600.0,15767.0,480.0,9240550.0,17959.0,1100.0,7.0,16.0,24.0,"['A', 'B', 'BC', 'C', 'D', 'E', 'F', 'F19', 'G', 'H']",8383411.481481481,16183.333333333334,577.0,26,260,1972/09,49,blank,,False,,,POINT Z (22.2810475 114.1844823 0),22.2810475,114.18448229999998
10,"JOLLY VILLA,TAI HANG RD|竹麗苑,大坑道",HCB,26158884.003371604,20607.0,1187.0,26844369.389979098,21147.0,1187.0,29007537.0,23993.0,1209.0,10.0,17.0,25.0,"['A', 'B']",27362304.194156002,22099.0,1198.0,23,46,1992/09,29,blank,,False,,,POINT Z (22.2773513 114.1923079 0),22.2773513,114.19230790000002
11,"HIGHLAND MANSION,CLEVELAND ST|海倫大廈,加寧街",HCB,13168032.005164078,8901.0,860.0,13895959.635597179,6160.0,860.0,25553751.629024185,11471.0,1355.0,5.0,8.0,10.0,"['A', 'B', 'C', 'D']",19329044.910932224,9989.166666666666,1110.5,10,40,1964/08,57,blank,,False,,,POINT Z (22.2826589 114.1858756 0),22.282658899999998,114.1858756
12,"CLEVELAND MANSION,CLEVELAND ST|加寧大廈,加寧街",HCB,16625082.0,13226.0,1257.0,16990869.0,13517.0,1257.0,17359170.0,13810.0,1257.0,3.0,6.0,9.0,"['A', 'B', 'C', 'D']",16991707.0,13517.666666666666,1257.0,11,44,1962/11,59,blank,,False,,,POINT Z (22.2820115 114.185519 0),22.2820115,114.185519
13,"KANFIELD MANSION,SUN CHUN ST|勤輝大廈,新村街",HCB,6070050.0,14805.0,410.0,6390670.0,15587.0,410.0,6710470.0,16367.0,410.0,5.0,12.0,19.0,"['A', 'B', 'C']",6403015.555555556,15617.111111111111,410.0,21,63,1977/07,44,blank,,False,,,POINT Z (22.2777834 114.1924704 0),22.277783399999997,114.19247040000002
14,"CARNATION COURT,TAI HANG RD|康馨園,大坑道",HCB,40069832.35554846,22463.0,1668.0,41773375.51093949,23418.0,1668.0,44891483.820492916,25166.0,1672.0,12.0,18.0,25.0,"['A', 'B']",42272007.36433404,23669.166666666668,1670.0,22,44,1996/05,25,blank,,False,,,POINT Z (22.2758114 114.1928148 0),22.2758114,114.19281480000001
15,"LEI SHUN COURT,LEIGHTON RD|禮信大廈,禮頓道",HCB,10912455.093025403,15876.0,588.0,10707034.058045974,16306.0,588.0,16875151.07492678,17149.0,839.0,3.0,6.0,10.0,"['A', 'B', 'C', 'D', 'E', 'F', 'G', 'H', 'I', 'J']",13573360.113749797,16550.783333333333,712.8333333333334,12,120,1958/12,63,blank,,False,,,POINT Z (22.2778509 114.1862703 0),22.2778509,114.1862703
16,"HARVEST MOON VILLA,FUK KWAN AVE|頌月花園,福群道",HCB,15976130.443098241,6693.0,910.0,15976130.443098241,6693.0,910.0,16795959.535567917,6841.0,936.0,2.0,2.0,3.0,"['A', 'B']",16376894.857349632,6763.5,923.0,4,8,1991/08,30,blank,,False,,,POINT Z (22.2760998 114.1938869 0),22.2760998,114.1938869
17,1 TAI HANG RD|1 大坑道,HCB,10508778.0,18534.0,567.0,10949337.0,19311.0,567.0,19812660.0,23116.0,879.0,5.0,14.0,22.0,"['A', 'B', 'C', 'D']",13990101.833333334,21117.11111111111,651.75,26,104,1990/10,31,blank,,False,,,POINT Z (22.2703638 114.1910735 0),22.270363800000002,114.19107350000002
18,"LOK SING CTR(Block B),YEE WO ST|樂聲大廈B座,怡和街",HCB,6136200.0,17532.0,350.0,6479900.0,18514.0,350.0,8624800.0,21562.0,400.0,9.0,16.0,24.0,"['1', '2', '3', '4', '5', '6', '7', '8']",7374039.583333333,19628.625,375.0,24,192,1977/12,44,LOK SING CTR,樂聲大廈,True,2.0,408.0,POINT Z (22.2797597 114.1868144 0),22.2797597,114.1868144
19,"LEE FAT BLDG,JARDINE'S CRES|利發大廈,渣甸坊",HCB,4243421.0,17328.0,218.0,4360109.0,17839.0,218.0,5168520.0,22379.0,280.0,8.0,12.0,17.0,"['A', 'B', 'C']",4701147.666666667,19779.55555555556,239.66666666666666,16,48,1983/03,38,blank,,False,,,POINT Z (22.2794014 114.1848306 0),22.2794014,114.18483059999998
20,"VIENNA MANSION,PATERSON ST|華納大廈,百德新街",HCB,8558400.0,13338.0,600.0,8737800.0,13644.0,600.0,17522310.0,14844.0,1255.0,3.0,6.0,9.0,"['A', 'B', 'C', 'D', 'E', 'F']",12464124.351790361,14014.266666666668,848.6666666666666,11,66,1958/11,63,blank,,False,,,POINT Z (22.2818462 114.1849467 0),22.2818462,114.1849467
21,"VANCOUVER MANSION,KINGSTON ST|漢寧大廈,京士頓街",HCB,15604153.295404738,13313.0,1096.0,15944061.990339566,13603.0,1096.0,41750078.97491362,17908.0,2180.0,4.0,7.0,10.0,"['A', 'AB', 'B', 'C']",22917228.602616936,14826.583333333334,1403.5,11,44,1964/11,57,blank,,False,,,POINT Z (22.2816106 114.1860168 0),22.281610600000004,114.1860168
22,"INTELLIGENT COURT,TUNG LO WAN RD|海麗軒,銅鑼灣道",HCB,8737038.281892227,17028.0,433.0,8877483.812592626,17281.0,433.0,,,3051.0,11.0,28.0,57.0,"['A', 'AB', 'B']",9217994.087394668,18052.0,1307.3333333333333,53,159,1988/06,33,blank,,False,,,POINT Z (22.2784284 114.1907288 0),22.2784284,114.19072879999999
23,"GOLD KING MANSION,TAI HANG DR|高景大廈,大坑徑",HCB,9352665.0,16279.0,567.0,10001790.0,17385.0,570.0,11200800.0,18668.0,600.0,4.0,10.0,17.0,"['A', 'B', 'C', 'D']",10261022.083333334,17540.25,584.75,20,80,1967/03,54,blank,,False,,,POINT Z (22.2740735 114.1931903 0),22.2740735,114.1931903
24,"KINGSTON BLDG(Block A),KINGSTON ST|京士頓大廈A座,京士頓街",HCB,8464105.0,12805.0,661.0,7506772.0,13078.0,574.0,30029630.627675753,17931.0,1566.0,5.0,10.0,15.0,"['1', '2', '3', '4', '45', '5']",13393028.01571318,14419.22222222222,876.8333333333334,14,84,1965/12,56,KINGSTON BLDG,京士頓大廈,True,2.0,174.0,POINT Z (22.2815401 114.1857827 0),22.2815401,114.1857827
25,"PATERSON BLDG(Block C),PATERSON ST|百德大廈C座,百德新街",HCB,5904015.0,14031.0,253.0,6374921.0,14665.0,253.0,20264391.0,18207.0,1113.0,4.0,9.0,14.0,"['2', '3', '5', 'C1', 'C2', 'C3', 'C3A', 'C3B', 'C4', 'C5']",11846766.370370371,15686.074074074073,689.9,15,150,1959/12,62,PATERSON BLDG,百德大廈,True,4.0,450.0,POINT Z (22.2809264 114.1852737 0),22.2809264,114.1852737
26,"GOLD NING MANSION,TAI HANG DR|高寧大廈,大坑徑",HCB,9742761.0,17183.0,565.0,10029880.0,17752.0,565.0,11611200.0,19352.0,600.0,4.0,10.0,17.0,"['C', 'E', 'F', 'G', 'H']",10491049.200000001,18262.333333333332,574.1999999999999,20,100,1967/03,54,blank,,False,,,POINT Z (22.2738628 114.1931439 0),22.2738628,114.1931439
27,"PO WING BLDG,LEE GARDEN RD|寶榮大樓,利園山道",HCB,4808104.0,13613.0,305.0,4903094.0,13769.0,305.0,7439228.0,16395.0,524.0,5.0,8.0,11.0,"['A', 'B', 'C', 'D', 'E', 'F', 'G', 'H', 'I', 'J', 'K', 'L', 'M', 'N', 'O', 'T']",6207926.923809524,14670.228571428574,420.4166666666667,11,176,1967/03,54,blank,,False,,,POINT Z (22.2782772 114.1837907 0),22.278277199999998,114.18379070000002
28,"YUKON HEIGHTS,TAI HANG RD|煜康臺,大坑道",HCB,19810771.50375969,17985.0,1030.0,20644619.378563475,18742.0,1030.0,25049600.0,24320.0,1030.0,9.0,15.0,21.0,"['A', 'B']",22162035.70017985,20865.833333333332,1030.0,19,38,1982/09,39,blank,,False,,,POINT Z (22.2752066 114.193469 0),22.2752066,114.193469
29,"CHESTERFIELD MANSION,KINGSTON ST|東寧大廈,京士頓街",HCB,11810852.21603892,5518.0,816.0,12185426.180846244,5693.0,816.0,25346211.97826705,19035.0,1330.0,5.0,9.0,13.0,"['A', 'B', 'C', 'D']",18706382.426361974,14202.833333333334,1057.75,13,52,1994/08,27,blank,,False,,,POINT Z (22.28191 114.186138 0),22.28191,114.18613799999999
30,"ROSEDALE,FUK KWAN AVE|玫瑰花園,福群道",HCB,31787644.30115076,16422.0,1810.0,32751610.131255075,16920.0,1810.0,33554914.98967534,17335.0,1810.0,3.0,7.0,10.0,['whole floor'],32698056.474027056,16892.333333333332,1810.0,11,11,1988/12,33,blank,,False,,,POINT Z (22.2760872 114.1937263 0),22.2760872,114.19372630000001
31,"HOI DEEN COURT,GLOUCESTER RD|海殿大廈,告士打道",HCB,8707984.010844322,9024.0,465.0,8632256.36612676,9369.0,404.0,37096987.07761942,20200.0,1455.0,4.0,9.0,14.0,"['A', 'B', 'C', 'C & D', 'D', 'E', 'F', 'G', 'H']",15718477.504667833,16997.833333333332,689.5185185185186,17,153,1963/08,58,blank,,False,,,POINT Z (22.2818513 114.1836695 0),22.2818513,114.18366950000001
32,"PATERSON BLDG(Block B),PATERSON ST|百德大廈B座,百德新街",HCB,8295048.0,13067.0,502.0,8604720.0,13596.0,502.0,11504048.0,15824.0,790.0,4.0,9.0,14.0,"['1', '2', '3', '4', '5']",10129605.166666666,14228.916666666666,670.2,15,75,1959/12,62,PATERSON BLDG,百德大廈,True,4.0,450.0,POINT Z (22.2805976 114.1852341 0),22.280597600000004,114.1852341
33,"NEWTOWN MANSION,CLEVELAND ST|新唐大廈,加寧街",HCB,13967520.0,16628.0,840.0,14387520.0,17128.0,840.0,14690760.0,17489.0,1300.0,4.0,8.0,11.0,"['A', 'B', 'C', 'D']",14348600.0,17081.666666666668,1070.0,12,48,1963/12,58,blank,,False,,,POINT Z (22.2822647 114.18584 0),22.2822647,114.18583999999998
34,"H & S BLDG,LEIGHTON RD|嘉柏大廈,禮頓道",HCB,10609356.293886121,18718.0,530.0,10980043.280540759,19372.0,530.0,13471042.292153044,22099.0,585.0,11.0,16.0,21.0,"['A', 'B', 'C', 'D']",11894246.59463133,20098.166666666668,559.5833333333334,17,68,1968/05,53,blank,,False,,,POINT Z (22.2774446 114.1835534 0),22.277444600000003,114.1835534
35,"LOK SING CTR(Block A),YEE WO ST|樂聲大廈A座,怡和街",HCB,5670700.0,16202.0,350.0,6014750.0,16694.0,350.0,16429500.0,21906.0,750.0,9.0,16.0,24.0,"['1', '2', '3', '4', '5', '5 & 6', '6', '7', '8']",7368824.305555555,18070.268518518515,416.6666666666667,24,216,1977/12,44,LOK SING CTR,樂聲大廈,True,2.0,408.0,POINT Z (22.2797597 114.1868144 0),22.2797597,114.1868144
36,"DRAGON GARDEN,CHUN FAI TERR|龍園,春暉台",HCB,28301398.534041375,16856.0,1570.0,29454878.64752538,17543.0,1570.0,34189687.84697939,20363.0,1570.0,4.0,10.0,17.0,"['A', 'B', 'C', 'D']",30973963.265683543,18447.75,1570.0,20,80,1976/10,45,blank,,False,,,POINT Z (22.2750494 114.1943281 0),22.275049399999997,114.19432809999999
37,"MORENGO COURT,TAI HANG RD|昍逵閣,大坑道",HCB,18904018.11799741,11168.0,960.0,19718204.428416174,11649.0,960.0,21341498.964157537,12608.0,984.0,3.0,6.0,10.0,"['A', 'B', 'C', 'D']",20088622.524597686,11867.833333333334,972.0,12,48,1976/05,45,blank,,False,,,POINT Z (22.275472 114.1933064 0),22.275472,114.1933064
38,"CLARKE MANSION,KINGSTON ST|嘉賓大廈,京士頓街",HCB,10345115.355401438,12713.0,759.0,10640574.122711452,13109.0,759.0,22099908.554570567,15062.0,1444.0,4.0,8.0,11.0,"['A', 'B', 'C', 'D']",14318930.876192397,13573.444444444443,1090.6666666666667,12,48,1963/11,58,blank,,False,,,POINT Z (22.2820226 114.1860207 0),22.2820226,114.1860207
39,"DRAGON RISE,PENNINGTON ST|登龍閣,邊寧頓街",HCB,5121600.0,16005.0,310.0,5386240.0,16832.0,310.0,6314880.0,19959.0,320.0,7.0,14.0,20.0,"['A', 'B', 'C', 'D']",5852920.0,18492.5,315.0,22,88,1986/08,35,blank,,False,,,POINT Z (22.2788334 114.1859452 0),22.278833399999996,114.1859452
40,"TOWNING MANSION,PATERSON ST|唐寧大廈,百德新街",HCB,13947063.929734174,9561.0,848.0,13844951.75788171,9491.0,848.0,21183266.383030903,11074.0,1112.0,3.0,6.0,8.0,"['A', 'B', 'C', 'D']",17063759.419963334,10419.166666666666,980.0,10,40,1958/05,63,blank,,False,,,POINT Z (22.2819054 114.1852895 0),22.281905399999996,114.1852895
41,"SUN HO COURT,TUNG LO WAN RD|新豪閣,銅鑼灣道",HCB,5399520.0,19284.0,280.0,5696600.0,20345.0,280.0,6107360.0,21812.0,280.0,5.0,12.0,19.0,"['A', 'B']",5738273.333333333,20493.833333333332,280.0,23,46,1988/01,33,blank,,False,,,POINT Z (22.2787921 114.1887666 0),22.2787921,114.1887666
42,"PATERSON BLDG(Block D),PATERSON ST|百德大廈D座,百德新街",HCB,6333290.153425792,14409.0,411.0,7790036.0,15518.0,502.0,13482140.0,17066.0,790.0,4.0,9.0,14.0,"['1', '2', '3', '4', '5', 'D1', 'D2', 'D3', 'D4', 'D5']",10764767.705114193,15976.533333333333,670.4666666666667,15,150,1960/08,61,PATERSON BLDG,百德大廈,True,4.0,450.0,POINT Z (22.2805976 114.1852341 0),22.280597600000004,114.1852341
43,"WALDORF MANSION,CAUSEWAY RD|華都大廈,高士威道",HCB,10003065.929921065,5260.0,704.0,10315326.315540975,5586.0,704.0,18450254.43425814,6586.0,1199.0,5.0,9.0,13.0,"['A', 'B', 'C', 'D']",13258812.294269165,5859.944444444444,924.0,13,52,1964/07,57,blank,,False,,,POINT Z (22.2792598 114.1879423 0),22.2792598,114.18794229999999
44,"MALAHON APTS,JAFFE RD|美漢大廈,謝斐道",HCB,4633920.0,13323.0,320.0,4770240.0,13312.0,320.0,11180650.0,17201.0,650.0,6.0,10.0,15.0,"['A', 'B', 'C', 'D', 'E', 'F', 'G', 'H', 'I', 'IJ', 'J', 'K', 'L', 'M', 'N', 'O', 'P']",5583567.4117647065,14775.901960784313,377.29411764705884,16,272,1966/10,55,MALAHON APTS,美漢大廈,True,1.0,272.0,POINT Z (22.2812524 114.1831818 0),22.281252399999996,114.1831818
45,"MARCO POLO MANSION,CLEVELAND ST|海威大廈,加寧街",HCB,17412000.3390409,11373.0,890.0,17871298.68615356,11673.0,890.0,18433173.664121382,12040.0,1277.0,4.0,8.0,13.0,"['A', 'B', 'C', 'D']",17905490.896438617,11695.333333333334,1071.75,14,56,1964/08,57,blank,,False,,,POINT Z (22.282715 114.185889 0),22.282715,114.18588899999999
46,"SUNRISE COURT,TUNG LO WAN RD|金暉閣,銅鑼灣道",HCB,3912090.0,20062.0,195.0,3989895.0,20461.0,195.0,4056975.0,20805.0,195.0,3.0,6.0,8.0,"['A', 'B']",3990675.0,20465.0,195.0,10,20,1983/08,38,blank,,False,,,POINT Z (22.2785681 114.1908798 0),22.2785681,114.19087979999999
47,"HOI KUNG COURT,GLOUCESTER RD|海宮大廈,告士打道",HCB,6578390.887993805,8224.0,465.0,6851957.240583042,8566.0,465.0,16271405.912883287,20597.0,776.0,4.0,10.0,16.0,"['A', 'B', 'C', 'D', 'E', 'F', 'G', 'H', 'I']",13242686.662227869,17583.55357142857,666.8888888888889,19,171,1966/01,55,blank,,False,,,POINT Z (22.2816344 114.1831357 0),22.281634399999998,114.18313570000001
48,"SUN ON MANSION,CANNON ST|新安大廈,景隆街",HCB,4317182.972065679,11474.0,294.0,4715306.279851557,11586.0,347.0,15619211.986360492,34357.0,469.0,3.0,6.0,8.0,"['A', 'B', 'C', 'D', 'E', 'F', 'G', 'H']",10386045.374775097,24241.386904761905,386.5416666666667,10,80,1964/11,57,blank,,False,,,POINT Z (22.2816186 114.1837624 0),22.2816186,114.1837624
49,"TRAFALGAR COURT,TAI HANG RD|大寶閣,大坑道",HCB,83672096.0,31201.0,2516.0,89569600.0,33409.0,2516.0,95791407.79043256,37851.0,2516.0,6.0,15.0,24.0,"['A', 'B']",89685329.75711842,34486.333333333336,2516.0,27,54,1984/06,37,blank,,False,,,POINT Z (22.2771178 114.1913567 0),22.277117800000003,114.1913567
50,"GARDENVIEW HEIGHTS,TAI HANG DR|嘉景臺,大坑徑",HCB,20398859.317744184,18483.0,1032.0,23425056.247743506,20433.0,1072.0,25902496.983385537,22773.0,1072.0,7.0,18.0,29.0,"['A', 'B']",23412525.340741713,20798.5,1052.0,33,66,1991/10,30,blank,,False,,,POINT Z (22.2747331 114.1945371 0),22.2747331,114.1945371
51,"FONTANA GARDEN(Block C),KA NING PATH|豪園C座,嘉寧徑",HCB,49698095.92899049,7401.0,2560.0,51464154.46558346,7664.0,2560.0,63183191.56004471,21484.0,2750.0,3.0,8.0,14.0,"['14', '15', '16', '17', 'whole floor']",55161969.436366536,11117.083333333334,2636.0,18,90,1966/06,55,FONTANA GARDEN,豪園,True,3.0,295.0,POINT Z (22.277906 114.190356 0),22.277906,114.19035600000001
52,"HIN WAH BLDG,HENNESSY RD|軒華大廈,軒尼詩道",HCB,5401565.599859657,10420.0,463.0,5519905.885712297,10612.0,463.0,6675522.727023134,11228.0,576.0,5.0,8.0,11.0,"['A', 'B', 'C']",5913727.113248455,10061.333333333334,504.8888888888889,9,27,1965/08,56,blank,,False,,,POINT Z (22.2793901 114.1818582 0),22.2793901,114.1818582
53,"FONTANA GARDEN(Block B),KA NING PATH|豪園B座,嘉寧徑",HCB,61038122.15310953,22295.0,2560.0,64287830.6525821,23482.0,2560.0,74420500.0,27062.0,2750.0,3.0,10.0,16.0,"['3', '4', '5', '6', 'whole floor']",67000098.66406413,23987.066666666666,2648.6666666666665,19,95,1965/12,56,FONTANA GARDEN,豪園,True,3.0,295.0,POINT Z (22.277906 114.190356 0),22.277906,114.19035600000001
54,"SUNRISE COURT,TAI HANG RD|兆暉閣,大坑道",HCB,22269700.0,20716.0,1075.0,22869550.0,21274.0,1075.0,23974650.0,22302.0,1075.0,8.0,14.0,21.0,['whole floor'],23037966.666666668,21430.666666666668,1075.0,22,22,1983/04,38,blank,,False,,,POINT Z (22.2757587 114.1935618 0),22.2757587,114.1935618
55,"KESWICK COURT,KESWICK ST|敬誠閣,敬誠街",HCB,,,536.0,9386989.700803788,16376.0,536.0,9821487.63639302,17134.0,536.0,7.0,14.0,20.0,"['A', 'B']",9604238.668598404,16755.0,536.0,20,40,1988/05,33,blank,,False,,,POINT Z (22.278673 114.1864097 0),22.278673,114.18640970000001
56,"HENNESSY APTS,PERCIVAL ST|軒尼詩大廈,波斯富街",HCB,6026624.79407506,11735.0,429.0,6587087.005845998,12342.0,454.0,9206743.126807136,14416.0,665.0,7.0,12.0,16.0,"['A', 'B', 'C', 'D', 'E', 'F', 'G', 'H', 'J', 'K', 'L', 'M']",8013002.980887276,13461.305555555555,559.2777777777777,16,192,1960/07,61,blank,,False,,,POINT Z (22.2797994 114.1829961 0),22.279799399999998,114.18299609999998
57,"AVALON,TAI HANG RD|雅景軒,大坑道",HCB,12558569.677695317,16776.0,700.0,13708424.412133802,18312.0,700.0,14296826.639522245,19098.0,700.0,9.0,17.0,24.0,"['A', 'B']",13527511.9376399,18070.333333333332,700.0,23,46,1994/12,27,blank,,False,,,POINT Z (22.2751627 114.1937476 0),22.2751627,114.19374760000001
58,"PAK TAK BLDG,JARDINE'S BAZAAR|八達大廈,渣甸街",HCB,7096845.24378026,15082.0,440.0,7421054.657184622,15771.0,440.0,7426230.71458295,15782.0,440.0,6.0,12.0,19.0,['whole floor'],7314710.205182611,15545.0,440.0,20,20,1988/11,33,blank,,False,,,POINT Z (22.2792773 114.1853415 0),22.2792773,114.1853415
59,"LEI WEN COURT,HAVEN ST|禮雲大樓,希雲街",HCB,7665805.0,16345.0,469.0,7694259.0,17607.0,437.0,7438500.0,15660.0,475.0,3.0,6.0,10.0,['whole floor'],7599521.333333333,16537.333333333332,460.3333333333333,12,12,1959/10,62,blank,,False,,,POINT Z (22.277545 114.186921 0),22.277545,114.186921
60,"CAUSEWAY BAY MANSION,PATERSON ST|銅鑼灣大廈,百德新街",HCB,15716018.162342733,17289.0,850.0,16058718.078312611,17666.0,850.0,18944900.0,19942.0,950.0,3.0,6.0,9.0,"['A', 'B', 'C', 'D']",17296013.43145123,18271.0,900.0,11,44,1958/05,63,blank,,False,,,POINT Z (22.2817363 114.1852929 0),22.281736300000002,114.18529290000001
61,"KWONG ON BLDG,YEE WO ST|廣安大廈,怡和街",HCB,5992636.0,12693.0,442.0,6179776.0,13165.0,446.0,10802718.0,15086.0,774.0,5.0,8.0,12.0,"['A', 'B', 'C', 'D']",8031634.801741426,13739.666666666666,584.6666666666666,12,48,1966/01,55,blank,,False,,,POINT Z (22.279808 114.1850164 0),22.279808,114.18501640000001
62,"HARMONY COURT,TAI HANG RD|融園,大坑道",HCB,22278006.894541923,6973.0,1218.0,22722097.380464956,7112.0,1218.0,23012832.878443345,10768.0,1218.0,2.0,5.0,7.0,"['22', 'whole floor']",22823614.60322443,9031.0,1218.0,7,14,1966/00,55,blank,,False,,,POINT Z (22.2768198 114.1931903 0),22.276819800000002,114.1931903
63,"PO HON BLDG,PERCIVAL ST|寶漢大廈,波斯富街",HCB,6331060.0,13356.0,395.0,6473260.0,15867.0,395.0,6793936.0,16734.0,523.0,6.0,9.0,12.0,"['A', 'B', 'C', 'D', 'E', 'F']",6744835.0,15382.5,481.6666666666667,9,54,1967/11,54,blank,,False,,,POINT Z (22.2806573 114.1825316 0),22.2806573,114.18253159999999
64,"HAYWOOD MANSION,PATERSON ST|海華大廈,百德新街",HCB,18570181.764703415,14937.0,1060.0,19178123.04360413,15426.0,1060.0,22507064.239636794,16629.0,2410.0,3.0,8.0,12.0,"['A', 'A & B', 'B', 'C', 'D']",20739226.187659234,15716.583333333334,1381.2,14,70,1961/09,60,blank,,False,,,POINT Z (22.2820244 114.1847841 0),22.282024399999997,114.1847841
65,"WAH YING BLDG,SHELTER ST|華英大廈,信德街",HCB,5583885.805115679,12735.0,410.0,5846527.940746955,13334.0,410.0,9577980.0,17737.0,776.0,5.0,11.0,17.0,"['A', 'AB', 'B', 'C']",7518263.230788977,15177.166666666666,547.75,19,76,1980/01,41,blank,,False,,,POINT Z (22.2790231 114.1884764 0),22.279023100000003,114.1884764
66,"FAIRVIEW MANSION,PATERSON ST|華爾大廈,百德新街",HCB,7822477.1582252,12191.0,600.0,8097475.526744963,12536.0,604.0,20568277.87910487,15325.0,1255.0,3.0,6.0,9.0,"['A', 'B', 'C', 'D', 'E', 'F']",12508235.371318834,13350.888888888889,854.0,11,66,1958/10,63,blank,,False,,,POINT Z (22.2814102 114.1849467 0),22.2814102,114.1849467
67,"VICTORIA PARK MANSION,KINGSTON ST|維德大廈,京士頓街",HCB,11962590.515045065,12415.0,901.0,12523382.112286808,12997.0,901.0,20431737.976557035,15663.0,1220.0,4.0,8.0,11.0,"['A', 'B', 'C', 'D']",16747144.139265364,14677.083333333334,1060.5,12,48,1964/08,57,blank,,False,,,POINT Z (22.2822672 114.1861726 0),22.2822672,114.1861726
68,"CAUSEWAY TOWER,CAUSEWAY RD|高威樓,高士威道",HCB,7337959.686141216,16337.0,410.0,7515827.840374669,16733.0,410.0,8217868.055190041,18593.0,420.0,15.0,18.0,20.0,"['A', 'B', 'C', 'D']",7786593.276222166,17657.44444444444,415.0,10,40,1978/07,43,blank,,False,,,POINT Z (22.2795462 114.1884764 0),22.2795462,114.1884764
69,"HAVEN COURT,LEIGHTON RD|希雲大廈,禮頓道",HCB,5087442.0,10733.0,474.0,5362884.0,11196.0,474.0,14518845.0,16295.0,940.0,3.0,6.0,8.0,"['A', 'B', 'C', 'D', 'E', 'F', 'G', 'H', 'I', 'J', 'K', 'L', 'M']",8462316.871794872,12425.051282051281,671.7435897435898,10,130,1959/01,62,blank,,False,,,POINT Z (22.2781849 114.186676 0),22.2781849,114.186676
70,"MAYLAND COURT,SHELTER ST|美蘭閣,信德街",HCB,5193065.0,13147.0,375.0,5470355.0,13849.0,375.0,5734875.0,15293.0,395.0,5.0,12.0,18.0,"['A', 'B', 'C']",5507120.833333333,14360.5,381.6666666666667,22,66,1976/09,45,blank,,False,,,POINT Z (22.2793827 114.188546 0),22.2793827,114.188546
71,"HYDE PARK MANSION,PATERSON ST|海德大廈,百德新街",HCB,7900759.679208177,12313.0,600.0,8081066.141472247,12594.0,600.0,22083165.506093662,16546.0,1248.0,3.0,6.0,9.0,"['A', 'B', 'C', 'D', 'E', 'F']",13240523.201262169,13963.27777777778,853.5555555555557,11,66,1958/10,63,blank,,False,,,POINT Z (22.2815993 114.1848538 0),22.281599300000003,114.1848538
72,"RIVIERA MANSION,PATERSON ST|海濱大廈,百德新街",HCB,12839281.04218018,8530.0,875.0,13266755.34651537,8814.0,875.0,21969968.762019634,10099.0,1285.0,3.0,7.0,11.0,"['A', 'B', 'C', 'D']",17767375.402022105,9938.0,1092.0833333333333,13,52,1961/11,60,blank,,False,,,POINT Z (22.2822117 114.1846332 0),22.2822117,114.1846332
73,"PEARL CITY MANSION,PATERSON ST|珠城大廈,百德新街",HCB,4938480.0,13679.0,246.0,4635997.0,14767.0,246.0,12809530.0,21593.0,3781.0,10.0,19.0,28.0,"['A1', 'A10', 'A1A', 'A1B', 'A2', 'A3', 'A3A', 'A4', 'A5', 'A5A', 'A6', 'A6A', 'A7', 'A7A', 'A7B', 'A8', 'A8A', 'A8B', 'A9', 'A9A', 'B1', 'B2', 'B3', 'B4', 'B5', 'B6', 'C1', 'C2', 'C2-C9', 'C3', 'C4', 'C5', 'C6', 'C7', 'C8', 'C9']",7362112.085714285,17347.79047619048,529.8055555555555,27,972,1970/08,51,PEARL CITY MANSION,珠城大廈,True,1.0,972.0,POINT Z (22.2810532 114.1858291 0),22.281053200000002,114.18582909999999
74,"LEI KWA COURT,CAROLINE HILL RD|禮加大樓,加路連山道",HCB,8229598.0,14722.0,559.0,8410714.0,15046.0,559.0,7917750.0,15525.0,510.0,3.0,6.0,10.0,['whole floor'],8186020.666666667,15097.666666666666,542.6666666666666,12,12,1959/07,62,blank,,False,,,POINT Z (22.2773865 114.1868276 0),22.2773865,114.18682759999999
75,"SHINING BLDG,JAFFE RD|肇明大廈,謝斐道",HCB,6351400.0,14435.0,440.0,6277480.0,14267.0,440.0,6666440.0,15151.0,440.0,7.0,12.0,18.0,"['A', 'B']",6428986.666666667,14611.333333333334,440.0,18,36,1978/04,43,blank,,False,,,POINT Z (22.2811986 114.1825549 0),22.2811986,114.18255490000001
76,58 TAI HANG RD|58 大坑道,HCB,29030697.0,20287.0,1431.0,31708098.0,22158.0,1431.0,,,2862.0,5.0,18.0,29.0,['whole floor'],30369397.5,21222.5,1908.0,32,32,1957/07,64,blank,,False,,,POINT Z (22.2703638 114.1910735 0),22.270363800000002,114.19107350000002
77,"RONSDALE GARDEN(Block 1),TAI HANG DR|龍華花園1座,大坑徑",HCB,14818084.0,20638.0,718.0,15816104.0,22028.0,718.0,25132320.0,25335.0,992.0,6.0,17.0,28.0,"['A', 'B', 'C', 'D', 'E', 'F']",20743491.166666668,23074.11111111111,895.7222222222222,33,198,1986/05,35,RONSDALE GARDEN,龍華花園,True,2.0,396.0,POINT Z (22.2747538 114.1955124 0),22.2747538,114.19551240000001
78,"GREAT GEORGE BLDG,GREAT GEORGE ST|華登大廈,記利佐治街",HCB,8180205.000000001,13465.0,605.0,8466370.0,13855.0,605.0,18777035.0,16151.0,1195.0,4.0,8.0,13.0,"['A1', 'A2', 'A3', 'A4', 'A5', 'B1', 'B2', 'C1', 'C2', 'C3', 'C4', 'C5', 'D1', 'D2']",11564540.595238095,14398.833333333334,798.5714285714286,14,196,1959/12,62,GREAT GEORGE BLDG,華登大廈,True,1.0,196.0,POINT Z (22.280567 114.1853182 0),22.280567,114.1853182
79,"PATERSON BLDG(Block A),PATERSON ST|百德大廈A座,百德新街",HCB,6995227.687170936,13030.0,502.0,7247549.791005958,13500.0,502.0,22879548.991893686,19222.0,1113.0,4.0,9.0,14.0,"['1', '2', '3', '4', '5']",12338438.31967284,15063.083333333334,785.4666666666666,15,75,1959/12,62,PATERSON BLDG,百德大廈,True,4.0,450.0,POINT Z (22.2805976 114.1852341 0),22.280597600000004,114.1852341
80,"MIAMI MANSION,CLEVELAND ST|美亞美大廈,加寧街",HCB,16992810.357308477,6717.0,1025.0,17982736.0,6854.0,1025.0,22594482.548799403,16001.0,1297.0,4.0,7.0,10.0,"['A', 'B', 'C', 'D']",18998909.11726165,11975.77777777778,1145.25,9,36,1964/03,57,blank,,False,,,POINT Z (22.282486 114.185443 0),22.282486,114.18544299999999
81,"OI KWAN COURT,FUK KWAN AVE|愛群閣,福群道",HCB,10298643.129317895,16050.0,600.0,10298643.129317895,16050.0,600.0,,,660.0,2.0,2.0,3.0,"['A', 'B', 'C', 'D']",10298643.129317895,16050.0,621.25,4,16,1978/09,43,blank,,False,,,POINT Z (22.2760202 114.1935618 0),22.276020199999998,114.1935618
82,"PO FOO BLDG,FOO MING ST|寶富大廈,富明街",HCB,5588858.670178122,12240.0,365.0,5194879.425231008,12635.0,330.0,11835940.732088083,16395.0,698.0,3.0,7.0,11.0,"['A', 'B', 'C', 'D', 'E', 'F', 'G', 'H', 'I', 'J', 'K', 'L', 'M', 'N', 'O', 'R']",7194190.41416927,14039.0625,479.4166666666667,13,208,1964/04,57,blank,,False,,,POINT Z (22.2788362 114.1834373 0),22.2788362,114.1834373
83,"RICH BLDG,ORMSBY ST|勵志大廈,安庶庇街",HCB,5281952.688324369,14316.0,345.0,5596301.926271586,15168.0,345.0,5936846.934047738,16091.0,345.0,5.0,12.0,20.0,['whole floor'],5605033.849547897,15191.666666666666,345.0,21,21,1993/04,28,blank,,False,,,POINT Z (22.2779103 114.192633 0),22.277910300000002,114.192633
84,"LEI HA COURT,HAVEN ST|禮希大樓,希雲街",HCB,7034280.0,15116.0,440.0,7090420.0,15086.0,440.0,5717110.0,15410.0,440.0,2.0,6.0,10.0,"['11A', 'whole floor']",6625643.333333333,15349.166666666666,438.5,13,26,1959/06,62,blank,,False,,,POINT Z (22.2777318 114.1867115 0),22.2777318,114.1867115
85,"YEE WAH MANSION,YEE WO ST|怡華大廈,怡和街",HCB,4562930.397086917,11176.0,342.0,4564553.638067738,11248.0,337.0,8947487.252752498,13760.0,572.0,5.0,10.0,14.0,"['A', 'B', 'C', 'D']",6136922.610136707,12122.5,435.5,14,56,1965/03,56,blank,,False,,,POINT Z (22.279633 114.1855737 0),22.279633,114.18557369999999
86,"EAST SOUTH BLDG,HENNESSY RD|東南大廈,軒尼詩道",HCB,4427039.089456263,9568.0,327.0,4551684.996419209,9924.0,327.0,13926889.210446073,14534.0,817.0,6.0,10.0,13.0,"['A', 'A1', 'B', 'C', 'D', 'E', 'F']",7103561.108201706,11430.095238095237,527.7142857142857,12,84,1965/10,56,blank,,False,,,POINT Z (22.2800434 114.1824155 0),22.280043399999997,114.1824155
87,"KINGSTON BLDG(Block B),KINGSTON ST|京士頓大廈B座,京士頓街",HCB,11687440.619487092,11934.0,487.0,10795354.760052055,12388.0,487.0,30695879.856082387,16617.0,1575.0,5.0,10.0,15.0,"['1', '2', '3', '34', '4', '5']",15268489.377493585,13265.533333333333,869.2777777777778,15,90,1965/12,56,KINGSTON BLDG,京士頓大廈,True,2.0,174.0,POINT Z (22.2815401 114.1857827 0),22.2815401,114.1857827
88,"GREENFIELD MANSION,KINGSTON ST|新豪大廈,京士頓街",HCB,20480365.1108343,15733.0,1210.0,21079493.75469077,16217.0,1210.0,57484715.97182348,21501.0,2500.0,4.0,8.0,11.0,"['A', 'A & C', 'AC', 'B', 'C']",35959298.74084891,18256.466666666667,1768.4000000000003,12,60,1964/11,57,blank,,False,,,POINT Z (22.2816413 114.1862471 0),22.2816413,114.18624709999999
89,"CAROLINE HILL COURT,CAROLINE HILL RD|加路連大樓,加路連山道",HCB,7983404.0,13957.0,572.0,7489344.0,16424.0,456.0,8690968.0,15194.0,572.0,3.0,6.0,10.0,['whole floor'],8054572.0,15191.666666666666,533.3333333333334,12,12,1959/07,62,blank,,False,,,POINT Z (22.277635 114.186533 0),22.277635,114.18653300000001
90,"FLORIDA MANSION,CLEVELAND ST|華高大廈,加寧街",HCB,14848845.0,13851.0,1023.0,15152676.0,14139.0,1023.0,19331040.815335814,15139.0,1194.0,3.0,6.0,8.0,"['A', 'B', 'C', 'D']",17181500.023047972,14695.166666666666,1108.5,10,40,1964/03,57,blank,,False,,,POINT Z (22.2822718 114.1855729 0),22.2822718,114.18557290000001
91,"THE FIRST MANSION,TUNG LO WAN RD|第一閣,銅鑼灣道",HCB,6492091.380519826,18230.0,333.0,6934394.040673727,19472.0,333.0,8124492.346856611,20868.0,333.0,5.0,12.0,20.0,"['A', 'B']",7068167.095159999,19512.333333333332,333.0,24,48,1995/11,26,blank,,False,,,POINT Z (22.279103 114.19179 0),22.279103,114.19179
92,"LAI YUEN APTS,RUSSELL ST|麗園大廈,羅素街",HCB,5933879.256510473,9852.0,392.0,6122527.298879287,10318.0,362.0,18243647.606474858,14816.0,1057.0,4.0,8.0,11.0,"['A', 'B', 'C', 'D', 'E', 'F', 'G', 'H', 'HI', 'I', 'J']",8151176.105997455,12983.809259259258,558.7878787878789,12,132,1964/04,57,blank,,False,,,POINT Z (22.2790248 114.1833996 0),22.279024800000002,114.1833996
93,"HAPPY MANSION,LEE GARDEN RD|HAPPY MANS,利園山道",HCB,17429667.31776003,34560.0,430.0,17550202.343481813,34799.0,430.0,17669224.377248924,35035.0,430.0,2.0,3.0,4.0,['whole floor'],17549698.012830257,34798.0,430.0,5,5,1963/01,58,blank,,False,,,POINT Z (22.27947 114.183242 0),22.27947,114.18324199999999
94,"PROSPECT MANSION,PATERSON ST|海灣大廈,百德新街",HCB,15968287.472826714,6617.0,920.0,17312451.916285153,7032.0,920.0,23116706.330868907,7911.0,1114.0,3.0,6.0,10.0,"['A', 'B', 'C', 'D']",19440833.383353278,7276.083333333333,1017.0,12,48,1960/09,61,blank,,False,,,POINT Z (22.2823655 114.1851092 0),22.2823655,114.1851092
95,"CHERRY COURT,TAI HANG RD|芝蘭閣,大坑道",HCB,20521901.902022537,14162.0,1355.0,20666810.120508786,14262.0,1355.0,22881809.77398874,14756.0,1450.0,5.0,8.0,10.0,"['12', 'whole floor']",21356840.59884002,14393.333333333334,1418.3333333333333,10,20,1965/12,56,blank,,False,,,POINT Z (22.2770601 114.1927723 0),22.277060100000003,114.1927723
96,"GRAND DECO TOWER,TAI HANG RD|帝后臺,大坑道",HCB,22878904.0,21106.0,1084.0,25531452.0,23553.0,1084.0,28465840.0,26260.0,1084.0,16.0,26.0,36.0,"['A', 'B']",25694594.0,23703.5,1084.0,27,54,1999/03,22,blank,,False,,,POINT Z (22.2768994 114.1935154 0),22.276899399999998,114.19351540000001
97,"FONTANA GARDEN(Block A),KA NING PATH|豪園A座,嘉寧徑",HCB,53585968.37420107,19573.0,773.0,56115648.78996573,20497.0,773.0,64968343.174127154,23322.0,2750.0,4.0,10.0,17.0,"['22', '22A', '23', '24', '25']",60149358.87594951,21191.416666666668,2278.6,22,110,1971/05,50,FONTANA GARDEN,豪園,True,3.0,295.0,POINT Z (22.277906 114.190356 0),22.277906,114.19035600000001
98,"Y.I,TAI HANG RD|Y.I,大坑道",HCB,21973035.260044113,23671.0,524.0,21404012.0,24659.0,524.0,31927451.322572954,28325.0,1054.0,11.0,20.0,29.0,"['A', 'B', 'C']",25427166.08293374,25635.666666666668,794.6666666666666,25,75,2001/03,20,blank,,False,,,POINT Z (22.276984 114.1925633 0),22.276984,114.19256329999999
99,"WELL-FOUND BLDG,JAFFE RD|匯創大廈,謝斐道",HCB,5476747.83357037,16414.0,312.0,5778045.706953704,17317.0,312.0,6125389.1025152225,18358.0,312.0,9.0,18.0,26.0,['whole floor'],5793394.214346432,17363.0,312.0,21,21,2001/02,20,blank,,False,,,POINT Z (22.2809367 114.1828335 0),22.2809367,114.1828335
100,"THE GRANDEUR,JARDINE'S BAZAAR|采怡閣,渣甸街",HCB,7960770.0,20205.0,394.0,8343344.000000001,21176.0,394.0,9450545.0,22971.0,419.0,9.0,16.0,24.0,"['A', 'B', 'C', 'D']",8808557.416666666,21638.25,407.0,22,88,2002/11,19,blank,,False,,,POINT Z (22.2792194 114.1851557 0),22.2792194,114.18515570000001
101,"PO MING BLDG,FOO MING ST|寶明大廈,富明街",HCB,5238652.542694718,13001.0,335.0,5178144.593127855,12849.0,335.0,11563595.627701636,17240.0,675.0,3.0,6.0,10.0,"['A', 'B', 'C', 'D', 'E', 'F', 'G', 'H', 'I', 'J', 'K', 'L', 'N', 'O']",7929615.749815676,15661.186507936509,454.4047619047619,12,168,1964/04,57,blank,,False,,,POINT Z (22.2784909 114.1835534 0),22.278490899999998,114.1835534
102,"HAMILTON MANSION(Block A1),CLEVELAND ST|美登大廈A1座,加寧街",HCB,15919645.397252806,8911.0,976.0,16272221.38685659,9116.0,976.0,19785045.23956003,10418.0,1238.0,3.0,6.0,9.0,"['A', 'B', 'C', 'D']",17541782.41705987,9743.222222222224,1093.5,11,44,1962/11,59,HAMILTON MANSION,美登大廈,True,1.0,44.0,POINT Z (22.2818061 114.1856908 0),22.2818061,114.1856908
103,8 PAK SHA RD|8 白沙道,HCB,,,865.0,,,865.0,,,823.0,2.0,3.0,4.0,['whole floor'],,,851.0,5,5,1955/03,66,blank,,False,,,POINT Z (22.2791031 114.1841873 0),22.2791031,114.18418729999999
104,"PHOENIX APTS,LEE GARDEN RD|鳳鳴大廈,利園山道",HCB,7495054.097613818,10518.0,395.0,7655996.330268069,10913.0,395.0,13516599.083291758,13403.0,974.0,4.0,9.0,14.0,"['A', 'B', 'C', 'D', 'E', 'E1', 'F', 'G', 'H', 'I', 'J', 'K', 'L']",9415534.154207585,11320.833333333334,746.1538461538462,17,221,1959/07,62,blank,,False,,,POINT Z (22.2783546 114.1839585 0),22.2783546,114.1839585
105,"GRANDVIEW MANSION,WANG FUNG TERR|偉景大廈,宏豐臺",HCB,15666865.144172153,12746.0,1048.0,15784864.442292389,12842.0,1048.0,21905661.6662766,13907.0,1343.0,1.0,2.0,3.0,"['2', '3', '5', '6', 'whole floor']",19517508.270099208,13469.666666666666,1241.0666666666666,3,15,1955/01,66,blank,,False,,,POINT Z (22.2764148 114.1916113 0),22.2764148,114.19161129999999
106,"THE LEGEND(Block 2),TAI HANG DR|名門2座,大坑徑",HCB,36239060.0,25342.0,1426.0,40666340.0,28438.0,1426.0,45977316.0,32197.0,1430.0,23.0,36.0,48.0,"['A', 'B']",41567238.666666664,29090.5,1428.3333333333333,35,70,2006/11,15,THE LEGEND,名門,True,4.0,437.0,POINT Z (22.2752914 114.1949921 0),22.2752914,114.19499209999998
107,518 JAFFE RD|518 謝斐道,HCB,,,737.0,,,737.0,,,737.0,2.0,3.0,4.0,['whole floor'],,,737.0,3,3,1961/12,60,blank,,False,,,POINT Z (22.2790636 114.1768091 0),22.279063600000004,114.1768091
108,500 LOCKHART RD|500 駱克道,HCB,7203121.252048078,18372.0,364.0,7254505.385493297,18018.0,364.0,7628259.5069864495,18768.0,383.0,4.0,5.0,6.0,"['A', 'B', 'C']",7381563.929640596,18524.11111111111,372.6666666666667,5,15,1964/12,57,blank,,False,,,POINT Z (22.2785972 114.1766163 0),22.278597199999997,114.17661629999999
109,"RITA HSE,LEIGHTON RD|麗達大廈,禮頓道",HCB,8232390.0,13386.0,219.0,7286650.0,13370.0,219.0,7419085.0,13613.0,545.0,3.0,6.0,9.0,"['F.P.', 'R.P.', 'whole floor']",7646041.666666667,13456.333333333334,377.77777777777777,9,27,1963/02,58,blank,,False,,,POINT Z (22.2782353 114.1863516 0),22.2782353,114.18635159999998
110,"JARDINE SUMMIT,TAI HANG RD|渣甸豪庭,大坑道",HCB,13442442.0,17526.0,767.0,14124537.0,18039.0,769.0,16588867.999999998,21572.0,782.0,10.0,18.0,26.0,"['A', 'B']",15171635.666666666,19622.5,773.1666666666666,22,44,2005/06,16,blank,,False,,,POINT Z (22.2758764 114.1938521 0),22.275876399999998,114.1938521
111,"THE LEGEND(Block 5),TAI HANG DR|名門5座,大坑徑",HCB,19103072.0,21416.0,891.0,22356196.0,25063.0,891.0,56793899.0,31853.0,1783.0,23.0,36.0,50.0,"['A', 'AB', 'B', 'C', 'D']",29782900.46666667,26937.8,1071.2,35,175,2006/11,15,THE LEGEND,名門,True,4.0,437.0,POINT Z (22.2747146 114.1947926 0),22.2747146,114.1947926
112,517 LOCKHART RD|517 駱克道,HCB,,,600.0,,,600.0,,,600.0,3.0,4.0,4.0,['whole floor'],,,600.0,4,4,1955/07,66,blank,,False,,,POINT Z (22.2785972 114.1766163 0),22.278597199999997,114.17661629999999
113,17-17A SHELTER ST|17-17A 信德街,HCB,7812306.0,18101.0,431.0,7867474.0,18237.0,431.0,8897977.0,18858.0,487.0,2.0,4.0,7.0,"['A', 'B']",8473508.166666666,18307.833333333332,463.5,8,16,1965/07,56,blank,,False,,,POINT Z (22.2793531 114.1884061 0),22.2793531,114.1884061
114,"THE LEGEND(Block 1),TAI HANG DR|名門1座,大坑徑",HCB,31402692.0,27402.0,1146.0,34747866.0,30321.0,1146.0,101384197.69759338,41344.0,2293.0,25.0,37.0,52.0,"['A', 'AB', 'B']",53231417.135944225,32595.777777777777,1528.6666666666667,33,99,2006/11,15,THE LEGEND,名門,True,4.0,437.0,POINT Z (22.2752914 114.1949921 0),22.2752914,114.19499209999998
115,"THE LEGEND(Block 3),TAI HANG DR|名門3座,大坑徑",HCB,36454950.0,24450.0,1491.0,39520446.0,26506.0,1491.0,53222664.0,30279.0,1796.0,22.0,33.0,51.0,"['A', 'B', 'C']",44351253.77777778,27375.333333333332,1618.3333333333333,31,93,2006/11,15,THE LEGEND,名門,True,4.0,437.0,POINT Z (22.274827 114.195048 0),22.274827,114.195048
116,"SAI SEE MANSION,WUN SHA ST|西施樓,浣紗街",HCB,,,360.0,,,360.0,,,418.0,2.0,4.0,6.0,"['A', 'B', 'C']",,,396.3333333333333,7,21,1964/05,57,blank,,False,,,POINT Z (22.2784843 114.1925865 0),22.2784843,114.1925865
117,32A JARDINE'S BAZAAR|32A 渣甸街,HCB,,,495.0,,,565.0,,,565.0,10.0,11.0,13.0,['whole floor'],,,541.6666666666666,5,5,1967/05,54,blank,,False,,,POINT Z (22.2795527 114.1852116 0),22.2795527,114.18521159999999
118,"WARRENWOODS,WARREN ST|尚巒,華倫街",HCB,5983700.0,22103.0,265.0,6056840.0,22856.0,265.0,14248776.0,28963.0,552.0,12.0,24.0,35.0,"['A', 'B', 'C', 'D', 'E', 'F']",9304882.0,24434.5,380.6666666666667,30,180,2012/09,9,blank,,False,,,POINT Z (22.278161 114.191637 0),22.278160999999997,114.19163700000001
119,16D TAI HANG RD|16D 大坑道,HCB,,,851.0,,,851.0,,,851.0,1.0,2.0,2.0,['whole floor'],,,851.0,4,4,1955/01,66,blank,,False,,,POINT Z (22.2703638 114.1910735 0),22.270363800000002,114.19107350000002
120,"WUN SHA MANSION,WUN SHA ST|浣沙閣,浣紗街",HCB,,,538.0,,,538.0,,,619.0,2.0,4.0,6.0,"['A', 'B']",,,578.5,6,12,1963/12,58,blank,,False,,,POINT Z (22.2789715 114.1922614 0),22.2789715,114.1922614
121,"THE WARREN,WARREN ST|瑆華,華倫街",HCB,9005268.0,23574.0,382.0,9695160.0,25380.0,382.0,57990053.17230223,44374.0,1222.0,10.0,20.0,30.0,"['A', 'AC', 'B', 'C', 'D']",21008945.655861143,28822.266666666666,641.6,26,130,2014/01,7,blank,,False,,,POINT Z (22.2784825 114.1915549 0),22.278482500000003,114.19155490000001
122,"THE SIGNATURE,CHUN FAI TERR|春暉8號,春暉台",HCB,46879115.527851194,27992.0,1566.0,56843774.62297532,33942.0,1566.0,80041630.41126189,43579.0,1566.0,11.0,23.0,36.0,"['A', 'B']",61475625.77123516,35302.833333333336,1566.0,33,66,2011/08,10,blank,,False,,,POINT Z (22.2752562 114.1945371 0),22.2752562,114.1945371
123,"PARK HAVEN,HAVEN ST|曦巒,希雲街",HCB,8865909.0,22121.0,377.0,9884563.0,24026.0,377.0,26614350.0,31311.0,850.0,7.0,18.0,27.0,"['A', 'B', 'C', 'D', 'E', 'F', 'G', 'H']",12610874.375,25407.083333333332,492.9583333333333,26,208,2014/06,7,blank,,False,,,POINT Z (22.2775121 114.1874278 0),22.277512100000003,114.1874278
124,520 JAFFE RD|520 謝斐道,HCB,,,739.0,,,739.0,,,739.0,5.0,7.0,9.0,['whole floor'],,,739.0,7,7,1961/12,60,blank,,False,,,POINT Z (22.2790636 114.1768091 0),22.279063600000004,114.1768091
125,"SZE HAI BLDG,SHEPHERD ST|SZE HAI BLDG,施弼街",HCB,6069624.570081666,10433.0,460.0,,,460.0,,,544.0,3.0,4.0,5.0,"['A', 'B', 'C', 'D']",6069624.570081666,10433.0,510.5,3,12,1964/07,57,blank,,False,,,POINT Z (22.2782091 114.1918435 0),22.2782091,114.1918435
126,"YOO RESIDENCE,TUNG LO WAN RD|YOO RESIDENCE,銅鑼灣道",HCB,9168588.0,22056.0,349.0,9922618.0,24994.0,349.0,41983754.4389145,45176.0,2683.0,9.0,18.0,27.0,"['A', 'B', 'C', 'C-E', 'CD', 'CE', 'D', 'E', 'F', 'G']",13070750.268149855,26326.63888888889,799.5,24,240,2015/08,6,blank,,False,,,POINT Z (22.278856 114.1889699 0),22.278856,114.1889699
127,26 SCHOOL ST|26 書館街,HCB,5312089.320036122,14192.0,350.0,5352139.598872358,14299.0,350.0,,,350.0,2.0,3.0,4.0,['whole floor'],5332114.45945424,14245.5,350.0,5,5,1965/01,56,blank,,False,,,POINT Z (22.2788179 114.1915765 0),22.278817899999996,114.1915765
128,2 CANNON ST|2 景隆街,HCB,,,616.0,,,616.0,,,616.0,2.0,3.0,4.0,['whole floor'],,,616.0,3,3,1955/07,66,blank,,False,,,POINT Z (22.2813001 114.1836755 0),22.281300100000003,114.18367549999999
129,"JONES HIVE,JONES ST|雋琚,重士街",HCB,9426897.0,25163.0,333.0,12400587.0,35484.0,333.0,74044964.06790036,62264.0,1112.0,18.0,38.0,65.0,"['A', 'AB', 'B', 'C', 'D']",30326205.990275245,41211.15,620.7333333333332,54,270,2016/11,5,blank,,False,,,POINT Z (22.2781929 114.1912159 0),22.278192899999997,114.1912159
130,"VERDE GREEN,WANG FUNG TERR|怡翠軒,宏豐臺",HCB,15665586.724613559,25393.0,526.0,15837091.986277897,25671.0,526.0,78517813.43019833,33464.0,2604.0,1.0,2.0,2.0,"['A', 'B', 'C', 'D', 'E', 'F']",31979257.097010866,27889.5,1469.8333333333333,4,24,2012/09,9,blank,,False,,,POINT Z (22.2750527 114.1926794 0),22.2750527,114.1926794
131,56 TUNG LO WAN RD|56 銅鑼灣道,HCB,,,399.0,,,399.0,,,399.0,2.0,2.0,3.0,['whole floor'],,,399.0,4,4,1965/11,56,blank,,False,,,POINT Z (22.278872 114.1896294 0),22.278872,114.1896294
132,42 SUN CHUN ST|42 新村街,HCB,,,202.0,,,202.0,,,168.0,3.0,4.0,5.0,['whole floor'],,,190.66666666666666,2,2,1975/05,46,blank,,False,,,POINT Z (22.2781257 114.192159 0),22.278125699999997,114.192159
133,24 SUN CHUN ST|24 新村街,HCB,11972338.400000801,45694.0,245.0,11972338.400000801,45694.0,245.0,12061684.208956031,46035.0,245.0,2.0,2.0,3.0,['whole floor'],12002120.33631921,45807.666666666664,245.0,4,4,9999,-7978,blank,,False,,,POINT Z (22.2781257 114.192159 0),22.278125699999997,114.192159
134,533 LOCKHART RD|533 駱克道,HCB,,,543.0,,,543.0,,,543.0,4.0,4.0,5.0,['whole floor'],,,543.0,2,2,1955/07,66,blank,,False,,,POINT Z (22.2785972 114.1766163 0),22.278597199999997,114.17661629999999
135,23 SUN CHUN ST|23 新村街,HCB,,,254.0,,,254.0,,,254.0,5.0,5.0,5.0,['whole floor'],,,254.0,1,1,1965/11,56,blank,,False,,,POINT Z (22.2781257 114.192159 0),22.278125699999997,114.192159
136,55 JARDINE'S BAZAAR|55 渣甸街,HCB,,,553.0,,,553.0,,,553.0,2.0,3.0,4.0,['whole floor'],,,553.0,3,3,1961/02,60,blank,,False,,,POINT Z (22.2795527 114.1852116 0),22.2795527,114.18521159999999
137,22 SUN CHUN ST|22 新村街,HCB,,,314.0,,,314.0,,,314.0,2.0,2.0,2.0,['whole floor'],,,314.0,1,1,1968/06,53,blank,,False,,,POINT Z (22.2781257 114.192159 0),22.278125699999997,114.192159
