,final_address,district,lowZone_value,lowZone_npsf_min,lowZone_nfa_min,midZone_value,midZone_npsf_min,midZone_nfa_min,highZone_value,highZone_npsf_max,highZone_nfa_max,oneSixth_floor,middle_floor,fifthSixth_floor,unit_list,value_avg,npsf_avg,unitSize_avg,noStorey,noFlat,op_date,bldgAge,est_name_en,est_name_ch,est_orNot,est_bldgNo,est_flatNo,final_coords,lat,long
0,"GREENVILLE GARDENS(Block D),SHIU FAI TERR|嘉苑D座,肇輝臺",HME,6847339.274485165,17859.0,1052,7328903.647000613,19115.0,1052,9504513.946900379,21732.0,1200,5.0,12.0,19.0,"['1', '2', '3', '4']",8275391.365183291,19863.166666666668,1140.5,23,92,1980/12,41,GREENVILLE GARDENS,嘉苑,True,4.0,312.0,POINT Z (22.2703649 114.178125 0),22.270364899999997,114.178125
1,"CRAIGMOUNT,STUBBS RD|紀園,司徒拔道",HME,14705625.11274438,9758.0,1770,15311452.25922145,10160.0,1770,17220019.776919678,11236.0,1800,4.0,8.0,11.0,"['A', 'B', 'C', 'D']",15825102.053201282,11239.583333333334,1787.5,12,48,1972/10,49,blank,,False,,,POINT Z (22.2669109 114.1817885 0),22.2669109,114.1817885
2,"GREENVILLE GARDENS(Block B),SHIU FAI TERR|嘉苑B座,肇輝臺",HME,7910622.0,6642.0,1191,8488257.0,7127.0,1191,12886915.0,8495.0,1517,5.0,12.0,20.0,"['1', '2', '3', '4']",10100295.416666666,7482.5,1343.75,24,96,1975/05,46,GREENVILLE GARDENS,嘉苑,True,4.0,312.0,POINT Z (22.2708816 114.1776687 0),22.270881600000003,114.1776687
3,"CAMELOT HEIGHTS,KENNEDY RD|金鑾閣,堅尼地道",HME,6367460.0,6182.0,1030,6574490.0,6383.0,1030,9058446.0,7317.0,1246,5.0,11.0,18.0,"['A', 'B', 'C']",7947075.111111112,6766.0,1171.3333333333333,19,57,1979/08,42,blank,,False,,,POINT Z (22.274097 114.1708974 0),22.274097,114.17089740000002
4,"GREENCLIFF,TUNG SHAN TERR|翠壁,東山臺",HME,2586778.640531673,14543.0,393,2611987.5575158135,7762.0,393,9257008.216510637,28821.0,1152,1.0,2.0,2.0,"['A', 'B', 'C', 'D', 'E', 'F', 'G', 'H', 'I']",5448759.2429312095,18637.38888888889,735.3333333333334,4,36,1989/10,32,blank,,False,,,POINT Z (22.2683753 114.1814867 0),22.2683753,114.18148670000001
5,"MOON FAIR MANSION,SHIU FAI TERR|滿輝大廈,肇輝臺",HME,4459910.0,5278.0,845,4599335.0,5443.0,845,7359690.0,6513.0,1130,3.0,6.0,10.0,"['6', 'A', 'B', 'C', 'D', 'E', 'F', 'G', 'H']",5858496.481481481,5776.925925925926,1008.3333333333334,12,108,1974/01,47,blank,,False,,,POINT Z (22.2715366 114.1773299 0),22.2715366,114.17732990000002
6,"GRANDVIEW TOWER(Block A),KENNEDY RD|慧景臺A座,堅尼地道",HME,5232492.163103024,8074.0,715,5694544.481076198,8814.0,715,7891680.0,26145.0,820,6.0,15.0,24.0,"['1', '2', '3', '4']",6352781.648361268,18909.916666666668,766.25,29,116,1978/02,43,GRANDVIEW TOWER,慧景臺,True,2.0,236.0,POINT Z (22.272555 114.174256 0),22.272555,114.174256
7,"UNITED MANSION,SHIU FAI TERR|騰黃閣,肇輝臺",HME,12703771.419319397,7928.0,1882,12758252.780098516,7962.0,1882,13455293.719478428,8397.0,1975,3.0,6.0,9.0,"['A', 'B', 'C']",13011697.933919027,8120.166666666667,1913.0,11,33,1966/03,55,blank,,False,,,POINT Z (22.2723832 114.1751043 0),22.2723832,114.1751043
8,"MERRY GARDEN(Block B),KENNEDY RD|豐樂新村B座,堅尼地道",HME,6093531.699668872,14805.0,720,6293150.941434452,15290.0,720,6767909.490593141,22016.0,964,3.0,6.0,10.0,"['1', '2', '3', '4']",6450691.3430752205,19153.888888888887,844.5,12,48,1972/07,49,MERRY GARDEN,豐樂新村,True,1.0,48.0,POINT Z (22.2723293 114.1729874 0),22.2723293,114.17298740000001
9,"SHIU FAI TERR GARDEN,SHIU FAI TERR|肇輝臺花園,肇輝臺",HME,7270972.850177961,17973.0,1110,7491857.019554091,18519.0,1110,7718404.88558089,19079.0,1110,3.0,6.0,9.0,"['A', 'B']",7493744.918437648,18523.666666666668,1110.0,11,22,1981/09,40,blank,,False,,,POINT Z (22.2723181 114.1769352 0),22.2723181,114.1769352
10,"GRANDVIEW TOWER(Block B),KENNEDY RD|慧景臺B座,堅尼地道",HME,4867000.0,6200.0,715,5326225.0,6785.0,715,6982290.0,18991.0,820,6.0,16.0,25.0,"['1', '2', '3', '4']",5656774.515808563,9490.666666666666,758.3333333333334,30,120,1978/02,43,GRANDVIEW TOWER,慧景臺,True,2.0,236.0,POINT Z (22.272555 114.174256 0),22.272555,114.174256
11,"AMBER GARDEN,KENNEDY RD|柏苑,堅尼地道",HME,11663924.033407463,21771.0,1470,12533990.29725633,23395.0,1470,14185723.235338882,26478.0,1470,11.0,20.0,28.0,"['A', 'B', 'C', 'D']",12838388.480082767,23963.166666666668,1470.0,26,104,1981/07,40,blank,,False,,,POINT Z (22.2732454 114.1724301 0),22.2732454,114.1724301
12,"GOODVIEW GARDEN(Block C),STUBBS RD|豐景台C座,司徒拔道",HME,18181800.0,12025.0,1465,18181800.0,12025.0,1465,18564336.0,12278.0,1512,0.0,0.0,0.0,"['1', '2', 'C1', 'C2', 'C3', 'C4']",18337536.0,12128.0,1488.5,1,6,1982/11,39,GOODVIEW GARDEN,豐景台,True,5.0,32.0,POINT Z (22.2679334 114.1801398 0),22.267933399999997,114.1801398
13,"EWAN COURT,KENNEDY RD|倚雲閣,堅尼地道",HME,7688440.0,6302.0,1220,9359739.953211587,18159.0,1220,9952622.85062617,21506.0,1235,3.0,6.0,10.0,"['A', 'B', 'C', 'D']",9419806.429957425,18315.77777777778,1227.5,12,48,1978/06,43,blank,,False,,,POINT Z (22.2743857 114.1689589 0),22.2743857,114.16895890000002
14,"MONTICELLO,KENNEDY RD|滿峰台,堅尼地道",HME,6662592.0,6192.0,1064,7028298.0,6401.0,1064,9598616.0,7624.0,1259,4.0,10.0,18.0,"['A', 'B', 'C', 'D', 'E', 'F']",8066320.733333333,6923.8,1146.6666666666667,20,120,1966/08,55,blank,,False,,,POINT Z (22.2746373 114.1682965 0),22.274637300000002,114.16829650000001
15,"MAN YUEN GARDEN,KENNEDY RD|文苑,堅尼地道",HME,11611868.319596961,19170.0,1662,12708241.906371634,20980.0,1662,12347831.80464184,20385.0,1669,4.0,7.0,10.0,"['A', 'B']",12222647.343536811,20178.333333333332,1665.5,11,22,1964/04,57,blank,,False,,,POINT Z (22.27442 114.168525 0),22.274420000000003,114.168525
16,"GOODVIEW GARDEN(Block F),STUBBS RD|豐景台F座,司徒拔道",HME,,,1642,,,1642,,,1688,0.0,0.0,0.0,"['1', '2', '3', '4', 'F1', 'F2', 'F3', 'F4']",,,1665.0,1,8,1982/11,39,GOODVIEW GARDEN,豐景台,True,5.0,32.0,POINT Z (22.2679334 114.1801398 0),22.267933399999997,114.1801398
17,"GREENVILLE GARDENS(Block C),SHIU FAI TERR|嘉苑C座,肇輝臺",HME,5869108.0,5579.0,1052,6223632.0,5916.0,1052,9848475.0,7215.0,1365,5.0,12.0,19.0,"['1', '2', '3', '4']",7267760.666666667,6204.416666666667,1163.25,22,88,1980/12,41,GREENVILLE GARDENS,嘉苑,True,4.0,312.0,POINT Z (22.2705325 114.1778581 0),22.2705325,114.1778581
18,"SILVER FAIR MANSION,SHIU FAI TERR|銀輝大廈,肇輝臺",HME,6498768.90415689,15514.0,1119,6155692.216487397,14695.0,1119,,,1119,3.0,6.0,8.0,['whole floor'],6327230.560322143,15104.5,1119.0,10,10,1965/07,56,blank,,False,,,POINT Z (22.2723383 114.1767378 0),22.2723383,114.1767378
19,"MANDARIN VILLA(Block E),SHIU FAI TERR|文華新村E座,肇輝臺",HME,6200705.868250886,14990.0,612,6382300.923365105,15429.0,612,7402260.970500826,16547.0,1195,3.0,6.0,10.0,"['3', '4', '7', '8']",6906080.092234268,15819.666666666666,888.5,12,48,1973/05,48,MANDARIN VILLA,文華新村,True,2.0,96.0,POINT Z (22.271991 114.176588 0),22.271991,114.176588
20,"MANDARIN VILLA(Block W),SHIU FAI TERR|文華新村W座,肇輝臺",HME,3275885.2239748947,12537.0,612,3341732.1631502695,12789.0,612,9629760.480503993,18874.0,1195,3.0,6.0,10.0,"['1', '2', '5', '6']",6343574.290544461,15600.333333333334,903.5,12,48,1973/05,48,MANDARIN VILLA,文華新村,True,2.0,96.0,POINT Z (22.271991 114.176588 0),22.271991,114.176588
21,"BEVERLY COURT,SHIU FAI TERR|嘉美閣,肇輝臺",HME,4497925.564514598,5976.0,884,4675554.485737062,6212.0,884,5472136.212275298,13141.0,964,4.0,8.0,10.0,"['A', 'B', 'C', 'D']",5052572.561583688,8006.583333333333,924.0,10,40,1981/12,40,blank,,False,,,POINT Z (22.2725847 114.1763279 0),22.2725847,114.1763279
22,"CRESCENT HEIGHTS,TUNG SHAN TERR|月陶居,東山臺",HME,5690048.51184308,15360.0,770,5717423.774573139,17126.0,770,9010591.100864667,18688.0,1230,1.0,2.0,3.0,"['A', 'E', 'H', 'J', 'K', 'L', 'M']",6522815.208998083,15357.333333333334,989.1904761904761,3,21,1996/11,25,blank,,False,,,POINT Z (22.267981 114.181314 0),22.267981,114.18131399999999
23,"MIRAMAR VILLA(Block W),SHIU FAI TERR|美麗村W座,肇輝臺",HME,4217270.164959503,13331.0,868,4274213.277231105,13511.0,868,5170539.558523607,15181.0,960,3.0,6.0,10.0,"['1', '2', '3', '4']",4712587.771503888,14149.25,914.0,12,48,1969/10,52,MIRAMAR VILLA,美麗村,True,2.0,92.0,POINT Z (22.2728998 114.1765636 0),22.2728998,114.1765636
24,"MIRAMAR VILLA(Block E),SHIU FAI TERR|美麗村E座,肇輝臺",HME,4562796.480085692,13041.0,868,4705897.757622311,13450.0,868,5030607.6185722025,15902.0,960,3.0,6.0,9.0,"['5', '6', '7', '8']",4774504.213627212,14139.22222222222,914.0,11,44,1969/07,52,MIRAMAR VILLA,美麗村,True,2.0,92.0,POINT Z (22.2728998 114.1765636 0),22.2728998,114.1765636
25,"RICHERY GARDEN,TUNG SHAN TERR|德信花園,東山臺",HME,4573139.104509934,12234.0,706,4618939.9687761115,12357.0,706,6834436.68833156,19493.0,1042,1.0,2.0,3.0,"['A', 'B', 'C', 'D', 'E', 'F', 'G']",6338592.984863944,17546.17777777778,881.5714285714286,3,21,1997/02,24,blank,,False,,,POINT Z (22.267819 114.18174 0),22.267819,114.18173999999999
26,"GREENVILLE GARDENS(Block A),SHIU FAI TERR|嘉苑A座,肇輝臺",HME,8129834.543490695,18481.0,1190,8169729.345708989,18837.0,1190,8722822.853897354,19829.0,1207,3.0,6.0,10.0,"['1', '2', '3']",8362401.04897628,19069.777777777777,1201.3333333333333,12,36,1974/08,47,GREENVILLE GARDENS,嘉苑,True,4.0,312.0,POINT Z (22.2711838 114.1777711 0),22.271183800000003,114.17777109999999
27,"22 TUNG SHAN TERR,TUNG SHAN TERR|東山臺22號,東山臺",HME,6657030.320000799,18450.0,763,6869550.149728739,19039.0,763,8365065.8020985285,25678.0,1041,1.0,2.0,2.0,"['A', 'B', 'C', 'D']",7363768.18655911,20717.833333333332,949.25,4,16,1997/08,24,blank,,False,,,POINT Z (22.2684809 114.1812312 0),22.268480899999997,114.18123119999998
28,"GOODVIEW GARDEN(Block B),STUBBS RD|豐景台B座,司徒拔道",HME,17464265.0,11921.0,1465,17464265.0,11921.0,1465,18499320.0,12235.0,1512,0.0,0.0,0.0,"['3', 'B1', 'B2', 'B3', 'B4']",18097261.0,12043.200000000003,1502.5999999999997,1,5,1982/11,39,GOODVIEW GARDEN,豐景台,True,5.0,32.0,POINT Z (22.2679334 114.1801398 0),22.267933399999997,114.1801398
29,"GOODVIEW GARDEN(Block D),STUBBS RD|豐景台D座,司徒拔道",HME,18845760.0,12864.0,1465,18845760.0,12864.0,1465,19837440.0,13120.0,1512,0.0,0.0,0.0,"['1', '2', '3', 'D2', 'D3', 'D4']",19272552.0,12946.333333333334,1488.5,1,6,1982/11,39,GOODVIEW GARDEN,豐景台,True,5.0,32.0,POINT Z (22.2679334 114.1801398 0),22.267933399999997,114.1801398
30,"THE NOTTING HILL,TUNG SHAN TERR|摘星閣,東山臺",HME,1676058.0,5391.0,274,1648755.0,5283.0,274,2357355.0,5869.0,570,1.0,2.0,2.0,"['A', 'B', 'C', 'D', 'E', 'F', 'G', 'J', 'K', 'L']",2021425.5238095236,5632.047619047618,381.23333333333335,4,40,2002/06,19,blank,,False,,,POINT Z (22.267497 114.181808 0),22.267497,114.181808
31,"GOODVIEW GARDEN(Block E),STUBBS RD|豐景台E座,司徒拔道",HME,22014294.0,13407.0,1642,22014294.0,13407.0,1642,34909225.0,15145.0,3221,0.0,0.0,0.0,"['1', '2', '4', 'E1', 'E2', 'E3', 'E4']",24475929.833333332,13760.0,1975.4285714285713,1,7,1982/11,39,GOODVIEW GARDEN,豐景台,True,5.0,32.0,POINT Z (22.2679334 114.1801398 0),22.267933399999997,114.1801398
32,9-9A TUNG SHAN TERR|9-9A 東山臺,HME,,,2603,,,2603,,,2603,0.0,1.0,2.0,"['A', 'B']",,,2603.0,3,6,1964/11,57,blank,,False,,,POINT Z (22.2680566 114.18132 0),22.2680566,114.18132
33,"RICHERY PALACE,TUNG SHAN TERR|德信豪庭,東山臺",HME,13134629.336111564,19058.0,1891,13134629.336111564,19058.0,1891,13312440.983121576,19316.0,1891,2.0,2.0,3.0,"['A', 'B']",13138486.363711419,18980.666666666668,1891.0,2,4,1974/09,47,blank,,False,,,POINT Z (22.268168 114.181419 0),22.268168,114.18141899999999
34,"NO.8 SHIU FAI TERR,SHIU FAI TERR|肇輝臺8號,肇輝臺",HME,,,1671,,,1671,,,2399,5.0,8.0,12.0,"['A', 'B', 'C', 'D', 'E']",,,2051.2,12,60,2003/10,18,blank,,False,,,POINT Z (22.2721819 114.1762426 0),22.2721819,114.1762426
