,final_address,district,lowZone_value,lowZone_npsf_min,lowZone_nfa_min,midZone_value,midZone_npsf_min,midZone_nfa_min,highZone_value,highZone_npsf_max,highZone_nfa_max,oneSixth_floor,middle_floor,fifthSixth_floor,unit_list,value_avg,npsf_avg,unitSize_avg,noStorey,noFlat,op_date,bldgAge,est_name_en,est_name_ch,est_orNot,est_bldgNo,est_flatNo,final_coords,lat,long
0,"CANAAN BLDG,TUNG CHAU ST|迦南大廈,通州街",KCSW,3325591.814689585,12279.0,260.0,3409887.7057413114,12589.0,260.0,5307028.019636042,13218.0,405.0,4.0,8.0,12.0,"['A', 'B', 'C']",4101911.4596897825,12829.833333333334,308.3333333333333,13,39,1986/04,35,blank,,False,,,POINT Z (22.3265877 114.1604007 0),22.326587699999997,114.1604007
1,"WING NING BLDG,CHEUNG FAT ST|永寧大廈,長發街",KCSW,3958650.0,13890.0,280.0,4116539.9999999995,14444.0,280.0,4452840.0,15903.0,285.0,5.0,12.0,20.0,"['A', 'B', 'C', 'D']",4201138.333333333,14873.25,282.5,24,96,1989/06,32,blank,,False,,,POINT Z (22.3389354 114.1563367 0),22.3389354,114.15633670000001
2,"CHEUNG HONG MANSION,CHEUNG SHA WAN RD|長康大廈,長沙灣道",KCSW,3060414.0,13278.0,214.0,3197160.0,13589.0,214.0,4097340.0,15759.0,263.0,3.0,8.0,12.0,"['A', 'B', 'C', 'D', 'E', 'F']",3629040.5555555555,14791.333333333334,245.66666666666666,14,84,1981/08,40,blank,,False,,,POINT Z (22.3274956 114.1668102 0),22.3274956,114.1668102
3,"SUNLIGHT BLDG,SHUN NING RD|日輝大廈,順寧道",KCSW,4511022.0,11439.0,354.0,4633860.0,11757.0,354.0,8826252.0,14613.0,604.0,5.0,9.0,13.0,"['A', 'B', 'C', 'D', 'E', 'F', 'G', 'H']",5741386.797619048,13072.684523809525,452.875,13,104,1992/03,29,blank,,False,,,POINT Z (22.3372904 114.1584732 0),22.337290399999997,114.1584732
4,"FLORENCE PLAZA,CHEUNG WAH ST|富華廣場,昌華街",KCSW,5352435.0,14127.0,347.0,5737941.0,14359.0,347.0,8230774.000000001,16903.0,546.0,9.0,20.0,31.0,"['A', 'B', 'C', 'D', 'E', 'F']",6471471.222222221,15318.111111111111,419.3333333333333,33,198,1997/07,24,blank,,False,,,POINT Z (22.3398973 114.1541073 0),22.3398973,114.15410729999999
5,"PO WING BLDG(Block A),YEE KUK ST|寶榮大廈A座,醫局街",KCSW,3759495.1061215512,11778.0,303.0,3826628.947302293,12005.0,303.0,4131465.2083442206,12564.0,398.0,5.0,8.0,10.0,"['1', '2', '3', '4', '6']",3995720.829013927,12286.166666666666,333.2,10,50,1982/03,39,PO WING BLDG,寶榮大廈,True,2.0,110.0,POINT Z (22.329498 114.158019 0),22.329498,114.158019
6,"KAM YUEN BLDG,BOUNDARY ST|金椽樓,界限街",KCSW,3360039.3127206713,4174.0,350.0,3510847.8611518126,4229.0,350.0,3711946.75257161,7753.0,385.0,4.0,6.0,9.0,"['A', 'B', 'C', 'D', 'E']",3598966.4146668254,4652.5,363.0,10,50,1976/05,45,blank,,False,,,POINT Z (22.3265175 114.1644415 0),22.326517499999998,114.16444150000001
7,"YUN FAT BLDG,UN CHAU ST|潤發大廈,元州街",KCSW,5037434.0,12855.0,382.0,5359078.0,13181.0,382.0,6088640.0,14371.0,424.0,3.0,7.0,11.0,"['A', 'B', 'C', 'D', 'E', 'F', 'G', 'H']",5698868.416666667,13807.125,412.8333333333333,13,104,1989/04,32,blank,,False,,,POINT Z (22.3354878 114.1588448 0),22.3354878,114.15884479999998
8,"HUNG YU MANSION(Block B),CASTLE PEAK RD|鴻裕大廈B座,青山道",KCSW,3802935.0,9930.0,365.0,3781020.0,9222.0,365.0,8363800.000000001,11780.0,710.0,5.0,8.0,10.0,"['1', '10', '11', '12', '13', '14', '16', '17', '18', '19', '2', '20', '21', '22', '23', '24', '3', '4', '5', '6', '6-7', '67', '7', '8', '9']",4458686.6,10419.826666666666,426.40000000000003,10,250,1975/02,46,HUNG YU MANSION,鴻裕大廈,True,2.0,480.0,POINT Z (22.3375701 114.1471467 0),22.3375701,114.1471467
9,"RICHVIEW MANSION,CASTLE PEAK RD|豐裕閣,青山道",KCSW,3823775.042526874,14663.0,255.0,3891677.2426856137,14958.0,255.0,4230900.0,15670.0,270.0,7.0,10.0,12.0,"['A', 'B']",4002700.777384097,15044.833333333334,262.5,10,20,1994/05,27,blank,,False,,,POINT Z (22.3348635 114.1612832 0),22.3348635,114.1612832
10,"YUE FAT BLDG,TAI PO RD|裕發大樓,大埔道",KCSW,2981594.0,11209.0,245.0,3136245.0,12382.0,245.0,3408790.0,12967.0,266.0,3.0,6.0,8.0,"['A', 'B', 'C', 'D']",3250130.5833333335,12494.166666666666,260.25,10,40,1979/04,42,blank,,False,,,POINT Z (22.3323679 114.1638377 0),22.332367899999998,114.16383770000002
11,"PO CHEONG BLDG,NAM CHEONG ST|寶昌大樓,南昌街",KCSW,3217675.0,7708.0,335.0,3282330.0,7091.0,335.0,4774288.983384819,9990.0,485.0,4.0,7.0,10.0,"['B', 'C', 'D', 'E', 'F']",4230648.022029821,8429.0,422.6666666666667,9,45,1969/08,52,blank,,False,,,POINT Z (22.3297153 114.1640699 0),22.329715300000004,114.1640699
12,"FUK SHING BLDG,FUK WA ST|福昇大廈,福華街",KCSW,2760846.0,13567.0,177.0,2807574.0,13921.0,177.0,4032288.0,16766.0,288.0,3.0,8.0,12.0,"['A', 'B', 'C', 'D', 'E', 'F', 'G', 'H']",3269265.0,15411.958333333334,214.375,14,112,1978/02,43,blank,,False,,,POINT Z (22.327979 114.1666477 0),22.327979,114.1666477
13,"SHIU HANG BLDG,UN CHAU ST|紹恒大廈,元州街",KCSW,3474744.0,11735.0,273.0,3537534.0,12053.0,273.0,4511974.665240348,13564.0,350.0,4.0,7.0,10.0,"['A', 'B', 'C', 'D', 'E']",3960473.279253837,12719.533333333333,309.2,9,45,1976/12,45,blank,,False,,,POINT Z (22.3395345 114.1536428 0),22.3395345,114.15364280000001
14,"NAM LO MANSION,UN CHAU ST|南廬大廈,元州街",KCSW,3686535.0,12087.0,289.0,3731065.0,12233.0,289.0,4033625.0,13466.0,305.0,5.0,8.0,11.0,"['A', 'B', 'C', 'D', 'E', 'F']",3825109.5555555555,12972.666666666666,295.0,9,54,1981/04,40,blank,,False,,,POINT Z (22.3374376 114.156987 0),22.3374376,114.15698700000002
15,"YAU LUEN APTS,TAI PO RD|友聯大樓,大埔道",KCSW,3711771.0,9686.0,342.0,3794427.0,9889.0,342.0,5703477.0,10540.0,559.0,3.0,6.0,9.0,"['A', 'B', 'C', 'D', 'E', 'F', 'G', 'H']",4743084.523809523,10108.904761904761,454.1666666666667,11,88,1962/09,59,blank,,False,,,POINT Z (22.3287743 114.166996 0),22.328774300000003,114.166996
16,"LAI BO GARDEN(Block 2),CHEUNG WAH ST|麗寶花園2座,昌華街",KCSW,5303816.0,14296.0,371.0,5718594.0,15047.0,371.0,6196344.0,15998.0,392.0,11.0,17.0,23.0,"['A', 'B', 'C', 'D', 'E', 'F', 'G', 'H']",5889454.791666667,15251.625,386.1666666666667,19,152,1991/06,30,LAI BO GARDEN,麗寶花園,True,2.0,304.0,POINT Z (22.3404338 114.1551291 0),22.340433800000003,114.1551291
17,"CHEE HONG BLDG,WONG CHUK ST|時康大廈,黃竹街",KCSW,4641863.921044672,12975.0,332.0,4422495.400130703,13598.0,320.0,4571126.110371895,14055.0,320.0,2.0,6.0,11.0,"['A', 'B']",4580212.905257878,13894.833333333334,327.3333333333333,14,28,1993/01,28,blank,,False,,,POINT Z (22.3300174 114.166578 0),22.3300174,114.166578
18,"YEE HONG HSE(Block E,YEE KOK COURT),CHEUNG SHA WAN RD|怡閣苑,E座(怡康閣),長沙灣道",KCSW,5896220.11610399,10946.0,530.0,6019210.0,11184.0,530.0,6227500.0,11750.0,530.0,3.0,6.0,10.0,"['1', '2', '3', '5', '6', '7', '8']",6059871.907345813,11328.761904761906,530.0,12,84,1983/11,38,YEE KOK COURT,怡閣苑,True,7.0,663.0,POINT Z (22.3326502 114.1587287 0),22.332650199999996,114.1587287
19,"FOOK WAN MANSION,FUK WA ST|福運大廈,福華街",KCSW,4284590.208797985,11363.0,371.0,4705394.809081233,12479.0,371.0,4840761.163473425,12838.0,371.0,3.0,6.0,10.0,"['A', 'B']",4633249.6954126,12287.666666666666,371.0,12,24,1991/10,30,blank,,False,,,POINT Z (22.3295548 114.1645344 0),22.3295548,114.16453440000001
20,"CHI ON COURT,UN CHAU ST|置安閣,元州街",KCSW,3238704.0,11907.0,268.0,3297728.0,12124.0,268.0,3391272.0,12654.0,268.0,3.0,6.0,9.0,"['A', 'B', 'C', 'D']",3343821.3333333335,12417.166666666666,268.6666666666667,11,44,1980/08,41,blank,,False,,,POINT Z (22.3325001 114.162723 0),22.3325001,114.162723
21,241-249 CHEUNG SHA WAN RD|241-249 長沙灣道,KCSW,5636889.483920443,4413.0,433.0,5776905.3681961335,4621.0,433.0,6117345.260029853,12440.0,472.0,4.0,7.0,10.0,"['A', 'B', 'C', 'D']",5864438.944179308,7211.555555555556,452.5,11,44,1985/06,36,blank,,False,,,POINT Z (22.3345978 114.1572377 0),22.3345978,114.15723770000001
22,"RICHMOND COURT,SHUN NING RD|順安閣,順寧道",KCSW,4934940.0,13980.0,328.0,,,328.0,,,353.0,4.0,8.0,12.0,"['A', 'B', 'C', 'D', 'E', 'F']",4934940.0,13980.0,341.6666666666667,13,78,1990/09,31,blank,,False,,,POINT Z (22.3349905 114.1614458 0),22.3349905,114.16144579999998
23,"238 FUK WING ST,FUK WING ST|福榮街238號,福榮街",KCSW,4945199.0,14706.0,329.0,5098513.0,15165.0,329.0,5357456.0,15968.0,344.0,3.0,8.0,11.0,"['A', 'B', 'C', 'D']",5146948.083333333,15300.666666666666,336.5,12,48,1995/07,26,blank,,False,,,POINT Z (22.3353172 114.1586822 0),22.3353172,114.15868219999999
24,"SHINING COURT,SHUN NING RD|順寧居,順寧道",KCSW,4976700.0,14596.0,318.0,5239050.0,15311.0,318.0,7756254.0,17355.0,473.0,9.0,18.0,26.0,"['A', 'B', 'C', 'D']",6287314.5,16000.25,395.5,23,92,1996/12,25,blank,,False,,,POINT Z (22.3391392 114.1561812 0),22.339139199999998,114.15618119999999
25,"ON NING BLDG,CASTLE PEAK RD|安寧大廈,青山道",KCSW,3245694.0,14241.0,213.0,3287229.0,14957.0,213.0,3812250.0,15911.0,250.0,4.0,6.0,9.0,"['A', 'B', 'C', 'D', 'E', 'F', 'G', 'H']",3511245.857142857,15230.523809523811,233.125,10,80,1983/02,38,blank,,False,,,POINT Z (22.3347442 114.1607955 0),22.3347442,114.1607955
26,"CAMPION COURT,CHEUNG WAH ST|金華閣,昌華街",KCSW,4718631.0,13071.0,361.0,4954003.0,13723.0,361.0,5338829.0,14789.0,361.0,7.0,15.0,22.0,"['A', 'B']",5026624.166666667,13924.166666666666,361.0,23,46,1996/12,25,blank,,False,,,POINT Z (22.339552 114.1542234 0),22.339551999999998,114.15422340000002
27,"PRINCE CTR(Block 2),TAI PO RD|太子中心2座,大埔道",KCSW,5487532.0,13178.0,404.0,5624488.0,13509.0,404.0,7546615.0,14261.0,545.0,5.0,9.0,13.0,"['E', 'G', 'H', 'I', 'J', 'K']",6757620.111111111,13592.27777777778,497.6666666666667,13,78,1988/02,33,PRINCE CTR,太子中心,True,2.0,162.0,POINT Z (22.3285161 114.1671121 0),22.3285161,114.16711210000001
28,"HOI CHEUNG BLDG,TAI PO RD|海祥大廈,大埔道",KCSW,5154586.004940497,11920.0,397.0,5317999.494725304,12272.0,397.0,7054470.458042361,14000.0,563.0,3.0,8.0,13.0,"['A', 'B', 'C', 'D', 'E', 'F', 'G', 'H']",5692465.00195685,13162.266666666668,476.75,15,120,1988/12,33,blank,,False,,,POINT Z (22.3289814 114.1669263 0),22.3289814,114.1669263
29,"SHUN FAI BLDG,CHEUNG FAT ST|順輝大廈,長發街",KCSW,5030300.0,14521.0,326.0,5200300.0,15093.0,326.0,5413140.0,15777.0,348.0,4.0,8.0,13.0,"['A', 'B', 'C', 'D']",5218932.0,15172.666666666666,336.8333333333333,16,64,1994/01,27,blank,,False,,,POINT Z (22.3390219 114.1568941 0),22.3390219,114.15689409999999
30,"CHEUNG FAI BLDG,CHEUNG WAH ST|昌暉大廈,昌華街",KCSW,3499220.0,13704.0,230.0,3636990.0,14449.0,230.0,4162590.0000000005,16673.0,270.0,6.0,14.0,23.0,"['A', 'B', 'C', 'D', 'E', 'F', 'G', 'H']",3843200.1666666665,15301.291666666666,251.5,26,208,1984/10,37,blank,,False,,,POINT Z (22.3407394 114.1548504 0),22.340739399999997,114.1548504
31,"CAPITAL BLDG,UN CHAU ST|金必多大廈,元州街",KCSW,4566278.131105959,9483.0,463.0,4646147.8272513645,9649.0,463.0,5703967.755947918,11312.0,513.0,5.0,8.0,10.0,"['A', 'B', 'C', 'D', 'E', 'F', 'G', 'H', 'K']",5095358.206676382,10287.777777777777,488.1851851851852,10,90,1978/07,43,CAPITAL BLDG,金必多大廈,True,1.0,90.0,POINT Z (22.3327512 114.1623747 0),22.332751199999997,114.1623747
32,"8 FUK WA ST,FUK WA ST|8號居,福華街",KCSW,4588469.070160979,12936.0,349.0,4644867.228954703,13095.0,349.0,4892806.3044063505,13794.0,349.0,6.0,8.0,11.0,"['A', 'B']",4735967.399500956,13351.833333333334,349.0,10,20,1996/05,25,blank,,False,,,POINT Z (22.328712 114.166279 0),22.328712,114.166279
33,"GOLD CANYON COURT,TAI NAN ST|嘉利閣,大南街",KCSW,3687600.0,13170.0,280.0,3727920.0,13314.0,280.0,3880520.0,13859.0,280.0,4.0,8.0,12.0,"['A', 'B']",3764740.0,13445.5,280.0,13,26,1994/01,27,blank,,False,,,POINT Z (22.3298654 114.1600756 0),22.3298654,114.1600756
34,"PO ON COURT,PO ON RD|寶安閣,保安道",KCSW,4946643.0,12655.0,351.0,5046327.0,13794.0,351.0,6727620.0,15008.0,465.0,5.0,8.0,12.0,"['A', 'B', 'C', 'D', 'E', 'F']",5552710.888888888,14307.444444444445,389.3333333333333,12,72,1992/06,29,blank,,False,,,POINT Z (22.3360083 114.1610742 0),22.3360083,114.1610742
35,"KAM YU BLDG,TAI PO RD|金宇大樓,大埔道",KCSW,3417571.2955212854,9775.0,344.0,3482950.920305171,9962.0,344.0,5476586.348549118,11298.0,488.0,3.0,6.0,8.0,"['A', 'B', 'C', 'D', 'E', 'F']",4161129.3605017313,10813.5,379.22222222222223,10,60,1976/06,45,blank,,False,,,POINT Z (22.3329089 114.1641396 0),22.332908899999996,114.1641396
36,"CHEUNG WAH COURT,UN CHAU ST|昌華閣,元州街",KCSW,4146690.0000000005,13613.0,277.0,4258321.0,13958.0,277.0,5213201.0,15391.0,361.0,4.0,8.0,12.0,"['A', 'B', 'C', 'D', 'E', 'F']",4641751.0,14524.77777777778,320.5,13,78,1992/05,29,blank,,False,,,POINT Z (22.3392761 114.1540376 0),22.339276100000003,114.1540376
37,"WANG TAK HSE,KI LUNG ST|宏德樓,基隆街",KCSW,3538841.9215195016,11232.0,310.0,3619184.219417246,11487.0,310.0,3973950.601506897,12613.0,310.0,3.0,6.0,8.0,"['A', 'B']",3760859.722507518,11936.666666666666,310.0,8,16,1984/04,37,blank,,False,,,POINT Z (22.3268446 114.1643022 0),22.3268446,114.16430220000001
38,"GOLDEN COURT,FUK WING ST|黃金閣,福榮街",KCSW,4416645.0,14188.0,284.0,4467660.0,14991.0,284.0,5394952.0,16726.0,344.0,4.0,8.0,11.0,"['A', 'B', 'C', 'D', 'E', 'F', 'G', 'H', 'I', 'J']",4852192.166666667,15655.1,310.4,12,120,1993/12,28,blank,,False,,,POINT Z (22.3323731 114.1619809 0),22.3323731,114.16198090000002
39,"YEE KIN HSE(Block C,YEE KOK COURT),CHEUNG SHA WAN RD|怡閣苑,C座(怡建閣),長沙灣道",KCSW,6145350.0,11595.0,530.0,6270430.0,11831.0,530.0,6639840.0,12528.0,530.0,3.0,6.0,10.0,"['1', '2', '3', '4', '5', '6', '7', '8']",6368833.333333333,12016.666666666666,530.0,12,96,1981/06,40,YEE KOK COURT,怡閣苑,True,7.0,663.0,POINT Z (22.3330653 114.158032 0),22.3330653,114.158032
40,"WAH PONT HSE,FUK WA ST|華邦大樓,福華街",KCSW,3031857.1212622947,10888.0,235.0,3222020.8865773813,11500.0,235.0,4120991.0,13691.0,301.0,3.0,6.0,10.0,"['A', 'B', 'C', 'D', 'E', 'F']",3372434.1874478203,12394.25,270.3333333333333,12,72,1978/06,43,blank,,False,,,POINT Z (22.3292563 114.1650453 0),22.3292563,114.1650453
41,"CHI WING COURT,KIU KIANG ST|置榮閣,九江街",KCSW,3028350.0,14668.0,195.0,3081585.0,14429.0,195.0,3635790.0,15219.0,255.0,3.0,6.0,9.0,"['A', 'B', 'C']",3467769.222222222,15160.88888888889,229.33333333333334,11,33,1983/02,38,blank,,False,,,POINT Z (22.3344774 114.1620728 0),22.334477399999997,114.16207279999999
42,"CHEONG YUEN BLDG,YEN CHOW ST|昌遠大廈,欽州街",KCSW,3216795.0,9762.0,285.0,3257550.0,9962.0,285.0,4772700.0,11640.0,450.0,4.0,6.0,9.0,"['A', 'B', 'C', 'E', 'F', 'G', 'H', 'I', 'J', 'K', 'L', 'M', 'N', 'O', 'P', 'Q', 'R', 'S', 'T']",3997592.237283863,10651.070175438597,376.57894736842104,10,190,1966/03,55,blank,,False,,,POINT Z (22.3286581 114.1579159 0),22.328658100000002,114.15791589999999
43,"GOLDEN LEAGUE BLDG,CASTLE PEAK RD|金盟大廈,青山道",KCSW,3041918.9650217844,12837.0,230.0,3095683.7665245137,13063.0,230.0,3763240.0,14474.0,260.0,5.0,8.0,10.0,"['A', 'B', 'C', 'D', 'E', 'F']",3330467.5525720236,13595.055555555555,241.66666666666666,8,48,1982/07,39,blank,,False,,,POINT Z (22.3347034 114.161469 0),22.3347034,114.161469
44,"FORTUNE BLDG,YU CHAU ST|富裕大廈,汝州街",KCSW,3470062.6131623336,13767.0,241.0,3526888.6544027985,14021.0,241.0,3865361.964037057,15005.0,268.0,5.0,8.0,10.0,"['A', 'B']",3674574.6186706177,14258.333333333334,254.5,10,20,1996/06,25,blank,,False,,,POINT Z (22.330191 114.161299 0),22.330191,114.161299
45,"HAPPY CTR,CHEUNG SHA WAN RD|雙喜中心,長沙灣道",KCSW,4232235.081769439,5100.0,440.0,4362368.261058842,4740.0,440.0,5995338.809742864,9830.0,489.0,4.0,7.0,10.0,"['A', 'B', 'C', 'D']",5200714.775938626,6351.333333333333,464.5,11,44,1982/05,39,blank,,False,,,POINT Z (22.3303521 114.1632107 0),22.330352100000002,114.16321070000001
46,"CAREER COURT,TONKIN ST|嘉利閣,東京街",KCSW,3784560.0,14556.0,260.0,3721380.0,14313.0,260.0,4236440.0,16294.0,265.0,5.0,8.0,11.0,"['A', 'B', 'C']",4007574.4444444445,15315.666666666666,261.6666666666667,11,33,1990/06,31,blank,,False,,,POINT Z (22.3374011 114.1601221 0),22.3374011,114.1601221
47,"GOLDEN CELL COURT,CASTLE PEAK RD|金球閣,青山道",KCSW,4983750.0,13096.0,375.0,5079000.0,13347.0,375.0,5437200.0,13793.0,400.0,4.0,7.0,10.0,"['A', 'B', 'C']",5240879.166666667,13432.22222222222,391.6666666666667,11,33,1992/01,29,blank,,False,,,POINT Z (22.3375674 114.157823 0),22.3375674,114.157823
48,"SUN HO HSE,SAI YEUNG CHOI ST N|新豪大廈,西洋菜北街",KCSW,4122379.9999999995,12836.0,310.0,4198330.0,12949.0,310.0,4878820.0,13783.0,370.0,3.0,6.0,9.0,"['1', '10', '2', '3', '4', '5', '6', '7', '8', '9']",4367925.5,13160.433333333334,332.0,11,110,1979/01,42,blank,,False,,,POINT Z (22.3296065 114.1668334 0),22.3296065,114.1668334
49,"DAH SING BLDG,CHEUNG SHA WAN RD|大新大廈,長沙灣道",KCSW,2056620.5374826451,8101.0,230.0,2070879.897881195,8148.0,230.0,2873947.9499475886,8920.0,260.0,2.0,3.0,4.0,"['B', 'C', 'D']",2464056.7058234024,8503.666666666666,241.33333333333334,5,15,1979/07,42,blank,,False,,,POINT Z (22.3295698 114.1641628 0),22.3295698,114.1641628
50,"FUK LUNG BLDG,FUK WA ST|福隆大廈,福華街",KCSW,3841046.0,14972.0,253.0,3827131.0,15079.0,253.0,4776170.0,15802.0,310.0,3.0,8.0,12.0,"['A', 'B', 'C', 'D', 'E', 'F']",4430485.111111112,15287.777777777776,290.0,14,84,1992/10,29,blank,,False,,,POINT Z (22.3325788 114.1607026 0),22.3325788,114.16070259999998
51,"YIU FAI MANSION,TSAP FAI ST|耀輝大廈,集輝街",KCSW,3350481.0,15299.0,219.0,3552618.0,16222.0,219.0,4036360.0,17299.0,235.0,5.0,12.0,20.0,"['A', 'B', 'C', 'D']",3715379.9166666665,16289.0,228.08333333333334,24,96,1989/04,32,blank,,False,,,POINT Z (22.340364 114.1528068 0),22.340364,114.1528068
52,"WAH TAO BLDG,TAI PO RD|華都大廈,大埔道",KCSW,3250000.0,14665.0,200.0,3336600.0,15062.0,200.0,3787730.0,17383.0,235.0,4.0,8.0,12.0,"['A', 'B', 'C', 'D']",3491160.0,16109.0,217.5,13,52,1977/03,44,blank,,False,,,POINT Z (22.3270293 114.167832 0),22.3270293,114.167832
53,"NAM CHEONG CTR,NAM CHEONG ST|南昌中心,南昌街",KCSW,4627413.0,13259.0,343.0,4733057.0,13549.0,343.0,6119064.0,14364.0,426.0,5.0,9.0,13.0,"['A', 'B', 'C', 'D', 'E', 'F', 'G']",5155099.333333333,13789.428571428572,374.0,13,91,1994/12,27,blank,,False,,,POINT Z (22.328369 114.162192 0),22.328369,114.16219199999999
54,"GARDENVIEW BLDG,SAI YEUNG CHOI ST N|園景大廈,西洋菜北街",KCSW,9494504.6528148,8135.0,488.0,9729644.132238798,8342.0,488.0,12019108.44824529,11642.0,634.0,4.0,8.0,12.0,"['A', 'B', 'C', 'D', 'E']",10729866.289409002,9857.5,583.2,13,65,1983/02,38,blank,,False,,,POINT Z (22.3269598 114.1681339 0),22.3269598,114.16813390000002
55,"CHEUNG FAI MANSION,KIU KIANG ST|祥輝大廈,九江街",KCSW,2369036.0,13482.0,148.0,2395824.0,13745.0,148.0,3012944.0,16901.0,212.0,3.0,6.0,9.0,"['A', 'B', 'C', 'D']",2687321.0,15163.916666666666,180.0,11,44,1985/09,36,blank,,False,,,POINT Z (22.3346298 114.1622121 0),22.334629800000002,114.1622121
56,"ON SHEUNG BLDG,YU CHAU ST|安順大廈,汝州街",KCSW,3371750.0,12614.0,250.0,3434000.0,12699.0,250.0,3993120.0,14095.0,295.0,3.0,6.0,10.0,"['1', '2', '3', '4', '5', '6']",3674888.3888888895,13379.333333333334,275.1111111111111,12,72,1981/04,40,blank,,False,,,POINT Z (22.3295139 114.162305 0),22.3295139,114.162305
57,"GOLD MING BLDG,YU CHAU ST|高明大廈,汝州街",KCSW,3075584.0,12014.0,256.0,3155712.0,12327.0,256.0,3396608.0,13268.0,256.0,4.0,8.0,11.0,"['A', 'B']",3245098.6666666665,12676.166666666666,256.0,12,24,1990/12,31,blank,,False,,,POINT Z (22.3290853 114.1622586 0),22.3290853,114.16225859999999
58,"EVER RICH MANSION,PEI HO ST|永富大廈,北河街",KCSW,3327246.0,14001.0,234.0,3391596.0,14270.0,234.0,3874035.0,15271.0,265.0,5.0,8.0,12.0,"['A', 'B', 'C']",3574841.5555555555,14582.0,245.33333333333334,12,36,1994/05,27,blank,,False,,,POINT Z (22.3280042 114.1608187 0),22.3280042,114.1608187
59,"MELBOURNE BLDG,YU CHAU ST|萬邦大廈,汝州街",KCSW,3579577.143527618,13447.0,250.0,3620739.231634622,11719.0,250.0,4241727.770730413,14494.0,340.0,6.0,8.0,11.0,"['A', 'B', 'C', 'D', 'E']",3877122.2944527157,13541.916666666666,291.8,10,50,1979/01,42,blank,,False,,,POINT Z (22.326701 114.1659045 0),22.326701,114.1659045
60,"HUNG YU MANSION(Block A),CASTLE PEAK RD|鴻裕大廈A座,青山道",KCSW,3694920.0,8922.0,370.0,3764620.0,9079.0,370.0,5959800.0,10943.0,600.0,5.0,8.0,10.0,"['1', '10', '12', '13', '14', '15', '16', '17', '18', '19', '2', '20', '21', '22', '23', '24', '3', '4', '5', '6', '7', '8', '9']",4355887.46031746,9571.174603174602,418.9130434782608,10,230,1975/02,46,HUNG YU MANSION,鴻裕大廈,True,2.0,480.0,POINT Z (22.335342 114.160243 0),22.335342,114.160243
61,"WING LOONG BLDG,CASTLE PEAK RD|永隆大廈,青山道",KCSW,3853440.0,14112.0,270.0,3927960.0,14383.0,270.0,4358920.0,14831.0,295.0,5.0,8.0,11.0,"['A', 'B', 'C', 'D']",4097789.1666666665,14508.416666666666,282.5,11,44,1991/09,30,blank,,False,,,POINT Z (22.3376839 114.1576372 0),22.3376839,114.1576372
62,"KIU FAI BLDG,KIU YAM ST|僑輝大廈,橋蔭街",KCSW,3952935.0,11466.0,329.0,4134543.0000000005,11788.0,329.0,6013722.0,13144.0,473.0,3.0,6.0,9.0,"['A', 'B', 'C', 'D', 'E', 'F', 'G', 'H']",4963489.708333333,12260.125,406.5,11,88,1983/03,38,blank,,False,,,POINT Z (22.3344952 114.1623747 0),22.3344952,114.1623747
63,"YUE WAH BLDG,CHEUNG SHA WAN RD|譽華大廈,長沙灣道",KCSW,3830976.0,11824.0,318.0,3841020.0,11855.0,318.0,4098032.0,12685.0,328.0,4.0,8.0,11.0,"['A', 'B', 'C', 'D']",3970143.3333333335,12235.5,324.5,12,48,1977/06,44,blank,,False,,,POINT Z (22.3269141 114.1669031 0),22.3269141,114.1669031
64,"SUNNING COURT,SHUN NING RD|新寧閣,順寧道",KCSW,4108921.596583691,12075.0,330.0,4231005.300865501,12428.0,330.0,4878246.10504287,14117.0,345.0,3.0,6.0,9.0,"['A', 'B', 'C', 'D', 'E', 'F']",4396863.389559214,12880.944444444445,335.8333333333333,11,66,1980/12,41,blank,,False,,,POINT Z (22.3355618 114.1607259 0),22.3355618,114.1607259
65,"WING SHING BLDG,CASTLE PEAK RD|永勝大樓,青山道",KCSW,3512040.8285964965,9521.0,350.0,3556506.0472306055,9642.0,350.0,4388295.294826983,10531.0,420.0,4.0,6.0,9.0,"['A', 'B', 'C', 'D', 'E', 'F', 'G', 'H']",3963926.0238354057,9849.75,396.25,8,64,1975/01,46,blank,,False,,,POINT Z (22.3332304 114.1626534 0),22.333230399999998,114.1626534
66,"CHEONG FOK HSE,APLIU ST|昌褔大廈,鴨寮街",KCSW,3114450.0,11171.0,270.0,3108780.0,11308.0,270.0,3370900.6020429246,12284.0,287.0,4.0,6.0,9.0,"['A', 'B', 'C', 'D']",3247466.6920907237,11524.166666666666,278.5,10,40,1971/09,50,blank,,False,,,POINT Z (22.328349 114.1641628 0),22.328349,114.1641628
67,"HANG SHUN BLDG,TONKIN ST|恒順大廈,東京街",KCSW,3645385.6671061,14000.0,250.0,3691883.581449197,14183.0,250.0,4072680.0,15084.0,270.0,6.0,8.0,11.0,"['A', 'B', 'C', 'D', 'E', 'F', 'G', 'H']",3862538.7137563024,14536.52380952381,262.8333333333333,8,64,1980/08,41,blank,,False,,,POINT Z (22.3368792 114.1590074 0),22.3368792,114.15900740000001
68,"LAI BO GARDEN(Block 1),CHEUNG WAH ST|麗寶花園1座,昌華街",KCSW,5377274.0,14370.0,371.0,5525303.0,14857.0,371.0,6403716.0,15582.0,412.0,11.0,17.0,23.0,"['A', 'B', 'C', 'D', 'E', 'F', 'G', 'H']",5753787.916666667,14935.291666666666,385.25,19,152,1991/06,30,LAI BO GARDEN,麗寶花園,True,2.0,304.0,POINT Z (22.3404338 114.1551291 0),22.340433800000003,114.1551291
69,91 APLIU ST|91 鴨寮街,KCSW,3161340.0,12113.0,260.0,3179020.0,12181.0,260.0,3593395.0,12227.0,295.0,3.0,4.0,4.0,"['F.P.', 'R.P.']",3379917.5,12181.333333333334,277.5,4,8,1974/12,47,blank,,False,,,POINT Z (22.3289752 114.1635581 0),22.3289752,114.1635581
70,"FORTUNE MANSION,APLIU ST|運福樓,鴨寮街",KCSW,3094668.0,14648.0,188.0,3174944.0,14666.0,188.0,4380700.0,17416.0,284.0,4.0,8.0,12.0,"['A', 'B', 'C', 'D', 'E', 'F']",3742947.6666666665,15713.0,240.33333333333334,13,78,1982/06,39,blank,,False,,,POINT Z (22.3273731 114.1659278 0),22.327373100000003,114.16592779999999
71,"KA WUI BLDG,FUK WING ST|嘉匯大廈,福榮街",KCSW,3718835.0,9524.0,250.0,3787175.0,9690.0,250.0,4790345.0,11964.0,485.0,3.0,6.0,9.0,"['A', 'B', 'C', 'D', 'E', 'F', 'G', 'H', 'I', 'J', 'K']",4180952.592592593,10223.296296296296,390.45454545454544,11,121,1970/06,51,blank,,False,,,POINT Z (22.3288949 114.166369 0),22.328894899999998,114.16636899999999
72,"ASIAN BLDG,CHEUNG SHA WAN RD|亞洲大廈,長沙灣道",KCSW,,,259.0,3704152.0,11722.0,259.0,,,322.0,4.0,7.0,10.0,"['A', 'B', 'C', 'D']",3704152.0,11722.0,289.0,11,44,1983/01,38,blank,,False,,,POINT Z (22.331695 114.161469 0),22.331695,114.161469
73,"SUNNY COURT,CASTLE PEAK RD|瑞強閣,青山道",KCSW,3652398.0,13988.0,239.0,3722903.0,14257.0,239.0,4464590.0,15996.0,305.0,5.0,8.0,12.0,"['A', 'B', 'C']",3955701.6666666665,15106.333333333334,263.0,12,36,1995/06,26,blank,,False,,,POINT Z (22.3353149 114.160633 0),22.335314899999997,114.160633
74,"YEE LOK HSE(Block A,YEE KOK COURT),CHEUNG SHA WAN RD|怡閣苑,A座(怡樂閣),長沙灣道",KCSW,6076980.0,11466.0,530.0,6234390.0,11763.0,530.0,6525890.0,12313.0,530.0,2.0,6.0,10.0,"['1', '2', '3', '4', '5', '6', '7', '8']",6295892.083333333,11879.041666666666,530.0,13,104,1981/06,40,YEE KOK COURT,怡閣苑,True,7.0,663.0,POINT Z (22.3334396 114.1580088 0),22.333439600000002,114.1580088
75,"WING FAT COURT,FUK WING ST|榮發閣,福榮街",KCSW,3847220.0,14797.0,260.0,3877640.0,14914.0,260.0,4194095.9999999995,16008.0,262.0,3.0,7.0,11.0,"['A', 'B', 'C', 'D']",4035770.3333333335,15461.916666666666,261.0,13,52,1990/05,31,blank,,False,,,POINT Z (22.3389855 114.1539447 0),22.3389855,114.1539447
76,"GREEN COURT,UN CHAU ST|青華閣,元州街",KCSW,3734405.0,12659.0,280.0,4013789.0,14025.0,280.0,4338860.0,15313.0,295.0,5.0,12.0,20.0,"['A', 'B', 'C', 'D']",4069396.25,14125.0,288.25,24,96,1989/06,32,blank,,False,,,POINT Z (22.3400469 114.1535731 0),22.340046899999997,114.15357309999999
77,"PROSPERITY COURT,YEN CHOW ST|廣興閣,欽州街",KCSW,5135682.951194765,12446.0,406.0,5277630.157944805,12790.0,406.0,5387391.660838732,13056.0,406.0,6.0,10.0,13.0,['whole floor'],5266901.589992766,12764.0,406.0,12,12,1996/09,25,blank,,False,,,POINT Z (22.3313032 114.1609116 0),22.3313032,114.16091159999999
78,"JOY WISE MANSION,CHEUNG SHA WAN RD|長華大廈,長沙灣道",KCSW,4417994.0,13678.0,323.0,4499390.0,13930.0,323.0,4581755.0,14185.0,323.0,6.0,9.0,12.0,"['A', 'B']",4508541.666666667,13958.333333333334,323.0,11,22,1997/02,24,blank,,False,,,POINT Z (22.328913 114.16429 0),22.328913,114.16429
79,"MANOR CTR(Block 2),UN CHAU ST|美居中心2座,元州街",KCSW,4017732.0,14160.0,275.0,4179743.9999999995,14575.0,275.0,4939494.0,16387.0,318.0,3.0,7.0,11.0,"['A', 'B', 'C', 'D', 'E', 'F', 'G', 'H']",4434156.791666667,15180.666666666666,292.375,13,104,1986/11,35,MANOR CTR,美居中心,True,7.0,728.0,POINT Z (22.3344979 114.1601453 0),22.3344979,114.1601453
80,"YEN LI MANSION,YEE KUK ST|仁禮大廈,醫局街",KCSW,2897880.0,14136.0,196.0,2918092.0,14446.0,196.0,3231415.0,16085.0,205.0,3.0,7.0,11.0,"['A', 'B', 'C', 'D']",3039986.25,15055.25,202.0,13,52,1979/01,42,blank,,False,,,POINT Z (22.3296567 114.1583571 0),22.329656699999997,114.1583571
81,"CHEUNG YIN BLDG,CHEUNG SHA WAN RD|祥賢大廈,長沙灣道",KCSW,4576950.0,12732.0,350.0,4660250.0,12964.0,350.0,5160027.0,13676.0,391.0,4.0,7.0,10.0,"['A', 'B', 'C']",4810751.444444445,13238.77777777778,363.6666666666667,9,27,1989/05,32,blank,,False,,,POINT Z (22.3311491 114.1621657 0),22.3311491,114.16216570000002
82,"GRACIOUS MANSION,PEI HO ST|如意大廈,北河街",KCSW,3361283.9186437028,13282.0,249.0,3393423.886846364,13409.0,249.0,3597904.944387707,14217.0,249.0,4.0,8.0,13.0,"['A', 'B']",3449141.600751503,13629.166666666666,249.0,14,28,1993/10,28,blank,,False,,,POINT Z (22.3275033 114.1604007 0),22.3275033,114.1604007
83,"HING LUNG BLDG,CASTLE PEAK RD|興隆大廈,青山道",KCSW,3788038.0,13705.0,271.0,3812896.0,13956.0,271.0,4216548.0,14836.0,295.0,4.0,7.0,10.0,"['A', 'B', 'C', 'D', 'E', 'F', 'G', 'H']",3973242.875,14290.25,278.125,11,88,1988/01,33,blank,,False,,,POINT Z (22.3367086 114.1588448 0),22.3367086,114.15884479999998
84,"FU CHAU BLDG,UN CHAU ST|富洲大樓,元州街",KCSW,3035610.4938889407,11862.0,225.0,3081210.97307652,12002.0,225.0,3529381.7556898715,13534.0,286.0,6.0,8.0,10.0,"['A', 'B', 'C', 'D', 'E', 'F']",3268751.0154499034,12610.27777777778,256.6666666666667,7,42,1980/08,41,blank,,False,,,POINT Z (22.339651 114.153457 0),22.339651,114.153457
85,"SHUN NING BLDG,CHEUNG WAH ST|順寧大廈,昌華街",KCSW,3574232.0,12647.0,229.0,3541485.0,13153.0,229.0,5179400.0,16193.0,376.0,6.0,12.0,20.0,"['A', 'B', 'C', 'D']",4521909.861111111,14006.361111111111,330.75,20,80,1983/07,38,blank,,False,,,POINT Z (22.340129 114.1548504 0),22.340129,114.1548504
86,"SHAMSHUIPO BLDG,SHEK KIP MEI ST|深水步大廈,石硤尾街",KCSW,3902272.669068713,7562.0,169.0,4049251.8140463526,7702.0,169.0,5086013.015197792,9135.0,565.0,3.0,6.0,9.0,"['A', 'B', 'C', 'D1', 'D4', 'D5', 'E', 'F', 'G', 'H']",4360685.721384485,8434.761904761906,411.7,11,110,1960/08,61,blank,,False,,,POINT Z (22.3266764 114.1621889 0),22.3266764,114.16218889999999
87,"LUN MAY BLDG,CASTLE PEAK RD|倫美大廈,青山道",KCSW,2413040.0,14418.0,155.0,2545875.0,15243.0,155.0,3476340.0,18182.0,210.0,6.0,12.0,19.0,"['A', 'B', 'C', 'D']",2928060.0,16129.916666666666,182.5,20,80,1984/03,37,blank,,False,,,POINT Z (22.33974 114.1549665 0),22.33974,114.1549665
88,"HARMONY HSE,YU CHAU ST|涵碧樓,汝州街",KCSW,3079390.6940691215,8487.0,320.0,3455288.9807494096,9502.0,320.0,4238040.460714309,9629.0,434.0,3.0,6.0,8.0,"['A', 'B', 'C', 'D', 'E']",3569495.606647804,9184.694444444445,362.2,10,50,1965/09,56,blank,,False,,,POINT Z (22.330057 114.161487 0),22.330057,114.16148700000001
89,"WAH YAN MANSION,TAI PO RD|華仁大廈,大埔道",KCSW,3664388.0,9322.0,364.0,3763032.0,9493.0,364.0,4924500.0959008895,10542.0,499.0,5.0,8.0,10.0,"['A', 'B', 'C', 'D', 'E', 'F', 'G']",4280947.870249115,9908.84126984127,430.95238095238096,8,56,1966/06,55,blank,,False,,,POINT Z (22.3293503 114.1666546 0),22.329350299999998,114.16665459999999
90,"HONG FOOK BLDG,SHUN NING RD|康富樓,順寧道",KCSW,3746637.0,13239.0,283.0,3821349.0,13493.0,283.0,4217235.0,14129.0,353.0,3.0,6.0,10.0,"['A', 'B', 'C', 'E', 'F']",4015421.75,13660.75,305.8,12,60,1984/05,37,blank,,False,,,POINT Z (22.3358231 114.1610045 0),22.335823100000002,114.16100449999999
91,"COMFORT COURT,HAI TAN ST|安居閣,海壇街",KCSW,3576480.0,14893.0,240.0,3754870.0,15326.0,240.0,3875410.0,15818.0,245.0,3.0,8.0,13.0,"['A', 'B']",3718324.1666666665,15333.166666666666,242.5,15,30,1992/05,29,blank,,False,,,POINT Z (22.3284795 114.1583571 0),22.3284795,114.1583571
92,"HOSAR BLDG,TAI PO RD|豪信大廈,大埔道",KCSW,,,255.0,,,255.0,,,310.0,3.0,7.0,11.0,"['A', 'B', 'C']",,,283.6666666666667,13,39,1994/12,27,blank,,False,,,POINT Z (22.3295378 114.166578 0),22.3295378,114.166578
93,"LUNG WA BLDG,FUK WA ST|龍華大廈,福華街",KCSW,3627207.269380621,9091.0,373.0,3674215.3903466742,9155.0,373.0,6046781.88726872,9824.0,620.0,3.0,6.0,9.0,"['A', 'B', 'C', 'D', 'E', 'F', 'G', 'H', 'J', 'K', 'L', 'M']",4649206.864902082,9439.361111111111,485.0555555555555,11,132,1964/02,57,blank,,False,,,POINT Z (22.3289281 114.1660206 0),22.328928100000002,114.1660206
94,"KAM FAI BLDG,APLIU ST|金輝大廈,鴨寮街",KCSW,3450373.9225250776,12345.0,275.0,3644575.0,13153.0,275.0,3566923.6127391686,12910.0,275.0,3.0,6.0,9.0,"['A', 'B']",3576533.991842979,12901.333333333334,275.0,9,18,1984/11,37,blank,,False,,,POINT Z (22.3309904 114.1612368 0),22.330990399999997,114.1612368
95,"KAM SHAN HSE,TAI PO RD|金山樓,大埔道",KCSW,4724168.0,12682.0,358.0,4814026.0,12919.0,358.0,4914643.554408006,13692.0,367.0,3.0,6.0,9.0,"['A', 'B', 'C']",4813269.875194292,13084.444444444445,364.0,9,27,1991/02,30,blank,,False,,,POINT Z (22.332057 114.164649 0),22.332057,114.164649
96,"TAK ON BLDG,TAI PO RD|德安大廈,大埔道",KCSW,3973361.119751291,9725.0,402.0,4021164.024739558,9842.0,402.0,6611082.608432258,10914.0,596.0,2.0,4.0,7.0,"['10B', '12A', '12B', 'F.P.', 'R.P.', 'whole floor']",5065673.86193366,10303.944444444445,480.72222222222223,8,48,1964/06,57,blank,,False,,,POINT Z (22.3268911 114.1678785 0),22.3268911,114.16787849999999
97,"HAND FAIR COURT,CASTLE PEAK RD|恒輝閣,青山道",KCSW,4854420.0,13410.0,346.0,4930078.0,13619.0,346.0,5234158.0,14818.0,362.0,4.0,7.0,10.0,"['A', 'B', 'C', 'D']",5018243.666666667,14182.5,354.0,11,44,1993/01,28,blank,,False,,,POINT Z (22.3369277 114.1580088 0),22.3369277,114.1580088
98,"WELLAND PLAZA,NAM CHEONG ST|華麗廣場,南昌街",KCSW,5152273.813571524,14247.0,340.0,5225165.265347974,14505.0,340.0,7493069.276562089,15639.0,496.0,5.0,8.0,11.0,"['A', 'B', 'C', 'D', 'E', 'F', 'G', 'H']",5887251.142722872,14869.0,390.5,11,88,1997/06,24,blank,,False,,,POINT Z (22.330666 114.1649524 0),22.330666,114.1649524
99,"YUE HING BLDG,LAI CHI KOK RD|裕興大廈,荔枝角道",KCSW,2867634.0,13546.0,198.0,2995938.0,13559.0,198.0,3039894.0,15353.0,217.0,5.0,8.0,12.0,"['A', 'B']",2996916.8333333335,14300.333333333334,210.16666666666666,12,24,1990/03,31,blank,,False,,,POINT Z (22.3267005 114.1632804 0),22.3267005,114.1632804
100,"LAI KWAN COURT,CASTLE PEAK RD|麗群閣,青山道",KCSW,4783290.757693212,14237.0,322.0,4866743.080025708,14306.0,322.0,7211122.18555122,16520.0,460.0,8.0,16.0,23.0,"['A', 'B', 'C', 'D']",5934784.421778931,15060.666666666666,389.4166666666667,24,96,1994/02,27,blank,,False,,,POINT Z (22.3404352 114.1540144 0),22.340435199999998,114.15401440000001
101,"TAK FU BLDG,YEE KUK ST|德富大廈,醫局街",KCSW,3919200.0,13800.0,284.0,3780608.0,13312.0,284.0,4094712.0,14418.0,284.0,5.0,8.0,12.0,"['A', 'B']",3972308.0,13987.0,284.0,12,24,1987/03,34,blank,,False,,,POINT Z (22.3286895 114.1589609 0),22.3286895,114.15896090000001
102,"TONE KING BLDG,CASTLE PEAK RD|東景大廈,青山道",KCSW,5702809.119393795,12743.0,437.0,5961745.078631068,13315.0,437.0,6257100.846886276,14088.0,451.0,7.0,14.0,22.0,"['A', 'B', 'C', 'D']",6023126.955593072,13415.111111111111,442.5,24,96,1990/03,31,blank,,False,,,POINT Z (22.3396389 114.1545021 0),22.3396389,114.1545021
103,"YIU CHEONG LUNG BLDG,LAI CHI KOK RD|耀昌隆大樓,荔枝角道",KCSW,3017994.1365269977,10776.0,275.0,3231727.008587798,10921.0,275.0,3596737.1607028935,12568.0,316.0,3.0,7.0,11.0,"['A', 'B', 'C', 'D', 'E']",3293475.4828496613,11391.199999999999,286.06666666666666,13,65,1979/01,42,blank,,False,,,POINT Z (22.3271163 114.1620263 0),22.3271163,114.16202630000001
104,"FUK YEE BLDG,FUK WING ST|福怡大廈,福榮街",KCSW,4588350.0,12675.0,362.0,4192455.4556046156,5219.0,362.0,4804826.0,13273.0,362.0,3.0,6.0,10.0,"['A', 'B']",4545408.345990956,10969.5,362.0,12,24,1988/08,33,blank,,False,,,POINT Z (22.3303679 114.1651846 0),22.3303679,114.16518459999999
105,"NGUN HOI MANSION,HAI TAN ST|銀海大廈,海壇街",KCSW,4426800.0,15810.0,280.0,4526480.0,16166.0,280.0,4627560.0,16527.0,308.0,4.0,8.0,12.0,"['A', 'B', 'C', 'D']",4526946.666666667,16167.666666666666,293.25,13,52,1991/11,30,blank,,False,,,POINT Z (22.3270094 114.160215 0),22.327009399999998,114.160215
106,"PO HAY BLDG,YU CHAU ST|寶喜大廈,汝州街",KCSW,3565524.0,13423.0,245.0,3729880.0,13745.0,245.0,4164689.9999999995,15590.0,290.0,4.0,8.0,11.0,"['A', 'B', 'C']",3802634.4444444445,14653.11111111111,260.3333333333333,12,36,1984/03,37,blank,,False,,,POINT Z (22.3266173 114.1660206 0),22.326617300000002,114.1660206
107,"HONG FAI BLDG(Block B),KWONG SHING ST|康輝大廈B座,廣成街",KCSW,3285144.0,14732.0,200.0,3470438.0,15406.0,200.0,4205610.0,18466.0,249.0,6.0,14.0,23.0,"['1', '2', '3', '4', '5', '6', '7', '8']",3691524.4583333335,16177.541666666666,228.875,28,224,1984/12,37,HONG FAI BLDG,康輝大廈,True,2.0,392.0,POINT Z (22.3406535 114.1537357 0),22.340653500000002,114.15373570000001
108,"CHUNG CHING BLDG,TAI PO RD|中正大廈,大埔道",KCSW,4330223.211116908,12982.0,292.0,4363461.851350278,13228.0,292.0,4728029.892148668,14964.0,345.0,4.0,7.0,10.0,"['A', 'B', 'C']",4549377.395561119,13821.111111111111,325.0,9,27,1980/06,41,blank,,False,,,POINT Z (22.328069 114.1673211 0),22.328069,114.1673211
109,"CHIU TAK MANSION,CASTLE PEAK RD|昭德大廈,青山道",KCSW,4057180.34365926,12827.0,307.0,4149225.8871015026,13076.0,307.0,10386509.983520854,16273.0,628.0,5.0,8.0,10.0,"['A', 'AD', 'B', 'C', 'D']",5422584.331457151,13785.066666666666,376.8,10,50,1981/07,40,blank,,False,,,POINT Z (22.3388928 114.1555007 0),22.3388928,114.1555007
110,"WIN FAT MANSION,APLIU ST|永發大廈,鴨寮街",KCSW,3583704.532164718,13937.0,253.0,3620989.253206827,14082.0,253.0,4141251.621835143,15781.0,265.0,4.0,7.0,10.0,"['A', 'B', 'C', 'D']",3939648.268548146,14963.416666666666,259.0,11,44,1987/06,34,blank,,False,,,POINT Z (22.3268206 114.1661135 0),22.3268206,114.1661135
111,"ON FAT BLDG,CHEUNG FAT ST|安發大廈,長發街",KCSW,5072257.0,14369.0,353.0,5131561.0,14537.0,353.0,5219458.0,14786.0,353.0,6.0,8.0,11.0,"['A', 'B']",5141092.0,14564.0,353.0,10,20,1992/03,29,blank,,False,,,POINT Z (22.3391635 114.1569637 0),22.3391635,114.1569637
112,"CHI FAI COURT,TAI PO RD|置輝閣,大埔道",KCSW,3037445.001766302,10262.0,258.0,3270641.9515885166,10536.0,258.0,4719100.0,14288.0,410.0,4.0,7.0,10.0,"['A', 'B', 'C', 'D', 'E', 'F']",3946726.398017578,12131.483333333332,313.0,11,66,1983/01,38,blank,,False,,,POINT Z (22.3299127 114.1659974 0),22.329912699999998,114.16599740000002
113,"KIU CHAU BLDG,KIU KIANG ST|九洲大廈,九江街",KCSW,3421968.0,12962.0,262.0,3488496.0,13214.0,262.0,3807122.0,14531.0,264.0,4.0,7.0,10.0,"['A', 'B', 'C', 'D', 'E', 'F', 'G', 'H']",3578941.25,13608.625,263.0,11,88,1982/08,39,blank,,False,,,POINT Z (22.3290222 114.1572656 0),22.329022199999997,114.1572656
114,"KA ON BLDG,POPLAR ST|嘉安大廈,白楊街",KCSW,3390100.0,15052.0,203.0,3485713.0,15324.0,203.0,3975048.0,17299.0,240.0,3.0,8.0,13.0,"['A', 'B', 'C', 'D']",3861451.9166666665,16380.666666666666,236.75,15,60,1979/11,42,blank,,False,,,POINT Z (22.3279379 114.1675998 0),22.3279379,114.16759979999999
115,"KAI CHEONG HSE,SAI YEUNG CHOI ST N|騏昌大廈,西洋菜北街",KCSW,4357180.217955384,4884.0,309.0,4413384.631086259,4947.0,309.0,6930439.43127134,15046.0,474.0,4.0,6.0,9.0,"['A', 'B', 'C', 'D']",5766920.903066158,12119.583333333334,394.0,10,40,1976/10,45,blank,,False,,,POINT Z (22.3272689 114.1679713 0),22.3272689,114.1679713
116,"SUN FAIR BLDG,TAI PO RD|新輝大廈,大埔道",KCSW,3002740.0,10674.0,260.0,3266991.0,10907.0,273.0,5364996.0,12103.0,476.0,3.0,6.0,8.0,"['A', 'B', 'C', 'D', 'E', 'F', 'G', 'H', 'I', 'J', 'K', 'L']",4217635.722222223,11227.166666666666,377.1666666666667,10,120,1975/03,46,blank,,False,,,POINT Z (22.3325461 114.1636752 0),22.332546100000002,114.16367520000001
117,"SUI CHEONG HSE,CHEUNG SHA WAN RD|瑞祥大廈,長沙灣道",KCSW,3664738.9629513733,12636.0,281.0,3732424.6810171055,12870.0,281.0,3954606.4527923143,13345.0,297.0,4.0,7.0,10.0,"['A', 'B', 'C']",3786886.24543786,13015.444444444445,286.3333333333333,11,33,1987/12,34,blank,,False,,,POINT Z (22.3314121 114.161051 0),22.3314121,114.161051
118,"YEE YAN HSE(Block F,YEE KOK COURT),CHEUNG SHA WAN RD|怡閣苑,F座(怡欣閣),長沙灣道",KCSW,6399750.0,12075.0,530.0,6553450.0,12365.0,530.0,6838060.0,12902.0,530.0,3.0,6.0,9.0,"['1', '2', '3', '4', '5', '6', '7', '8']",6692067.083333333,12626.541666666666,530.0,11,88,1983/11,38,YEE KOK COURT,怡閣苑,True,7.0,663.0,POINT Z (22.332875 114.158911 0),22.332875,114.158911
119,"WING WAH MANSION,FUK WING ST|永華大廈,福榮街",KCSW,4314335.661455459,12606.0,315.0,4454205.453190913,12740.0,315.0,5153802.400744683,15172.0,354.0,3.0,8.0,13.0,"['A', 'B', 'C', 'D', 'E', 'F']",4723608.507955525,13916.466666666667,337.6666666666667,15,90,1996/04,25,blank,,False,,,POINT Z (22.3329269 114.16126 0),22.332926899999997,114.16126000000001
120,"GOLDEN JADE HEIGHTS,UN CHAU ST|金碧閣,元州街",KCSW,3696680.0,12368.0,260.0,3809000.0,13132.0,260.0,4236876.0,15306.0,306.0,6.0,12.0,19.0,"['A', 'B', 'C', 'D', 'E', 'F']",3993120.222222222,14187.444444444443,282.1666666666667,22,132,1985/05,36,blank,,False,,,POINT Z (22.3399559 114.1537357 0),22.3399559,114.15373570000001
121,"KAM HOI MANSION,HAI TAN ST|金海大廈,海壇街",KCSW,2703871.505138559,11985.0,190.0,2756203.256166451,12200.0,190.0,5354181.478345288,15322.0,420.0,4.0,7.0,10.0,"['A', 'AB', 'CD', 'D', 'E', 'EF', 'G', 'H']",3938528.3379081474,13873.416666666666,288.25,11,88,1979/09,42,blank,,False,,,POINT Z (22.3294257 114.1570566 0),22.329425699999998,114.15705659999999
122,"SPRINGWIDE MANSION,CASTLE PEAK RD|春暉大廈,青山道",KCSW,4162158.0,13728.0,297.0,4249217.238070178,14043.0,297.0,4543828.023348043,15053.0,300.0,4.0,7.0,10.0,"['A', 'B', 'C', 'D']",4299586.429957536,14191.75,298.5,11,44,1986/04,35,blank,,False,,,POINT Z (22.336138 114.1590074 0),22.336138000000002,114.15900740000001
123,"YAU LOY BLDG,APLIU ST|友來大廈,鴨寮街",KCSW,3444700.0,13350.0,245.0,3530450.0,13827.0,245.0,3940720.0,14731.0,280.0,4.0,8.0,12.0,"['A', 'B', 'C', 'D', 'E', 'F']",3750342.222222222,14044.055555555557,267.3333333333333,13,78,1984/01,37,blank,,False,,,POINT Z (22.3269626 114.1659045 0),22.3269626,114.1659045
124,"HANG NING COURT,SHUN NING RD|恒寧閣,順寧道",KCSW,3480576.0,13058.0,250.0,3563736.0,13310.0,250.0,3882760.0,13900.0,280.0,5.0,8.0,11.0,"['A', 'B', 'C', 'D', 'E', 'G', 'H']",3660436.476190476,13702.285714285716,267.4285714285714,9,63,1981/09,40,blank,,False,,,POINT Z (22.3370575 114.1588448 0),22.3370575,114.15884479999998
125,"SCENIC COURT,SHUN NING RD|秀怡閣,順寧道",KCSW,4683351.240465115,13553.0,340.0,4591432.740504684,13287.0,340.0,5472911.234707268,14958.0,360.0,5.0,12.0,18.0,"['A', 'B', 'C', 'D']",5027732.241394929,14128.833333333334,350.0,22,88,1990/11,31,blank,,False,,,POINT Z (22.3393892 114.1559654 0),22.3393892,114.15596540000001
126,"WING ON BLDG,FUK WA ST|榮安大廈,福華街",KCSW,3028420.0,14285.0,200.0,3059625.0,14824.0,200.0,3600083.0,15989.0,233.0,5.0,8.0,10.0,"['A', 'B', 'C', 'D', 'E', 'F']",3284371.722222222,15220.22222222222,215.83333333333334,10,60,1982/03,39,blank,,False,,,POINT Z (22.3329894 114.1607259 0),22.3329894,114.1607259
127,"KAM ON BLDG,TAI PO RD|金安大廈,大埔道",KCSW,2875658.684896541,11334.0,236.0,2941619.6606531967,11481.0,236.0,3439630.109355222,12520.0,287.0,4.0,6.0,9.0,"['A', 'B', 'C']",3223500.237343367,11777.111111111111,270.0,10,30,1985/11,36,blank,,False,,,POINT Z (22.3326508 114.1642557 0),22.3326508,114.1642557
128,"KIN WO COURT,YU CHAU ST|建和閣,汝州街",KCSW,3618857.0,13453.0,269.0,3662435.0,13615.0,269.0,3746363.0,13927.0,269.0,4.0,6.0,9.0,"['A', 'B']",3771380.0,14020.0,269.0,10,20,1986/11,35,blank,,False,,,POINT Z (22.3296311 114.1615619 0),22.3296311,114.1615619
129,"KA TO BLDG,TAI PO RD|嘉都大廈,大埔道",KCSW,1938948.0,13253.0,132.0,1994916.0,13496.0,132.0,3319624.0,15590.0,238.0,3.0,6.0,10.0,"['A', 'B', 'C', 'D', 'E', 'F']",2593598.8888888895,14407.611111111111,182.0,12,72,1979/05,42,blank,,False,,,POINT Z (22.3300836 114.1658813 0),22.330083600000002,114.16588130000001
130,"WING WAH BLDG,FUK WING ST|榮華大廈,福榮街",KCSW,3000645.078650786,12698.0,215.0,3032790.0,13049.0,215.0,4142868.0,14263.0,313.0,4.0,7.0,10.0,"['A', 'B', 'C']",3665139.37950506,13407.666666666666,272.3333333333333,11,33,1983/12,38,blank,,False,,,POINT Z (22.3299539 114.1650453 0),22.3299539,114.1650453
131,"HERTFORD MANSION,UN CHAU ST|金樂樓,元州街",KCSW,2534997.1783315563,9103.0,235.0,2424960.2451690626,7145.0,235.0,2656578.4606634853,7189.0,274.0,2.0,3.0,4.0,"['A', 'B']",2574738.416131861,8313.666666666666,254.5,5,10,1986/01,35,blank,,False,,,POINT Z (22.3344934 114.1608652 0),22.3344934,114.1608652
132,"WAI BUN BLDG,PEI HO ST|渭濱樓,北河街",KCSW,3425395.601249129,3714.0,406.0,3470442.886904693,3767.0,406.0,4625872.477798258,4184.0,548.0,6.0,8.0,9.0,"['A', 'B', 'C', 'D', 'F']",3928656.7755431407,3880.4,457.6000000000001,6,30,1966/04,55,blank,,False,,,POINT Z (22.3317606 114.1642325 0),22.331760600000003,114.1642325
133,"SHUN TAI BLDG,FUK WA ST|順泰大廈,福華街",KCSW,4002128.8457727414,9110.0,395.0,4110522.344454519,9352.0,395.0,6270053.183943947,10691.0,600.0,2.0,6.0,8.0,"['B', 'C', 'D', 'E', 'F', 'G', 'H']",4723998.378992509,9852.809523809523,472.85714285714283,8,56,1965/08,56,blank,,False,,,POINT Z (22.3286079 114.1663922 0),22.3286079,114.1663922
134,"YEE KING COURT,SHUN NING RD|怡景閣,順寧道",KCSW,4593744.0,14082.0,304.0,4808672.0,14845.0,304.0,6554508.0,16564.0,412.0,11.0,20.0,30.0,"['A', 'B', 'C']",5609300.444444444,15263.0,368.6666666666667,26,78,1998/03,23,blank,,False,,,POINT Z (22.3406295 114.1540957 0),22.340629500000002,114.1540957
135,"YUK SING HSE,KWEILIN ST|玉成樓,桂林街",KCSW,3380608.7567490507,9051.0,312.0,3444663.063930676,9387.0,312.0,5055653.0,11369.0,529.0,3.0,6.0,9.0,"['A', 'B', 'C', 'D', 'whole floor']",4078202.4194881753,10337.066666666666,399.3999999999999,9,45,1964/10,57,blank,,False,,,POINT Z (22.3315562 114.1620728 0),22.3315562,114.16207279999999
136,"TAK WONG BLDG,CHEUNG SHA WAN RD|德旺大廈,長沙灣道",KCSW,2626327.7642189693,5285.0,218.0,3030750.311812828,5385.0,218.0,3164050.3339472986,6384.0,260.0,3.0,6.0,9.0,"['A', 'B', 'C', 'D']",3019421.671491368,5895.777777777777,239.0,11,44,1977/04,44,blank,,False,,,POINT Z (22.3309381 114.1623979 0),22.3309381,114.1623979
137,"GARNING COURT,SHUN NING RD|嘉寧閣,順寧道",KCSW,3703490.273947518,12854.0,274.0,3725118.1562911486,13090.0,274.0,3997125.0,14025.0,285.0,4.0,7.0,10.0,"['A', 'B', 'C', 'D']",3812539.7587864515,13389.583333333334,281.0,11,44,1984/09,37,blank,,False,,,POINT Z (22.3357802 114.1604472 0),22.3357802,114.16044720000001
138,"HUNG WAN BLDG,CHEUNG SHA WAN RD|鴻運大廈,長沙灣道",KCSW,4019798.0532231187,12070.0,315.0,4097274.2501711906,12289.0,315.0,4536875.187675449,13578.0,350.0,6.0,9.0,12.0,"['A', 'B', 'C', 'D', 'E', 'F']",4248942.867246226,12734.0,329.3333333333333,11,66,1975/06,46,blank,,False,,,POINT Z (22.3273254 114.166369 0),22.3273254,114.16636899999999
139,"FU CHEONG BLDG,HAI TAN ST|富昌大廈,海壇街",KCSW,3841110.0,15678.0,243.0,3423286.2195071047,13861.0,243.0,3744580.0,15284.0,245.0,3.0,8.0,13.0,"['A', 'B']",3689849.667551219,15023.0,244.0,15,30,1991/07,30,blank,,False,,,POINT Z (22.3285734 114.158868 0),22.3285734,114.158868
140,"SHUN KING COURT,SHUN NING RD|順景閣,順寧道",KCSW,4202298.0,13692.0,279.0,4335939.0,14108.0,279.0,5033336.0,16342.0,308.0,3.0,8.0,12.0,"['A', 'B', 'C', 'D', 'E', 'F']",4466608.666666667,15308.055555555555,292.0,14,84,1991/08,30,blank,,False,,,POINT Z (22.334874 114.1616315 0),22.334874,114.1616315
141,"APOLLO BLDG,CASTLE PEAK RD|宇宙大廈,青山道",KCSW,2726073.6240199786,13203.0,195.0,2925846.9582993053,13346.0,195.0,4522050.0,14943.0,325.0,5.0,8.0,10.0,"['A', 'B', 'C', 'D', 'E', 'F', 'G', 'H', 'I', 'J', 'K', 'L', 'M', 'N']",4031405.438183354,13885.333333333334,290.7142857142857,8,112,1979/09,42,blank,,False,,,POINT Z (22.336272 114.1594021 0),22.336272,114.1594021
142,"MAPLE MANSION,FUK WA ST|楓華樓,福華街",KCSW,3702140.56399675,9610.0,356.0,3752795.341064727,10307.0,356.0,5405940.0,10799.0,540.0,4.0,6.0,9.0,"['A', 'B', 'D', 'E', 'G', 'H']",4274658.002328151,10358.266666666665,424.8888888888889,10,60,1965/06,56,blank,,False,,,POINT Z (22.3283138 114.1661832 0),22.3283138,114.16618319999999
143,"KOON KAY MANSION,FUK WING ST|冠奇大廈,福榮街",KCSW,3910337.3892941223,8364.0,240.0,3285969.4935821393,7983.0,240.0,4649796.516048998,9443.0,530.0,3.0,6.0,10.0,"['1', '2', '3', '4', '5', '6', '7', '8']",4124607.372964138,8844.083333333334,412.5,12,96,1963/10,58,blank,,False,,,POINT Z (22.3327086 114.1615387 0),22.3327086,114.16153870000001
144,"SILVER BRIGHT BLDG,TAI PO RD|銀輝樓,大埔道",KCSW,4194056.990963229,10886.0,372.0,4247366.4686271455,11024.0,372.0,6194370.840959056,12232.0,545.0,5.0,7.0,9.0,"['A', 'B', 'D', 'E', 'F']",5034516.498836723,11245.133333333333,441.8,7,35,1975/12,46,blank,,False,,,POINT Z (22.3330254 114.1639538 0),22.3330254,114.16395379999999
145,"MAN WOO BLDG,POPLAR ST|萬和大廈,白楊街",KCSW,3122028.0,16667.0,182.0,3203746.0,17138.0,182.0,3719991.0,19893.0,194.0,4.0,8.0,13.0,"['A', 'B', 'C', 'D']",3416818.9166666665,18359.166666666668,186.25,14,56,1981/06,40,blank,,False,,,POINT Z (22.3276543 114.1677391 0),22.3276543,114.16773909999998
146,62 CASTLE PEAK RD|62 青山道,KCSW,3165297.496470221,9820.0,273.0,3246438.643781598,10115.0,278.0,4571536.714905111,11904.0,433.0,5.0,7.0,9.0,"['A', 'C', 'D', 'E', 'F', 'G']",4015679.6366578587,10841.666666666666,370.1666666666667,7,42,1968/07,53,blank,,False,,,POINT Z (22.3385206 114.1562042 0),22.3385206,114.15620420000002
147,"HAN HING BLDG,FUK WA ST|恒興大廈,福華街",KCSW,4223320.0,11114.0,380.0,4349860.0,11447.0,380.0,4535675.897207147,11744.0,380.0,3.0,8.0,12.0,"['A', 'B']",4392981.603034153,11466.333333333334,380.0,14,28,1979/08,42,blank,,False,,,POINT Z (22.327677 114.1670424 0),22.327676999999998,114.16704240000001
148,"YEN KWONG MANSION,TUNG CHAU ST|仁光大廈,通州街",KCSW,2926140.0,13847.0,210.0,3010140.0,14195.0,210.0,3158136.0,14929.0,216.0,3.0,7.0,11.0,"['A', 'B', 'C', 'D']",3048273.1666666665,14302.5,213.16666666666666,13,52,1981/01,40,blank,,False,,,POINT Z (22.3288366 114.1574746 0),22.328836600000002,114.1574746
149,"TUNG SHING COURT,CHEUNG SHA WAN RD|東成大廈,長沙灣道",KCSW,3552123.555282028,13041.0,260.0,3678508.443684057,13505.0,260.0,4496180.619581513,15418.0,315.0,4.0,7.0,10.0,"['A', 'B', 'C', 'D', 'E', 'F']",4014664.091264487,14163.0,281.0,11,66,1979/05,42,blank,,False,,,POINT Z (22.327538 114.166065 0),22.327538,114.16606499999999
150,"PEI HO BLDG,FUK WA ST|北河大廈,福華街",KCSW,3558332.0,12674.0,269.0,3625044.0,12750.0,269.0,3956946.0,13892.0,294.0,5.0,8.0,11.0,"['A', 'C', 'D', 'F', 'G', 'I', 'J', 'K', 'L']",3749601.407407407,13318.259259259261,281.6666666666667,11,99,1978/11,43,blank,,False,,,POINT Z (22.3305991 114.1633036 0),22.3305991,114.16330359999998
151,"HING ON HSE,TAI NAN ST|興安樓,大南街",KCSW,1771941.5034388956,8381.0,190.0,1775610.5191936186,8431.0,190.0,2318684.81541605,9258.0,269.0,2.0,3.0,4.0,"['A', 'C', 'D']",2080207.3738520432,8780.0,234.33333333333334,3,9,1971/01,50,blank,,False,,,POINT Z (22.3270569 114.1634425 0),22.3270569,114.1634425
152,"HANG SHING BLDG,KWEILIN ST|恒誠大廈,桂林街",KCSW,3241292.874594295,10023.0,301.0,3279466.900009087,10152.0,301.0,3618543.920268915,11043.0,346.0,6.0,8.0,10.0,"['A', 'B', 'C', 'D', 'E']",3381406.9963539704,10445.199999999999,318.8,7,35,1973/01,48,blank,,False,,,POINT Z (22.3317257 114.1627933 0),22.3317257,114.16279329999999
153,"HAND WAI COURT,UN CHAU ST|恒威閣,元州街",KCSW,4005936.0,12364.0,324.0,4103460.0000000005,12665.0,324.0,4269024.0,13176.0,332.0,4.0,8.0,11.0,"['A', 'B']",4168005.3333333335,12707.666666666666,328.0,12,24,1994/12,27,blank,,False,,,POINT Z (22.3312409 114.1643486 0),22.331240899999997,114.1643486
154,"MAN ON BLDG,TAI PO RD|民安大廈,大埔道",KCSW,3816952.2993796566,9319.0,403.0,3661718.3771278174,9494.0,372.0,5225964.0,9642.0,542.0,3.0,6.0,8.0,"['79', 'whole floor']",4325127.365545719,9566.0,447.5,10,20,1964/05,57,blank,,False,,,POINT Z (22.3323023 114.1639771 0),22.332302300000002,114.1639771
155,"YEE MEI HSE(Block B,YEE KOK COURT),CHEUNG SHA WAN RD|怡閣苑,B座(怡美閣),長沙灣道",KCSW,6259279.896686311,11620.0,530.0,6418185.883736437,11915.0,530.0,6860429.32566238,12736.0,530.0,2.0,6.0,10.0,"['1', '2', '3', '4', '5', '6', '7', '8']",6454680.394321677,11982.75,530.0,13,104,1981/06,40,YEE KOK COURT,怡閣苑,True,7.0,663.0,POINT Z (22.3332072 114.157823 0),22.333207199999997,114.157823
156,"GALLOWAY MANSION,CHEUNG SHA WAN RD|嘉威大廈,長沙灣道",KCSW,3879200.0,11628.0,325.0,3663725.0,11273.0,325.0,4194855.0,12482.0,345.0,5.0,8.0,12.0,"['A', 'B']",3979745.0,11880.333333333334,335.0,12,24,1982/03,39,blank,,False,,,POINT Z (22.3267467 114.1671353 0),22.3267467,114.16713529999998
157,"PAK CHEUNG BLDG,PEI HO ST|百祥大樓,北河街",KCSW,4137120.0,8112.0,510.0,4528700.0,8234.0,550.0,4287570.0,8407.0,510.0,4.0,7.0,10.0,['whole floor'],4317796.666666667,8251.0,523.3333333333334,11,11,1964/06,57,blank,,False,,,POINT Z (22.328224 114.16061 0),22.328224,114.16061
158,"TAK PO BLDG,YEN CHOW ST|德寶大廈,欽州街",KCSW,4769096.21724562,4602.0,467.0,5373737.306492629,4648.0,521.0,4591887.296526585,4431.0,467.0,3.0,6.0,9.0,['whole floor'],4911573.606754945,4560.333333333333,485.0,11,11,1965/06,56,blank,,False,,,POINT Z (22.3325018 114.1613297 0),22.332501800000003,114.1613297
159,"PENTA HSE,TAI PO RD|五聯大廈,大埔道",KCSW,3208610.176637334,4475.0,137.0,3540871.987995152,4559.0,137.0,7689240.0,9923.0,780.0,3.0,6.0,8.0,"['A', 'B', 'C', 'D', 'D3', 'E', 'F', 'G', 'G3', 'H', 'I', 'J']",5420384.08949114,8232.555555555557,489.1666666666667,10,120,1963/01,58,blank,,False,,,POINT Z (22.3319378 114.164906 0),22.3319378,114.164906
160,"HONG FU HSE,CHEUNG SHA WAN RD|康富樓,長沙灣道",KCSW,3459352.0,13826.0,248.0,3546896.0,14221.0,248.0,3810312.0,14521.0,264.0,4.0,8.0,10.0,"['1', '2', '3', '4']",3600738.0,14233.0,253.0,10,40,1982/07,39,blank,,False,,,POINT Z (22.3287983 114.1651846 0),22.3287983,114.16518459999999
161,"CHI FUNG COURT,YEE KUK ST|置豐閣,醫局街",KCSW,2363207.965877866,14539.0,146.0,2346885.419334693,14665.0,146.0,3184632.0,16084.0,198.0,4.0,7.0,10.0,"['A', 'B', 'C']",2883873.598356951,15413.72222222222,181.11111111111111,11,33,1983/07,38,blank,,False,,,POINT Z (22.3295985 114.15845 0),22.3295985,114.15845
162,"LIK SANG COURT,FUK WA ST|力生居,福華街",KCSW,3874596.500642989,11147.0,307.0,4151410.018640809,12532.0,307.0,4362961.808205867,13559.0,342.0,5.0,8.0,11.0,"['A', 'B']",4163111.403524212,12691.5,324.5,11,22,1997/01,24,blank,,False,,,POINT Z (22.329231 114.160111 0),22.329231,114.16011100000001
163,"HONG PO BLDG,TAI PO RD|康寶大廈,大埔道",KCSW,3581760.258719071,11479.0,298.0,3637488.644276682,11607.0,298.0,4136850.8356251842,12184.0,345.0,4.0,6.0,9.0,"['A', 'B', 'C']",3825048.752243634,11857.444444444445,317.6666666666667,10,30,1979/11,42,blank,,False,,,POINT Z (22.3301485 114.1662993 0),22.3301485,114.1662993
164,"SHING LAM BLDG,NAM CHEONG ST|成林大廈,南昌街",KCSW,3839152.3855653675,11072.0,340.0,3925887.511467879,11278.0,340.0,5371337.430129145,11655.0,460.0,4.0,7.0,10.0,"['A', 'B', 'C']",4379957.85459395,11348.0,380.0,9,27,1974/09,47,blank,,False,,,POINT Z (22.3304927 114.1641164 0),22.3304927,114.16411640000001
165,"KOON WING BLDG,UN CHAU ST|冠榮大廈,元州街",KCSW,3620342.8559713694,13193.0,268.0,3666444.394651214,13361.0,268.0,3827576.0,14282.0,268.0,6.0,8.0,10.0,"['A', 'B', 'C', 'D']",3721084.3410604266,13672.416666666666,268.1666666666667,7,28,1980/05,41,blank,,False,,,POINT Z (22.3380316 114.1555703 0),22.3380316,114.1555703
166,"CHENG FAI BLDG,CHEUNG SHA WAN RD|正輝大樓,長沙灣道",KCSW,2719660.846729319,7202.0,280.0,3105145.9650498517,10050.0,300.0,4874370.0,10451.0,470.0,3.0,8.0,12.0,"['A', 'D', 'E', 'F.P.', 'R.P.']",3742909.3390848953,9982.666666666666,366.6666666666667,14,70,1967/09,54,blank,,False,,,POINT Z (22.3285335 114.1647898 0),22.3285335,114.16478980000001
167,"WING FAT BLDG,UN CHAU ST|永發大廈,元州街",KCSW,3532051.701503627,10608.0,313.0,3602355.5316425357,10824.0,313.0,4772592.0,11981.0,421.0,3.0,6.0,10.0,"['A', 'B', 'C', 'D']",4165874.965871518,11248.0,368.6666666666667,12,48,1976/04,45,blank,,False,,,POINT Z (22.3370773 114.1574746 0),22.3370773,114.1574746
168,154-156 CHEUNG SHA WAN RD|154-156 長沙灣道,KCSW,4236900.529290834,6935.0,453.0,4523773.391515091,7032.0,464.0,7279120.938756135,8299.0,863.0,3.0,6.0,9.0,"['A', 'B', 'C', 'D']",5825789.951143149,7596.5,576.6666666666666,9,36,1967/02,54,blank,,False,,,POINT Z (22.3345978 114.1572377 0),22.3345978,114.15723770000001
169,"MAN ON BLDG,LAI CHI KOK RD|萬安大樓,荔枝角道",KCSW,3346233.839614357,9359.0,330.0,3430417.9324020892,9915.0,330.0,5643017.3751139175,10412.0,550.0,4.0,8.0,11.0,"['C', 'D', 'F', 'G', 'whole floor']",4563744.966803837,9980.800000000001,453.3333333333333,12,60,1963/04,58,blank,,False,,,POINT Z (22.3262469 114.1658813 0),22.326246899999997,114.16588130000001
170,"YEE TAI HSE(Block D,YEE KOK COURT),CHEUNG SHA WAN RD|怡閣苑,D座(怡泰閣),長沙灣道",KCSW,5754012.724303199,10682.0,530.0,5868748.233597019,10895.0,530.0,6144544.387392491,11407.0,530.0,3.0,6.0,10.0,"['1', '2', '3', '4', '5', '6', '7', '8']",5929549.973557301,11007.875,530.0,12,96,1981/06,40,YEE KOK COURT,怡閣苑,True,7.0,663.0,POINT Z (22.3328543 114.1582642 0),22.3328543,114.1582642
171,"SHUN FAT BLDG,SHUN NING RD|順發大廈,順寧道",KCSW,2566050.0,15929.0,150.0,2639700.0,16643.0,150.0,2830800.0,18872.0,162.0,5.0,12.0,20.0,"['A', 'B', 'C', 'D']",2696602.0,17307.166666666668,156.0,24,96,1985/02,36,blank,,False,,,POINT Z (22.3392642 114.1560562 0),22.3392642,114.1560562
172,97 FUK WING ST|97 福榮街,KCSW,2506423.5747503145,7696.0,244.0,2525022.740487553,7743.0,244.0,2548019.141725973,10182.0,244.0,3.0,4.0,4.0,"['A', 'B']",2530843.3346673003,8942.166666666666,244.0,4,8,1980/10,41,blank,,False,,,POINT Z (22.3344434 114.1595357 0),22.334443399999998,114.1595357
173,"YEE SAU HSE(Block G,YEE KOK COURT),CHEUNG SHA WAN RD|怡閣苑,G座(怡秀閣),長沙灣道",KCSW,4433746.370879951,8231.0,530.0,4537708.592916135,8424.0,530.0,4719777.147570177,8762.0,530.0,2.0,6.0,10.0,"['1', '2', '3', '5', '6', '7', '8']",4564174.968612392,8473.133333333333,530.0,13,91,1983/11,38,YEE KOK COURT,怡閣苑,True,7.0,663.0,POINT Z (22.3330754 114.158659 0),22.3330754,114.15865900000001
174,"LAI LUEN BLDG,LAI CHI KOK RD|荔聯大廈,荔枝角道",KCSW,3827464.385238687,11933.0,300.0,3876553.9866107437,12090.0,300.0,4211694.691630118,12956.0,335.0,6.0,8.0,11.0,"['A', 'B', 'C', 'D', 'E']",4084142.019543275,12261.6,328.0,8,40,1976/04,45,blank,,False,,,POINT Z (22.3269953 114.162932 0),22.3269953,114.16293200000001
175,"HUNG HING BLDG,UN CHAU ST|鴻興大廈,元州街",KCSW,2339061.5471154186,3413.0,223.0,2353869.8090432067,3434.0,223.0,3630030.750986184,4191.0,341.0,5.0,6.0,8.0,"['A', 'B', 'C']",2947621.352481413,5040.777777777778,275.55555555555554,6,18,1976/02,45,blank,,False,,,POINT Z (22.3328323 114.1628972 0),22.3328323,114.1628972
176,"TAI ON BLDG,CHEUNG SHA WAN RD|大安樓,長沙灣道",KCSW,,,565.0,5212519.651727782,10618.0,364.0,5124853.82757224,10857.0,350.0,3.0,6.0,9.0,['whole floor'],5168686.739650011,10737.5,426.3333333333333,11,11,1966/01,55,blank,,False,,,POINT Z (22.3292707 114.1639681 0),22.3292707,114.16396809999999
177,6-6A APLIU ST|6-6A 鴨寮街,KCSW,,,226.0,,,226.0,,,552.0,2.0,3.0,4.0,"['F.P.', 'R.P.']",,,389.0,5,10,1966/03,55,blank,,False,,,POINT Z (22.3289752 114.1635581 0),22.3289752,114.1635581
178,"TUNG LO COURT(Block A),TAI PO RD|東廬大樓A座,大埔道",KCSW,3467133.0,8494.0,79.0,3581860.0,8664.0,79.0,4766840.0,9622.0,710.0,3.0,6.0,10.0,"['1', '10', '10B', '11', '12', '13', '14', '14A', '15', '16', '17', '2', '3', '5', '6', '6B', '7', '7A', '7C', '8', '9']",3924830.3555555553,9021.6,382.5873015873016,12,252,1960/08,61,TUNG LO COURT,東廬大樓,True,2.0,420.0,POINT Z (22.330639 114.1661758 0),22.330639,114.16617579999999
179,116-122 CHEUNG SHA WAN RD|116-122 長沙灣道,KCSW,4739921.162046246,7711.0,542.0,4825294.381823736,7879.0,542.0,5699719.421916134,9102.0,628.0,3.0,6.0,10.0,"['A', 'B', 'C', 'D', 'E', 'F']",5075154.580575458,8661.666666666666,577.0,12,72,1964/08,57,blank,,False,,,POINT Z (22.3345978 114.1572377 0),22.3345978,114.15723770000001
180,"WING LEE MANSION,FUK WING ST|榮利大廈,福榮街",KCSW,4538800.0,12737.0,350.0,4644150.0,13032.0,350.0,4904907.0,13595.0,362.0,3.0,7.0,11.0,"['A', 'B', 'C', 'D', 'E', 'F']",4761874.944444445,13313.27777777778,357.6666666666667,13,78,1980/09,41,blank,,False,,,POINT Z (22.3331118 114.1616083 0),22.3331118,114.16160829999998
181,"KAM WAH MANSION,CHEUNG SHA WAN RD|金華大廈,長沙灣道",KCSW,3946617.0,12266.0,313.0,4025493.0,12482.0,313.0,5383004.0,13490.0,418.0,5.0,8.0,11.0,"['A', 'B', 'C', 'E', 'F', 'G', 'H', 'I', 'J']",4683070.62962963,12820.888888888889,365.7037037037037,9,81,1977/12,44,KAM WAH MANSION,金華大廈,True,1.0,81.0,POINT Z (22.3313953 114.1623021 0),22.3313953,114.16230209999999
182,"WONDER BLDG,FUK WA ST|福仁大廈,福華街",KCSW,3759552.0,13054.0,273.0,3886560.0,13413.0,283.0,4917072.0,15262.0,356.0,4.0,7.0,10.0,"['A', 'B', 'C', 'D', 'E', 'F', 'G', 'H', 'I', 'J']",4264657.433333334,14291.300000000001,299.1,11,110,1979/12,42,blank,,False,,,POINT Z (22.331758 114.1616755 0),22.331757999999997,114.16167549999999
183,"PO WING BLDG(Block B),YEE KUK ST|寶榮大廈B座,醫局街",KCSW,3653559.13655194,11277.0,303.0,3768411.0,11491.0,303.0,4937986.0,13054.0,398.0,5.0,8.0,10.0,"['1', '2', '3', '4', '5', '6']",4314983.568825712,12204.666666666666,344.0,10,60,1982/03,39,PO WING BLDG,寶榮大廈,True,2.0,110.0,POINT Z (22.329498 114.158019 0),22.329498,114.158019
184,"PRINCE'S COURT,CHEUNG SHA WAN RD|太子軒,長沙灣道",KCSW,4487289.6085504,12402.0,356.0,4703296.050761703,12999.0,356.0,4771679.999803473,13188.0,356.0,2.0,7.0,12.0,['whole floor'],4654088.553038525,12863.0,356.0,15,15,1996/12,25,blank,,False,,,POINT Z (22.327843 114.166328 0),22.327842999999998,114.16632800000001
185,"LUEN HONG BLDG,KI LUNG ST|聯康大廈,基隆街",KCSW,2425514.1547497613,8801.0,258.0,2472188.9136195406,8973.0,258.0,2818422.0391228604,9759.0,304.0,4.0,7.0,10.0,"['A', 'B', 'C', 'D', 'E']",2569252.6407150854,9292.066666666668,272.4,11,55,1975/01,46,blank,,False,,,POINT Z (22.3304029 114.1602614 0),22.3304029,114.16026140000001
186,"TONNING MANSION,TONKIN ST|東寧大廈,東京街",KCSW,3925369.1740620877,15093.0,255.0,4026963.3055973006,15471.0,255.0,4163310.435669079,15968.0,259.0,4.0,8.0,11.0,"['A', 'B', 'C']",4055914.8776528756,15516.111111111111,257.2222222222222,12,36,1989/10,32,blank,,False,,,POINT Z (22.3365336 114.1594021 0),22.336533600000003,114.1594021
187,"HAI TAN MANSION,HAI TAN ST|海壇大廈,海壇街",KCSW,2803644.0,14810.0,188.0,2839928.0,14768.0,188.0,3060204.0,15848.0,204.0,4.0,8.0,12.0,"['A', 'B', 'C', 'D', 'E']",2922355.3333333335,15192.666666666666,192.4,13,65,1982/05,39,blank,,False,,,POINT Z (22.3267401 114.1605401 0),22.326740100000002,114.16054009999998
188,"WAI PONT HSE,WONG CHUK ST|維邦大廈,黃竹街",KCSW,3907581.0539127346,10947.0,268.0,4029607.842714694,14431.0,268.0,4413312.457057144,15082.0,290.0,3.0,6.0,9.0,"['A', 'C', 'D']",4214830.769909596,13865.22222222222,282.6666666666667,11,33,1980/03,41,blank,,False,,,POINT Z (22.3297774 114.1667173 0),22.329777399999998,114.1667173
189,"SHAM TSUNG COURT,WONG CHUK ST|深崇閣,黃竹街",KCSW,4536861.0,12879.0,343.0,4616780.0,13107.0,343.0,5008068.0,13699.0,374.0,4.0,7.0,10.0,"['A', 'B', 'C', 'D', 'E', 'F']",4813185.388888889,13337.0,361.0,9,54,1983/04,38,blank,,False,,,POINT Z (22.3289542 114.1654401 0),22.3289542,114.16544009999998
190,"CHIAT HING BLDG,YU CHAU ST|捷興大廈,汝州街",KCSW,3933138.4256963413,4392.0,330.0,4356036.901183421,4572.0,330.0,4812244.475372035,13926.0,340.0,6.0,8.0,11.0,"['A', 'B', 'C', 'D']",4425566.060858465,8759.999999999998,335.0,10,40,1986/06,35,blank,,False,,,POINT Z (22.3291871 114.1621657 0),22.329187100000002,114.16216570000002
191,"DIAMOND BLDG,NAM CHEONG ST|鑽石樓,南昌街",KCSW,3753909.2583132526,10288.0,344.0,3819638.506759084,8386.0,344.0,5864243.779905902,11222.0,551.0,5.0,8.0,10.0,"['A', 'B', 'C', 'D', 'E', 'F', 'G', 'H']",4847114.181923457,10506.5,468.0,8,64,1967/07,54,blank,,False,,,POINT Z (22.3313347 114.1648595 0),22.3313347,114.16485949999999
192,"PO WAH COURT,UN CHAU ST|寶華閣,元州街",KCSW,3819270.0,13833.0,273.0,4002999.0,14504.0,273.0,4278400.0,15644.0,280.0,7.0,14.0,20.0,"['A', 'B', 'C', 'D']",4064107.25,14700.333333333334,276.5,22,88,1985/06,36,blank,,False,,,POINT Z (22.3394428 114.1543627 0),22.3394428,114.15436270000001
193,32-40 UN CHAU ST|32-40 元州街,KCSW,2992648.4537316277,9061.0,288.0,3403062.9298983845,9232.0,335.0,5095854.311472856,10979.0,528.0,4.0,7.0,10.0,"['A', 'B', 'C', 'D', 'E', 'F', 'G', 'H', 'I']",3834284.4181249593,9518.88888888889,397.7407407407408,9,81,1964/01,57,blank,,False,,,POINT Z (22.3352212 114.1595518 0),22.3352212,114.15955179999999
194,"WAH SHING BLDG,CASTLE PEAK RD|華盛大廈,青山道",KCSW,4701220.0,12706.0,365.0,4761160.0,12868.0,365.0,5189456.899828184,13989.0,370.0,4.0,6.0,9.0,"['A', 'B', 'C', 'D']",4961073.706174425,13390.166666666666,367.5,10,40,1991/03,30,blank,,False,,,POINT Z (22.3331248 114.1629088 0),22.333124800000004,114.1629088
195,"WELLCOME MANSION,CHEUNG SHA WAN RD|惠康大廈,長沙灣道",KCSW,3963695.022870896,6105.0,438.0,4042260.065798143,6311.0,438.0,7163223.8258597655,9582.0,825.0,4.0,7.0,10.0,"['A', 'B', 'C', 'D', 'E', 'F']",5432728.52027609,7946.166666666667,594.5,11,66,1964/07,57,blank,,False,,,POINT Z (22.3307571 114.161887 0),22.330757100000003,114.16188700000001
196,"KAU ON BLDG,CHEUNG SHA WAN RD|球安大廈,長沙灣道",KCSW,4519270.0,9223.0,490.0,3906600.0,9575.0,408.0,5005594.0,9682.0,517.0,4.0,7.0,10.0,['whole floor'],4477154.666666667,9493.333333333334,471.6666666666667,11,11,1966/11,55,blank,,False,,,POINT Z (22.3311282 114.161469 0),22.331128200000002,114.161469
197,"TSUI WAN MANSION,UN CHAU ST|翠雲大廈,元州街",KCSW,2956176.0,8845.0,324.0,3236436.0,9022.0,324.0,3772820.0,10653.0,410.0,3.0,6.0,9.0,"['1', '2', '3', '4', '5', '6', '7']",3337282.904761905,9655.619047619048,346.5714285714286,11,77,1964/03,57,blank,,False,,,POINT Z (22.3342395 114.1605401 0),22.3342395,114.16054009999998
198,"GOLDTOP GARDEN,CAMP ST|金德花園,營盤街",KCSW,4366194.0,14851.0,292.0,4424406.0,15049.0,292.0,4640790.0,15785.0,294.0,3.0,7.0,11.0,"['A', 'B']",4487646.333333333,15316.5,293.0,13,26,1992/07,29,blank,,False,,,POINT Z (22.3356267 114.1611439 0),22.3356267,114.1611439
199,130 FUK WA ST|130 福華街,KCSW,2341681.7183196847,9328.0,211.0,2350719.083441844,9364.0,211.0,2368291.7378460444,9434.0,247.0,2.0,3.0,4.0,"['A', 'B']",2353564.1798691913,9375.333333333334,229.0,5,10,1981/10,40,blank,,False,,,POINT Z (22.3308495 114.1632088 0),22.3308495,114.16320879999999
200,"LEE TAK CHEONG MANSION,YEE KUK ST|利德昌大廈,醫局街",KCSW,3236054.980496647,4446.0,328.0,3307385.0273002163,4310.0,328.0,3628301.446494836,4572.0,377.0,4.0,6.0,7.0,"['A', 'B', 'C']",3380803.4650469893,4705.0,345.6666666666667,6,18,1978/07,43,blank,,False,,,POINT Z (22.3264836 114.1624443 0),22.3264836,114.16244429999999
201,"BAO HUA BLDG,CHEUNG SHA WAN RD|保華大廈,長沙灣道",KCSW,,,142.0,,,142.0,,,760.0,4.0,6.0,9.0,"['1', '3', 'A', 'B', 'C', 'D']",,,428.11111111111114,10,60,1966/12,55,blank,,False,,,POINT Z (22.3322918 114.1607259 0),22.3322918,114.1607259
202,"CHEONG LOK BLDG,CHEUNG SHA WAN RD|長樂大廈,長沙灣道",KCSW,4324560.120871668,9046.0,460.0,4300716.600205241,9199.0,460.0,7759815.869061148,10180.0,750.0,3.0,6.0,9.0,"['A', 'B', 'C', 'D', 'E', 'F', 'G', 'H', 'I', 'J']",5103720.782697556,9392.537037037036,533.0,9,90,1965/01,56,blank,,False,,,POINT Z (22.3300766 114.1627462 0),22.3300766,114.1627462
203,"MERLIN CTR(Block C),SHUN NING RD|美寧中心C座,順寧道",KCSW,4044530.0,14853.0,264.0,3967200.0,15184.0,240.0,4774224.0,17488.0,280.0,3.0,7.0,11.0,"['1', '2', '3', '4', '5', '6', '7', '8']",4358488.625,16087.291666666666,271.0,13,104,1985/05,36,MERLIN CTR,美寧中心,True,4.0,416.0,POINT Z (22.336948 114.159871 0),22.336948,114.159871
204,"WING KAI BLDG,FUK WING ST|永佳樓,福榮街",KCSW,2443016.6811520015,9353.0,257.0,2443016.6811520015,9353.0,257.0,,,257.0,2.0,2.0,4.0,['whole floor'],2443016.6811520015,9353.0,257.0,4,4,1976/12,45,blank,,False,,,POINT Z (22.3324059 114.1624908 0),22.332405899999998,114.1624908
205,"SHEUNG FOOK BLDG,FUK WING ST|常福大廈,福榮街",KCSW,3698132.088058626,11048.0,236.0,3778244.6913412553,11245.0,236.0,6472463.940905685,16001.0,483.0,2.0,5.0,8.0,"['A', 'B', 'C', 'D', 'E', 'F', 'G', 'H']",4508280.2471698215,13618.375,332.125,9,72,1966/06,55,blank,,False,,,POINT Z (22.3322384 114.162723 0),22.332238399999998,114.162723
206,"KINGA COURT,YEE KUK ST|健基閣,醫局街",KCSW,5203944.938493995,11035.0,464.0,5362397.634401016,11371.0,464.0,5581684.847486626,11836.0,464.0,4.0,8.0,13.0,"['A', 'B']",5395251.417580151,11440.666666666666,464.0,14,28,1994/12,27,blank,,False,,,POINT Z (22.3286621 114.1590654 0),22.328662100000003,114.1590654
207,"NEW PEI HO BLDG,APLIU ST|新北河大樓,鴨寮街",KCSW,3766956.115721391,8041.0,268.0,3839503.025575168,8249.0,268.0,7047169.015055677,9268.0,846.0,3.0,6.0,9.0,"['A', 'B', 'C', 'D', 'E', 'E1', 'E2', 'F']",5204799.461184545,8617.1,584.0,9,72,1964/02,57,blank,,False,,,POINT Z (22.3299423 114.1626301 0),22.329942300000003,114.1626301
208,"KAM YEE HSE,YEE KUK ST|金怡樓,醫局街",KCSW,3691548.0,14649.0,252.0,3794112.0,15056.0,252.0,3843000.0,15250.0,253.0,3.0,8.0,12.0,"['A', 'B']",3776220.0,14985.0,252.5,14,28,1994/09,27,blank,,False,,,POINT Z (22.3281647 114.1603543 0),22.3281647,114.16035430000001
209,"FUNG LIN COURT,LAI CHI KOK RD|豐年閣,荔枝角道",KCSW,2862730.0,14267.0,190.0,2860830.0,14353.0,190.0,3395597.854907127,15233.0,230.0,3.0,4.0,6.0,"['A', 'B', 'C']",3044431.528816827,14864.444444444443,203.33333333333334,6,18,1982/01,39,blank,,False,,,POINT Z (22.3290604 114.160273 0),22.3290604,114.160273
210,"WAH KIU MANSION,TAI PO RD|華僑大廈,大埔道",KCSW,5112559.411200406,6469.0,184.0,6025289.006450541,6570.0,184.0,8465480.413306246,9868.0,861.0,4.0,6.0,9.0,"['A2', 'A3', 'A5', 'B1', 'B2', 'B3', 'B3B', 'B4', 'B5', 'PORTION B2']",7183277.434470918,7988.466666666667,585.6333333333333,10,100,1958/07,63,blank,,False,,,POINT Z (22.3291705 114.1668334 0),22.3291705,114.1668334
211,"HING GA BLDG,TAI NAN ST|興基大廈,大南街",KCSW,4160358.961499629,12206.0,320.0,4252074.191889161,12475.0,320.0,4560661.792862025,13284.0,354.0,4.0,8.0,11.0,"['A', 'B', 'C']",4358680.612260121,12602.166666666666,342.6666666666667,12,36,1984/02,37,blank,,False,,,POINT Z (22.3273479 114.1627695 0),22.3273479,114.16276950000001
212,"FUNG CHENG BLDG,UN CHAU ST|豐祥大廈,元州街",KCSW,3719520.0,12354.0,240.0,3695196.8754548472,12837.0,240.0,4064832.0,15496.0,300.0,5.0,8.0,11.0,"['A', 'B', 'C', 'D', 'F']",3829558.9814469456,14011.866666666667,272.0,9,45,1980/08,41,blank,,False,,,POINT Z (22.3376559 114.1567083 0),22.337655899999998,114.15670829999999
213,"PRINCE CTR(Block 1),TAI PO RD|太子中心1座,大埔道",KCSW,5316570.0,13051.0,404.0,5464908.0,13311.0,404.0,7367760.0,14003.0,540.0,5.0,8.0,12.0,"['A', 'B', 'C', 'D', 'L', 'M', 'N']",6067016.80952381,13477.190476190475,450.5714285714286,12,84,1988/02,33,PRINCE CTR,太子中心,True,2.0,162.0,POINT Z (22.3285161 114.1671121 0),22.3285161,114.16711210000001
214,"CHI FUK MANSION,FUK WA ST|置福大廈,福華街",KCSW,2901360.0,12817.0,210.0,2958270.0,13072.0,210.0,3188605.0,14352.0,233.0,3.0,6.0,9.0,"['A', 'B', 'C']",3049333.83310705,13600.444444444443,223.66666666666666,9,27,1981/08,40,blank,,False,,,POINT Z (22.3298234 114.1647666 0),22.3298234,114.1647666
215,"LUNG FUNG BLDG,UN CHAU ST|龍鳳大廈,元州街",KCSW,,,121.0,,,121.0,,,468.0,3.0,6.0,9.0,"['A', 'B', 'C', 'D', 'E', 'F', 'F1', 'F2']",,,348.0,11,88,1960/05,61,blank,,False,,,POINT Z (22.3338174 114.1610045 0),22.3338174,114.16100449999999
216,"TUNG SHING BLDG,APLIU ST|東成大廈,鴨寮街",KCSW,2754000.0,11015.0,240.0,2819760.0,11280.0,240.0,3569340.0,12033.0,303.0,3.0,7.0,11.0,"['A', 'B', 'C', 'D', 'E', 'F']",3205960.6999999997,11458.77777777778,277.6666666666667,13,78,1978/07,43,blank,,False,,,POINT Z (22.3295827 114.1625605 0),22.3295827,114.1625605
217,"YUNHAN BLDG,PRATAS ST|潤恒大廈,東沙島街",KCSW,4918300.0,13700.0,359.0,5109623.79220554,14004.0,359.0,5041078.0,14042.0,359.0,6.0,9.0,12.0,['whole floor'],5023000.597401847,13915.333333333334,359.0,11,11,1995/02,26,blank,,False,,,POINT Z (22.3361851 114.1605749 0),22.3361851,114.1605749
218,"FUK WA COURT,FUK WA ST|福華閣,福華街",KCSW,4657849.040100154,13804.0,332.0,4706101.170840106,13947.0,332.0,5372398.497289237,15017.0,352.0,3.0,7.0,11.0,"['A', 'B', 'C']",4977703.647532859,14448.333333333334,338.6666666666667,13,39,1989/03,32,blank,,False,,,POINT Z (22.3326826 114.1605285 0),22.332682600000002,114.1605285
219,"KAM FAI BLDG,YEE KUK ST|金輝樓,醫局街",KCSW,3502509.5184170525,11262.0,306.0,3547293.870277473,11406.0,306.0,3684088.1934052287,11987.0,310.0,6.0,8.0,11.0,"['A', 'B', 'C']",3584081.2584361173,11573.22222222222,304.77777777777777,10,30,1975/09,46,blank,,False,,,POINT Z (22.3274734 114.1611439 0),22.3274734,114.1611439
220,"PO HO MANSION,LAI CHI KOK RD|寶豪大樓,荔枝角道",KCSW,3564710.0071120807,10706.0,306.0,3595810.2514595953,10773.0,306.0,4384040.862708071,11602.0,398.0,4.0,5.0,6.0,"['A', 'B', 'C']",3980595.032069421,11139.111111111111,352.6666666666667,5,15,1977/07,44,blank,,False,,,POINT Z (22.3266287 114.1626301 0),22.326628699999997,114.1626301
221,"SOUTH OCEAN BLDG,CHEUNG SHA WAN RD|南洋大廈,長沙灣道",KCSW,4420880.0,11912.0,365.0,4477090.0,12041.0,365.0,5312220.0,12513.0,430.0,4.0,6.0,9.0,"['B', 'C', 'D', 'E', 'F', 'G', 'H']",4768353.80952381,12194.333333333334,391.1904761904762,8,56,1974/01,47,blank,,False,,,POINT Z (22.3325502 114.1603311 0),22.332550199999996,114.1603311
222,"HANG SHUN BLDG,BOUNDARY ST|恒順大樓,界限街",KCSW,4056085.2152307522,10945.0,265.0,4162231.7751852446,11046.0,265.0,4727321.777357054,11882.0,304.0,4.0,8.0,10.0,"['A', 'B', 'C', 'D', 'E', 'F', 'G']",4441480.321592041,11422.666666666666,288.42857142857144,10,70,1964/09,57,blank,,False,,,POINT Z (22.3266271 114.1669263 0),22.3266271,114.1669263
223,"SUN WING BLDG,FUK WING ST|新榮大樓,福榮街",KCSW,2778720.0,8580.0,280.0,2835280.0,8723.0,280.0,4574230.0,10313.0,515.0,2.0,5.0,8.0,"['A', 'B', 'C', 'D', 'F', 'G', 'H', 'I', 'J']",3471496.296296296,9472.555555555557,368.8888888888889,9,81,1966/02,55,blank,,False,,,POINT Z (22.3295098 114.1656491 0),22.3295098,114.1656491
224,"HING YIP APTS,CASTLE PEAK RD|興業大樓,青山道",KCSW,3107552.30917996,3138.0,343.0,3613949.2499259813,3526.0,355.0,4510263.0,8399.0,537.0,3.0,6.0,9.0,"['F.P.', 'R.P.']",3862206.0869997093,5084.5,462.1666666666667,11,22,1962/01,59,blank,,False,,,POINT Z (22.3340592 114.1623747 0),22.3340592,114.1623747
225,"WEI SUN BLDG,TAI PO RD|威信大廈,大埔道",KCSW,3624500.0,12741.0,250.0,3698000.0,12975.0,250.0,4155990.0,15176.0,290.0,5.0,8.0,11.0,"['A', 'B', 'C', 'D', 'E', 'F']",3879662.8888888895,14295.0,272.0,9,54,1981/12,40,blank,,False,,,POINT Z (22.3319204 114.1643254 0),22.3319204,114.1643254
226,"WING LUEN MANSION,YEN CHOW ST|永聯大廈,欽州街",KCSW,3052500.0,8394.0,330.0,3112230.0,8561.0,330.0,6365400.0,10300.0,618.0,3.0,6.0,9.0,"['A', 'B', 'C', 'D', 'E', 'F', 'G', 'H']",4241637.261904762,9175.42857142857,519.5,11,88,1965/03,56,blank,,False,,,POINT Z (22.3319617 114.1614722 0),22.3319617,114.1614722
227,"KING FAI COURT,LAI CHI KOK RD|景輝閣,荔枝角道",KCSW,2923635.0,14352.0,184.0,2862856.0,14690.0,184.0,3393936.0,16434.0,222.0,4.0,8.0,11.0,"['1', '2', '3', '4']",3167141.75,15371.75,206.58333333333334,12,48,1982/11,39,blank,,False,,,POINT Z (22.3265704 114.162723 0),22.3265704,114.162723
228,"KIN FAT BLDG,FUK WING ST|建發樓,福榮街",KCSW,2689732.0,9572.0,275.0,2705749.0,9629.0,275.0,2878425.0,10467.0,281.0,2.0,3.0,4.0,"['A', 'B']",2791210.3333333335,10044.666666666666,278.0,5,10,1993/11,28,blank,,False,,,POINT Z (22.3299586 114.1656375 0),22.3299586,114.1656375
229,"KA SHUN BLDG,TAI PO RD|嘉順大廈,大埔道",KCSW,3566160.0,11121.0,270.0,3581280.0,11344.0,270.0,5332870.0,13007.0,410.0,4.0,7.0,10.0,"['A', 'B', 'C', 'D']",4469663.333333333,12384.555555555555,340.0,11,44,1982/09,39,blank,,False,,,POINT Z (22.3320215 114.1647898 0),22.3320215,114.16478980000001
230,"SHINING COURT,TUNG CHAU ST|順興閣,通州街",KCSW,3897993.8446012936,13001.0,295.0,4000533.179641186,13343.0,295.0,4130356.372834968,13776.0,295.0,6.0,10.0,13.0,"['A', 'B']",4017173.334888888,13398.5,295.0,12,24,1990/09,31,blank,,False,,,POINT Z (22.3281943 114.1582991 0),22.3281943,114.1582991
231,"HOOVER MANSION,UN CHAU ST|靄華大廈,元州街",KCSW,4069661.095312445,12874.0,307.0,3896802.6849158267,12016.0,307.0,4233782.979551834,13569.0,321.0,3.0,6.0,9.0,"['A', 'B', 'C', 'D']",4081874.2086972804,12794.5,314.0,11,44,1978/10,43,blank,,False,,,POINT Z (22.3398219 114.1533409 0),22.339821899999997,114.1533409
232,"MAN YUI BLDG,CHEUNG SHA WAN RD|文裔大廈,長沙灣道",KCSW,4380782.0,10381.0,422.0,4468136.0,10588.0,422.0,3371736.0,11391.0,296.0,3.0,6.0,10.0,['whole floor'],4073551.3333333335,10786.666666666666,380.0,12,12,1969/06,52,blank,,False,,,POINT Z (22.3302684 114.1633268 0),22.330268399999998,114.1633268
233,"SHING TO BLDG,TAI PO RD|成都大廈,大埔道",KCSW,3293352.0,14489.0,216.0,3356424.0,14473.0,216.0,3542390.0,16191.0,235.0,4.0,8.0,13.0,"['A', 'B', 'C', 'D', 'E', 'F', 'G', 'H']",3429181.9166666665,15236.041666666666,225.25,14,112,1979/01,42,blank,,False,,,POINT Z (22.3275455 114.1675998 0),22.3275455,114.16759979999999
234,64 FUK WA ST|64 福華街,KCSW,,,248.0,,,248.0,,,492.0,7.0,8.0,8.0,"['F.P.', 'R.P.']",,,370.0,2,4,1970/11,51,blank,,False,,,POINT Z (22.3308495 114.1632088 0),22.3308495,114.16320879999999
235,"CHI TAT BLDG,UN CHAU ST|置達大廈,元州街",KCSW,3401515.0,15416.0,215.0,3440430.0,15526.0,215.0,3548918.0,16181.0,227.0,3.0,6.0,9.0,"['A', 'B', 'C']",3467964.1111111115,15841.22222222222,219.0,11,33,1981/06,40,blank,,False,,,POINT Z (22.3322228 114.1636519 0),22.3322228,114.1636519
236,"MANOR CTR(Block 7),UN CHAU ST|美居中心7座,元州街",KCSW,4257490.0,15370.0,277.0,4364412.0,15756.0,277.0,5255525.0,16975.0,319.0,3.0,7.0,11.0,"['A', 'B', 'C', 'D', 'E', 'F', 'G', 'H']",4710219.375,16051.625,293.5,13,104,1986/11,35,MANOR CTR,美居中心,True,7.0,728.0,POINT Z (22.3347895 114.1594021 0),22.3347895,114.1594021
237,"MERLIN CTR(Block D),SHUN NING RD|美寧中心D座,順寧道",KCSW,4098079.9999999995,14636.0,264.0,4294017.0,15379.0,264.0,4757760.0,17156.0,280.0,3.0,7.0,11.0,"['1', '2', '3', '4', '5', '6', '7', '8']",4379671.666666667,16047.166666666666,273.125,13,104,1985/05,36,MERLIN CTR,美寧中心,True,4.0,416.0,POINT Z (22.3369654 114.1598434 0),22.336965399999997,114.15984340000001
238,30 FUK WING ST|30 福榮街,KCSW,,,455.0,4336577.921686977,4295.0,455.0,,,455.0,2.0,3.0,5.0,['whole floor'],4336577.921686977,4295.0,455.0,5,5,1964/04,57,blank,,False,,,POINT Z (22.3344434 114.1595357 0),22.334443399999998,114.1595357
239,"FULHAM COURT,CASTLE PEAK RD|順發居,青山道",KCSW,4743823.937807503,14356.0,312.0,4832294.985845491,14622.0,312.0,7158803.647045435,15519.0,485.0,6.0,9.0,12.0,"['A', 'B', 'C']",5593010.237484331,14957.888888888889,369.6666666666667,11,33,1998/03,23,blank,,False,,,POINT Z (22.335657 114.160234 0),22.335657,114.160234
240,"RONDALL BLDG,TAI PO RD|南都大廈,大埔道",KCSW,5063485.665002934,8712.0,540.0,5180999.86933094,8884.0,555.0,7127362.926166666,9808.0,715.0,4.0,7.0,10.0,"['1', '10', '2', '4', '5', '6', '7', '8', '9']",5824548.884033143,9327.074074074073,613.2222222222222,9,81,1966/11,55,blank,,False,,,POINT Z (22.3311959 114.1654633 0),22.331195899999997,114.16546329999998
241,"LUCKY TIME BLDG,FUK WING ST|福年大廈,福榮街",KCSW,4397399.738907539,12044.0,359.0,4517806.469229435,12374.0,359.0,4911074.140743024,12727.0,380.0,3.0,7.0,11.0,"['A', 'B']",4650082.617970037,12382.5,369.5,13,26,1997/04,24,blank,,False,,,POINT Z (22.3311977 114.1640699 0),22.331197699999997,114.1640699
242,"MAN HOI MANSION,CHEUNG SHA WAN RD|文海樓,長沙灣道",KCSW,3759523.5544967055,6577.0,412.0,4012344.012270279,6695.0,412.0,5357026.247318963,7531.0,630.0,3.0,6.0,10.0,"['A', 'B', 'C', 'D', 'E', 'F']",4474790.444549807,7021.666666666667,500.27777777777777,12,72,1965/05,56,blank,,False,,,POINT Z (22.328529 114.1655098 0),22.328529,114.1655098
243,"FEDERAL MANSION(Block B),FUK WING ST|聯邦閣B座,福榮街",KCSW,4334337.387231899,11244.0,370.0,4446660.0,11449.0,370.0,4774256.0,12165.0,412.0,5.0,8.0,10.0,"['10', '5', '6', '7', '8']",4555184.043105148,11565.866666666669,391.8,8,40,1981/04,40,FEDERAL MANSION,聯邦閣,True,1.0,40.0,POINT Z (22.3344434 114.1595357 0),22.334443399999998,114.1595357
244,"KWONG HING BLDG,CHEUNG SHA WAN RD|廣興大樓,長沙灣道",KCSW,4077714.635711455,10529.0,375.0,4155846.377025676,10733.0,375.0,6333930.64659889,11654.0,550.0,6.0,9.0,12.0,"['1', '2', '3', '4', '5']",5019552.335079343,11049.133333333331,446.0,11,55,1966/01,55,blank,,False,,,POINT Z (22.328288 114.159985 0),22.328288,114.159985
245,"WING MING BLDG,YEN CHOW ST|永明大廈,欽州街",KCSW,3643668.039232005,8852.0,390.0,3716113.3143003327,9028.0,390.0,4686360.646462271,9391.0,505.0,3.0,6.0,10.0,"['A', 'B', 'C', 'D', 'E', 'F', 'H', 'I']",4210055.717787206,9132.388888888889,472.0,12,96,1971/08,50,blank,,False,,,POINT Z (22.3292054 114.1590074 0),22.329205399999996,114.15900740000001
246,"SHUN KING BLDG,YEE KUK ST|順景大樓,醫局街",KCSW,3101080.573631876,6746.0,320.0,3162224.060558231,6876.0,320.0,4913342.932487264,9909.0,520.0,4.0,7.0,10.0,"['A', 'B', 'C', 'D']",3992090.2601340823,8299.166666666666,385.0,9,36,1970/05,51,blank,,False,,,POINT Z (22.326862 114.1619799 0),22.326862,114.1619799
247,"NAM FU BLDG,TAI NAN ST|南富樓,大南街",KCSW,2584813.2509162943,4102.0,266.0,2601931.219465409,4138.0,266.0,2854548.852556237,4454.0,309.0,2.0,3.0,4.0,"['A', 'B', 'C']",2709114.911310208,4322.444444444444,283.0,5,15,1980/03,41,blank,,False,,,POINT Z (22.3288307 114.1609 0),22.3288307,114.1609
248,20A UN CHAU ST|20A 元州街,KCSW,,,318.0,,,318.0,,,318.0,2.0,2.0,4.0,['whole floor'],,,318.0,4,4,1970/08,51,blank,,False,,,POINT Z (22.3352212 114.1595518 0),22.3352212,114.15955179999999
249,"TUNG BO COURT,PRATAS ST|東寶閣,東沙島街",KCSW,3831068.0,13982.0,274.0,4008072.0,14628.0,274.0,4149455.9999999995,15144.0,274.0,3.0,7.0,11.0,"['A', 'B']",4006154.0,14621.0,274.0,13,26,1993/05,28,blank,,False,,,POINT Z (22.3361143 114.1605401 0),22.336114300000002,114.16054009999998
250,"MANOR CTR(Block 3),UN CHAU ST|美居中心3座,元州街",KCSW,3904016.0,14353.0,272.0,4004656.0,14723.0,272.0,5079756.0,16360.0,319.0,3.0,7.0,11.0,"['A', 'B', 'C', 'D', 'E', 'F', 'G', 'H']",4515691.458333333,15518.958333333334,291.0833333333333,13,104,1986/11,35,MANOR CTR,美居中心,True,7.0,728.0,POINT Z (22.3346144 114.1599595 0),22.334614399999996,114.1599595
251,"EVER WEALTH BLDG,FAT TSEUNG ST|家家發大廈,發祥街",KCSW,4629384.532064185,9178.0,374.0,4718663.357753372,9355.0,374.0,4819543.3867807025,9555.0,374.0,3.0,6.0,9.0,"['A', 'B']",4723959.559277307,9365.5,374.0,9,18,1994/11,27,blank,,False,,,POINT Z (22.3382402 114.1572889 0),22.3382402,114.1572889
252,"HING LUNG BLDG,SHUN NING RD|興隆樓,順寧道",KCSW,2720590.427344984,7383.0,349.0,2737970.9920046846,7430.0,349.0,3350813.5030467063,7808.0,441.0,3.0,4.0,5.0,"['A', 'B', 'D', 'E']",2949638.1935149967,7422.222222222223,375.0,4,16,1972/08,49,blank,,False,,,POINT Z (22.3386187 114.1568244 0),22.3386187,114.15682439999999
253,"BERWICK COURT,BERWICK ST|巴域閣,巴域街",KCSW,,,347.0,4342912.22289636,9280.0,347.0,,,347.0,2.0,5.0,8.0,['whole floor'],4342912.22289636,9280.0,347.0,9,9,1997/04,24,blank,,False,,,POINT Z (22.3320991 114.1651962 0),22.3320991,114.16519620000001
254,"LEUNG CHAU BLDG,UN CHAU ST|兩洲大廈,元州街",KCSW,3611981.3621724476,9249.0,270.0,3674768.2835795195,9408.0,270.0,7079988.919972994,10953.0,636.0,3.0,6.0,9.0,"['A', 'B', 'C', 'D', 'E', 'F', 'G', 'H']",4970403.582262155,9912.944444444445,436.8333333333333,11,88,1966/12,55,blank,,False,,,POINT Z (22.3330962 114.1625372 0),22.3330962,114.1625372
255,"SHEK ON BLDG,CHEUNG SHA WAN RD|石安大廈,長沙灣道",KCSW,2967197.070759391,8464.0,240.0,3025956.2056191033,9201.0,240.0,3264507.409921179,13124.0,427.0,4.0,7.0,10.0,"['A', 'B', 'C', 'E', 'F']",3116053.5402455437,10882.333333333334,326.40000000000003,9,45,1976/05,45,blank,,False,,,POINT Z (22.3290275 114.1649756 0),22.3290275,114.1649756
256,"LUNG ON BLDG,PEI HO ST|龍安大廈,北河街",KCSW,3916614.353643477,9862.0,384.0,3983850.0,9985.0,384.0,5152517.737056603,10497.0,498.0,4.0,6.0,9.0,"['B', 'C', 'D', 'E', 'F', 'H']",4253351.475589444,10168.388888888889,413.0,8,48,1967/07,54,blank,,False,,,POINT Z (22.3317358 114.1636984 0),22.3317358,114.16369840000002
257,"HONG NING BLDG,CHEUNG SHA WAN RD|康寧大廈,長沙灣道",KCSW,4215430.786343236,8007.0,255.0,4294927.482826043,8158.0,255.0,4380741.797572384,8321.0,593.0,3.0,6.0,9.0,"['A', 'B', 'C', 'D', 'D5', 'E', 'E3']",4297033.355580554,8162.0,395.7142857142857,8,56,1965/12,56,blank,,False,,,POINT Z (22.3301338 114.1634894 0),22.330133800000002,114.1634894
258,"YEN SHUN MANSION,SHUN NING RD|仁順大廈,順寧道",KCSW,3235050.0,14378.0,212.0,3266920.0,14589.0,212.0,3908925.0,17373.0,225.0,3.0,7.0,10.0,"['A', 'B', 'C', 'D']",3479481.5833333335,15927.75,218.5,11,44,1980/03,41,blank,,False,,,POINT Z (22.3363006 114.1597737 0),22.3363006,114.1597737
259,"WING LUNG BLDG,CASTLE PEAK RD|永隆大廈,青山道",KCSW,3227455.0,8161.0,385.0,3287130.0,8444.0,385.0,5436405.0,9293.0,585.0,3.0,6.0,9.0,"['A', 'B', 'C', 'D', 'E', 'F', 'H', 'I', 'J', 'L', 'M', 'N', 'O', 'P', 'Q', 'R', 'S', 'T']",4028270.370370371,8689.925925925925,463.0555555555555,11,198,1964/08,57,blank,,False,,,POINT Z (22.3376839 114.1576372 0),22.3376839,114.1576372
260,"TAI HING BLDG,UN CHAU ST|大興大廈,元州街",KCSW,4051712.0,13629.0,272.0,4164319.9999999995,13874.0,272.0,4462221.0,15464.0,321.0,5.0,8.0,11.0,"['A', 'B', 'C']",4259565.555555556,14648.555555555557,291.6666666666667,11,33,1996/07,25,blank,,False,,,POINT Z (22.3342361 114.1610794 0),22.334236100000002,114.1610794
261,"MAY BONG MANSION,SAI YEUNG CHOI ST N|美邦大廈,西洋菜北街",KCSW,9128994.657052405,5499.0,575.0,10304358.94459434,6207.0,575.0,10730582.240288159,6386.0,582.0,3.0,8.0,12.0,"['A', 'B']",10046382.699714247,6026.0,577.3333333333334,13,26,1986/12,35,blank,,False,,,POINT Z (22.3275524 114.167832 0),22.3275524,114.167832
262,"GOLDEN BLDG(Block 1),FUK WA ST|黃金大廈1座,福華街",KCSW,4518030.0,12400.0,330.0,4484370.0,12655.0,330.0,5248620.0,13838.0,390.0,4.0,7.0,10.0,"['A', 'B', 'C', 'E', 'F', 'G', 'H']",4763597.619047619,13410.857142857143,355.7142857142857,11,77,1980/01,41,GOLDEN BLDG,黃金大廈,True,5.0,365.0,POINT Z (22.3319837 114.1621711 0),22.3319837,114.1621711
263,"CHEUNG HING BLDG,CHEUNG SHA WAN RD|長興樓,長沙灣道",KCSW,5259747.149809052,7647.0,318.0,5350539.17593365,7779.0,318.0,5356654.016195814,7912.0,502.0,6.0,9.0,12.0,"['A', 'B', 'C']",5322313.447312839,7779.333333333333,438.11111111111114,11,33,1970/06,51,blank,,False,,,POINT Z (22.3274091 114.1662529 0),22.3274091,114.1662529
264,"CHELSEA COURT,SHUN NING RD|順康居,順寧道",KCSW,5711161.447755808,6308.0,408.0,5875608.0,6493.0,408.0,6401851.14101901,14660.0,438.0,6.0,9.0,12.0,"['A', 'B', 'C', 'D']",6032237.987614547,12178.666666666666,423.0,11,44,1998/04,23,blank,,False,,,POINT Z (22.3359978 114.1607259 0),22.3359978,114.1607259
265,"NAM PONT BLDG,NAM CHEONG ST|南邦大廈,南昌街",KCSW,3021570.0,11191.0,270.0,3088800.0,11440.0,270.0,3155490.0,11687.0,302.0,4.0,8.0,11.0,"['A', 'B', 'C', 'D', 'E']",3088620.0,11439.333333333334,281.2,12,60,1981/12,40,blank,,False,,,POINT Z (22.3291781 114.1636055 0),22.3291781,114.16360549999999
266,"EASTLAND TOWERS(Block A),CASTLE PEAK RD|東蘭閣A座,青山道",KCSW,3032488.0,8789.0,332.0,3113164.0,3512.0,332.0,6031986.884747871,10068.0,840.0,2.0,6.0,10.0,"['A', 'B', 'C', 'D', 'D-E', 'E', 'F', 'G', 'H', 'I', 'J', 'K', 'L', 'M', 'N']",3638938.023401368,9100.346031746032,425.26666666666665,13,195,1968/03,53,EASTLAND TOWERS,東蘭閣,True,2.0,335.0,POINT Z (22.340153 114.152531 0),22.340153,114.15253100000001
267,"HOUSTON COURT,APLIU ST|好時閣,鴨寮街",KCSW,3069409.1417901367,13363.0,226.0,3127521.8794143903,13616.0,226.0,3248570.941580326,14143.0,226.0,5.0,8.0,11.0,"['A', 'B']",3161210.4229646823,13762.666666666666,226.0,9,18,1991/09,30,blank,,False,,,POINT Z (22.3304955 114.161887 0),22.330495499999998,114.16188700000001
268,"YEN FAT BLDG,SHEK KIP MEI ST|仁發大樓,石硤尾街",KCSW,3150493.373621662,7332.0,349.0,3833182.35826807,7513.0,328.0,,,502.0,2.0,5.0,7.0,"['A', 'C', 'D']",3806828.4584010425,8105.25,448.4444444444444,7,21,1969/11,52,blank,,False,,,POINT Z (22.3302441 114.1654169 0),22.3302441,114.1654169
269,"SUN MING COURT,CASTLE PEAK RD|新明閣,青山道",KCSW,3750250.0,15001.0,250.0,3822000.0,15288.0,250.0,3869000.0,15476.0,323.0,5.0,8.0,10.0,"['A', 'B', 'C', 'D', 'E']",3813750.0,15255.0,286.6666666666667,10,50,1981/08,40,blank,,False,,,POINT Z (22.3347617 114.1613761 0),22.3347617,114.1613761
270,"WING SHUNG BLDG,CHEUNG SHA WAN RD|永崇樓,長沙灣道",KCSW,2748515.0,9317.0,286.0,2829970.0,9895.0,286.0,2847702.0,9957.0,345.0,2.0,3.0,4.0,"['A', 'C', 'D']",2818253.1666666665,9805.166666666666,308.6666666666667,5,15,1975/02,46,blank,,False,,,POINT Z (22.3287551 114.1652071 0),22.328755100000002,114.1652071
271,"TAK CHEONG APTS,YEE KUK ST|德昌大廈,醫局街",KCSW,3537388.544087575,8181.0,410.0,3950645.745203351,8363.0,450.0,4781449.135380869,8880.0,762.0,3.0,6.0,10.0,"['A', 'B', 'C', 'D', 'E']",4303743.4535072325,8532.833333333334,549.7333333333333,12,60,1964/03,57,blank,,False,,,POINT Z (22.3289441 114.1587287 0),22.3289441,114.1587287
272,"CHEUNG LEE BLDG,CHEUNG SHA WAN RD|長利樓,長沙灣道",KCSW,2116913.4625989385,8218.0,191.0,2257044.9938296294,5460.0,191.0,2314187.798953796,8762.0,191.0,3.0,4.0,4.0,"['A', 'B']",2230448.3831941024,7933.333333333333,191.0,4,8,1981/09,40,blank,,False,,,POINT Z (22.3304932 114.162247 0),22.3304932,114.162247
273,"KWONG FUNG HSE,NAM CHEONG ST|廣豐樓,南昌街",KCSW,4640745.93840473,8302.0,550.0,4734656.480159968,8470.0,550.0,4828567.021915207,8638.0,550.0,3.0,6.0,9.0,['whole floor'],4734656.480159968,8470.0,550.0,8,8,1964/07,57,blank,,False,,,POINT Z (22.3263907 114.1610974 0),22.3263907,114.16109740000002
274,"FUK WA MANSION,FUK WA ST|福華大廈,福華街",KCSW,,,581.0,2374115.4110522945,5782.0,404.0,2418460.700639574,5890.0,404.0,2.0,4.0,7.0,['whole floor'],2396288.055845934,5836.0,463.0,8,8,1960/11,61,blank,,False,,,POINT Z (22.3307149 114.1636752 0),22.330714899999997,114.16367520000001
275,"SHUN PONG BLDG,YU CHAU ST|信邦大廈,汝州街",KCSW,3127430.408107486,12458.0,247.0,3170357.892437746,12629.0,247.0,3455647.751542046,12928.0,263.0,4.0,7.0,10.0,"['A', 'B']",3287019.550307141,12682.5,255.0,9,18,1984/08,37,blank,,False,,,POINT Z (22.3299077 114.1611903 0),22.3299077,114.16119029999999
276,"LAN FONG BLDG,CHEUNG SHA WAN RD|蘭芳華廈,長沙灣道",KCSW,4788785.0,8951.0,535.0,4878665.0,9119.0,535.0,5784625.0,9625.0,601.0,3.0,6.0,8.0,['whole floor'],5150691.666666667,9231.666666666666,557.0,10,10,1965/05,56,blank,,False,,,POINT Z (22.3311937 114.1613297 0),22.3311937,114.1613297
277,67 FUK WA ST|67 福華街,KCSW,,,433.0,,,433.0,,,433.0,4.0,5.0,6.0,['whole floor'],,,433.0,3,3,1965/01,56,blank,,False,,,POINT Z (22.3308495 114.1632088 0),22.3308495,114.16320879999999
278,"GOLDEN BLDG(Block 2),FUK WA ST|黃金大廈2座,福華街",KCSW,4120800.0000000005,11200.0,340.0,4252380.0,11436.0,340.0,4942080.0,12962.0,390.0,4.0,7.0,10.0,"['A', 'B', 'C', 'D', 'E', 'F', 'G', 'H']",4474818.083333333,12269.166666666666,365.1666666666667,11,88,1980/01,41,GOLDEN BLDG,黃金大廈,True,5.0,365.0,POINT Z (22.3319837 114.1621711 0),22.3319837,114.1621711
279,"FU WAH COURT,PRATAS ST|富華閣,東沙島街",KCSW,3701225.0,13459.0,269.0,3778374.0,13817.0,269.0,3912425.0,14231.0,275.0,3.0,6.0,8.0,"['A', 'B', 'C', 'D']",3809405.1666666665,13941.583333333334,273.25,10,40,1984/02,37,blank,,False,,,POINT Z (22.3360822 114.1600524 0),22.3360822,114.1600524
280,"KIN ON BLDG,CAMP ST|建安大廈,營盤街",KCSW,3177103.3931480222,13025.0,220.0,3212472.298484411,13170.0,220.0,3733248.9391270997,15746.0,260.0,7.0,9.0,11.0,"['A', 'B', 'C', 'D', 'E', 'F', 'G', 'H']",3502750.858684668,14451.083333333334,239.25,7,56,1982/10,39,blank,,False,,,POINT Z (22.3357791 114.1612832 0),22.335779100000003,114.1612832
281,"TAK SING HSE,TAI PO RD|德勝樓,大埔道",KCSW,2389919.3668224057,6007.0,214.0,2182556.9606316555,6036.0,214.0,2447330.061446474,8449.0,295.0,2.0,3.0,4.0,"['A', 'B', 'C', 'D']",2388464.5148935975,6642.166666666667,254.25,5,20,1979/01,42,blank,,False,,,POINT Z (22.3297418 114.1661135 0),22.3297418,114.1661135
282,"KWEILIN MANSION,KWEILIN ST|桂林大廈,桂林街",KCSW,2084113.7803937497,4269.0,220.0,2088507.5550537505,4278.0,220.0,2133909.8932070932,4371.0,345.0,2.0,4.0,7.0,"['A', 'B', 'C', 'D', 'E', 'F']",2102177.0762181976,4306.0,275.0,8,48,1976/06,45,blank,,False,,,POINT Z (22.328311 114.159516 0),22.328311,114.159516
283,"LAI HEUNG BLDG,LAI CHI KOK RD|荔香大廈,荔枝角道",KCSW,3160273.254795039,7837.0,289.0,3242133.0826275507,8040.0,289.0,3315121.402025012,8221.0,498.0,3.0,8.0,12.0,"['A', 'B', 'C', 'D', 'E']",3259821.928180817,8130.833333333333,387.6000000000001,14,70,1964/09,57,blank,,False,,,POINT Z (22.3270071 114.1621657 0),22.327007100000003,114.16216570000002
284,"KWONG FAT BLDG,CASTLE PEAK RD|廣發唐樓,青山道",KCSW,,,379.0,,,379.0,,,390.0,2.0,4.0,7.0,"['B', 'C']",,,384.5,8,16,1967/07,54,blank,,False,,,POINT Z (22.3384882 114.1565457 0),22.338488199999997,114.1565457
285,"TENDER COURT,YU CHAU ST|溫馨閣,汝州街",KCSW,3308750.9307406205,14405.0,226.0,3489290.898221504,15191.0,226.0,3733685.9687045324,16255.0,226.0,5.0,8.0,12.0,"['A', 'B']",3599249.6277285316,15756.666666666666,226.0,12,24,1996/06,25,blank,,False,,,POINT Z (22.3304462 114.1605401 0),22.3304462,114.16054009999998
286,"NING CHING HSE(Block B,YEE CHING COURT),CHEUNG SHA WAN RD|怡靖苑,B座(寧靜閣),長沙灣道",KCSW,3922750.0456410563,8825.0,427.0,4014319.938287396,9014.0,427.0,6115468.707971129,9498.0,637.0,3.0,7.0,11.0,"['1', '10', '11', '12', '13', '16', '3', '5', '6', '7', '8', '9']",5267580.030417527,9163.47222222222,565.8333333333334,13,156,1993/02,28,YEE CHING COURT,怡靖苑,True,3.0,455.0,POINT Z (22.3324975 114.1593353 0),22.332497500000002,114.1593353
287,"HUNG YICK BLDG,CHEUNG SHA WAN RD|鴻益大廈,長沙灣道",KCSW,4346839.0,9779.0,437.0,4408019.0,9951.0,437.0,5302174.0,10421.0,523.0,3.0,6.0,10.0,"['A', 'B', 'C', 'D']",4894001.75,10054.416666666666,486.9166666666667,12,48,1966/11,55,blank,,False,,,POINT Z (22.3313029 114.1611903 0),22.331302899999997,114.16119029999999
288,64A CHEUNG SHA WAN RD|64A 長沙灣道,KCSW,3508440.0,10140.0,346.0,3546846.0,10251.0,346.0,3590096.0,10376.0,346.0,3.0,5.0,7.0,['whole floor'],3548460.6666666665,10255.666666666666,346.0,7,7,1968/05,53,blank,,False,,,POINT Z (22.3345978 114.1572377 0),22.3345978,114.15723770000001
289,16 APLIU ST|16 鴨寮街,KCSW,1352177.494380937,4954.0,123.0,1322471.0455346564,3724.0,123.0,1330993.9523802074,3748.0,184.0,2.0,3.0,4.0,"['A', 'B', 'C']",1335214.1640986002,4142.0,149.0,5,15,1979/10,42,blank,,False,,,POINT Z (22.3289752 114.1635581 0),22.3289752,114.1635581
290,"YU SHING BLDG,SHUN NING RD|裕成大廈,順寧道",KCSW,3641015.371331776,12570.0,272.0,3708795.609747976,12804.0,272.0,3983595.7426460446,14473.0,272.0,5.0,8.0,11.0,"['A', 'B', 'C', 'D']",3824047.8472301513,13767.416666666666,273.5,9,36,1986/06,35,blank,,False,,,POINT Z (22.335671 114.1605865 0),22.335670999999998,114.1605865
291,"KWOK CHI BLDG,KIU KIANG ST|國治樓,九江街",KCSW,4376475.169279218,8971.0,463.0,4403794.599608014,9027.0,463.0,4415502.926891785,9051.0,480.0,3.0,4.0,5.0,"['A', 'C', 'D']",4398590.898593006,9016.333333333334,468.6666666666667,3,9,1976/04,45,blank,,False,,,POINT Z (22.3346957 114.1617941 0),22.3346957,114.1617941
292,"SHEUNG WING BLDG,FUK WING ST|常榮大樓,福榮街",KCSW,4191530.100032282,4687.0,325.0,4269333.197685964,4774.0,325.0,4347136.295339647,4861.0,525.0,3.0,6.0,9.0,"['A', 'B', 'C', 'D', 'E', 'H']",4269333.197685964,4774.0,432.1666666666667,8,48,1966/06,55,blank,,False,,,POINT Z (22.3334283 114.1606545 0),22.3334283,114.16065449999999
293,"HAPPY BLDG,PEI HO ST|快樂大廈,北河街",KCSW,3644636.080470728,5080.0,315.0,3697760.8104507388,5177.0,315.0,4068156.014288813,12096.0,348.0,4.0,7.0,10.0,"['B', 'C', 'D', 'E']",3861412.6021705843,6888.5,331.5,9,36,1983/03,38,blank,,False,,,POINT Z (22.3324154 114.1643437 0),22.3324154,114.16434369999999
294,"KA WING BLDG,FUK WING ST|嘉榮大廈,福榮街",KCSW,2497440.0,11352.0,220.0,2545400.0,11334.0,220.0,3320980.0,13171.0,265.0,3.0,6.0,9.0,"['A', 'B', 'C', 'D', 'E', 'F']",2988352.2222222225,12280.166666666666,243.33333333333334,10,60,1979/01,42,blank,,False,,,POINT Z (22.3298949 114.1656955 0),22.3298949,114.16569550000001
295,"PO CHAK HSE(Block B,PO LAI COURT),PO ON RD|寶麗苑,B座(寶澤閣),保安道",KCSW,5033535.0,12070.0,415.0,5094125.0,12186.0,415.0,5716845.0,12745.0,459.0,2.0,4.0,7.0,"['10', '13', '14', '15', '16', '2', '3', '5', '7', '9']",5406054.833333333,12281.800000000001,440.2,8,80,1987/09,34,PO LAI COURT,寶麗苑,True,3.0,297.0,POINT Z (22.3385266 114.157823 0),22.3385266,114.157823
296,"HAN CHING HSE(Block A,YEE CHING COURT),CHEUNG SHA WAN RD|怡靖苑,A座(閒靜閣),長沙灣道",KCSW,3870009.0,8877.0,427.0,3993304.0,9186.0,427.0,6326684.0,9973.0,637.0,3.0,8.0,12.0,"['10', '11', '13', '14', '15', '3', '4', '5', '6', '8', '9']",5136965.363636363,9490.333333333334,540.3333333333334,13,143,1993/02,28,YEE CHING COURT,怡靖苑,True,3.0,455.0,POINT Z (22.3321448 114.1590306 0),22.332144800000002,114.15903059999998
297,"EASTLAND TOWERS(Block B),CASTLE PEAK RD|東蘭閣B座,青山道",KCSW,2882356.0,9725.0,271.0,3419191.354001349,10291.0,271.0,4113063.9999999995,11875.0,426.0,5.0,8.0,10.0,"['A', 'B', 'C', 'D', 'E', 'F', 'G', 'H', 'I', 'J', 'K', 'L', 'M', 'N']",3779554.770825461,10783.214285714284,362.6666666666667,10,140,1968/03,53,EASTLAND TOWERS,東蘭閣,True,2.0,335.0,POINT Z (22.335342 114.160243 0),22.335342,114.160243
298,"TUNG LO COURT(Block B),TAI PO RD|東廬大樓B座,大埔道",KCSW,3680370.0,8512.0,135.0,3748310.0,8668.0,135.0,7057050.0,9561.0,910.0,3.0,6.0,10.0,"['1', '10', '11', '2', '3', '4', '5', '6', '6A', '6B', '7', '8', '9', '9B']",4509028.314814814,8774.17037037037,460.5238095238096,12,168,1960/08,61,TUNG LO COURT,東廬大樓,True,2.0,420.0,POINT Z (22.330639 114.1661758 0),22.330639,114.16617579999999
299,"EASEY BLDG,FUK WING ST|依時大廈,福榮街",KCSW,4038459.2161794817,13154.0,301.0,4129256.6844564057,13234.0,301.0,4770787.646387227,14483.0,349.0,6.0,8.0,11.0,"['A', 'B', 'C', 'D', 'E']",4277767.544117567,13654.800000000001,309.53333333333336,8,40,1981/03,40,blank,,False,,,POINT Z (22.3390692 114.1538286 0),22.339069199999997,114.15382859999998
300,"YAT CHING HSE(Block C,YEE CHING COURT),CHEUNG SHA WAN RD|怡靖苑,C座(逸靜閣),長沙灣道",KCSW,4175457.0,9681.0,429.0,4280133.0,9923.0,429.0,6603779.0,10367.0,637.0,4.0,8.0,12.0,"['1', '12', '13', '15', '16', '2', '3', '5', '6', '7', '8', '9']",5536886.055555556,10029.555555555555,551.8333333333334,13,156,1993/02,28,YEE CHING COURT,怡靖苑,True,3.0,455.0,POINT Z (22.332152 114.159755 0),22.332152,114.159755
301,"HUNG FUK HSE,FUK WA ST|鴻福大樓,福華街",KCSW,3699357.8035711455,12435.0,278.0,3769428.8900513747,11576.0,278.0,4079751.3968118606,13504.0,343.0,5.0,8.0,10.0,"['1', '2', '4', '5']",3963644.269624632,12745.888888888889,308.25,10,40,1976/08,45,blank,,False,,,POINT Z (22.3285503 114.1659278 0),22.3285503,114.16592779999999
302,"TUNG SHING BLDG,NAM CHEONG ST|東盛大廈,南昌街",KCSW,5147054.039286361,3918.0,592.0,5212738.751375264,3968.0,592.0,5622566.97324779,4188.0,1378.0,6.0,8.0,11.0,"['A', 'B', 'C']",5372771.637667944,4044.6666666666665,858.3333333333334,10,30,1964/02,57,blank,,False,,,POINT Z (22.3278578 114.1617477 0),22.3278578,114.16174769999999
303,"PO HONG HSE(Block C,PO LAI COURT),PO ON RD|寶麗苑,C座(寶康閣),保安道",KCSW,5121100.0,12017.0,415.0,5179615.0,11925.0,415.0,6110248.0,12681.0,488.0,3.0,5.0,7.0,"['1', '10', '11', '12', '13', '14', '15', '16', '2', '3', '4', '5', '6', '8', '9']",5499514.933333334,12398.133333333331,443.6666666666667,7,105,1987/09,34,PO LAI COURT,寶麗苑,True,3.0,297.0,POINT Z (22.3381485 114.1580088 0),22.3381485,114.1580088
304,"GOOD YEAR COURT,SHUN NING RD|順年閣,順寧道",KCSW,4608616.926406254,3346.0,392.0,5169312.196952769,3390.0,392.0,5758235.21487588,3483.0,425.0,5.0,8.0,11.0,"['A', 'B', 'C']",5330590.975792429,3731.3333333333335,403.0,9,27,1991/04,30,blank,,False,,,POINT Z (22.3362169 114.1598898 0),22.3362169,114.1598898
305,"HAI TIN MANSION,HAI TAN ST|海天大廈,海壇街",KCSW,3463506.0,12414.0,279.0,3575385.0,12815.0,279.0,3864086.447479667,13627.0,279.0,3.0,8.0,13.0,"['A', 'B']",3659331.138388951,13008.0,279.0,15,30,1991/09,30,blank,,False,,,POINT Z (22.3283843 114.1589609 0),22.3283843,114.15896090000001
306,"KAM NING BLDG,TAI NAN ST|金寧大廈,大南街",KCSW,,,318.0,,,318.0,,,318.0,5.0,7.0,9.0,"['A', 'B']",,,318.0,7,14,1975/07,46,blank,,False,,,POINT Z (22.3270124 114.1637913 0),22.327012399999997,114.1637913
307,"GRANDVIEW MANSION,APLIU ST|美景大廈,鴨寮街",KCSW,4377088.0,13008.0,332.0,4496608.0,13402.0,332.0,4797225.0,13980.0,345.0,4.0,8.0,13.0,"['A', 'B', 'C', 'D']",4573726.833333333,13512.833333333334,338.5,14,56,1987/10,34,blank,,False,,,POINT Z (22.3270972 114.165742 0),22.327097199999997,114.165742
308,"FUK SING HSE,FUK WING ST|福星樓,福榮街",KCSW,3621750.0,6585.0,405.0,3691050.0,6711.0,405.0,5965758.636308465,9783.0,600.0,3.0,6.0,8.0,"['A', 'B', 'C', 'D', 'E', 'F']",4689923.052434084,8994.61111111111,514.2222222222223,8,48,1967/06,54,blank,,False,,,POINT Z (22.3301903 114.1647898 0),22.3301903,114.16478980000001
309,"WING HEI HSE(Block B,PO HEI COURT),PO ON RD|寶熙苑,B座(榮熙閣),保安道",KCSW,3994304.0,8826.0,449.0,4128555.0,9129.0,449.0,5907500.0,9452.0,625.0,3.0,8.0,11.0,"['10', '11', '12', '13', '14', '15', '2', '3', '4', '5', '6', '7', '8', '9']",4868092.523809523,9148.619047619048,532.0714285714286,12,168,1993/02,28,PO HEI COURT,寶熙苑,True,2.0,312.0,POINT Z (22.3372095 114.1592628 0),22.3372095,114.15926280000001
310,"SUNNING MANSION,PEI HO ST|新寧大樓,北河街",KCSW,3621000.0,11686.0,300.0,3667800.0,11831.0,300.0,4286270.0,12561.0,355.0,4.0,6.0,9.0,"['1', '2', '3', '4', '5', '6', '7', '8']",3851855.375,12194.75,316.0833333333333,10,80,1975/03,46,blank,,False,,,POINT Z (22.3326759 114.1645112 0),22.332675899999998,114.16451119999999
311,"WING SHUN BLDG,SHUN NING RD|永順大廈,順寧道",KCSW,3767028.0,11599.0,318.0,3836352.0,11813.0,318.0,4186439.9999999995,12286.0,348.0,4.0,7.0,10.0,"['A', 'B', 'C', 'D', 'E']",3993621.6666666665,11934.305555555557,334.3333333333333,11,55,1974/07,47,blank,,False,,,POINT Z (22.3376138 114.1581086 0),22.3376138,114.15810859999999
312,"FU HEI HSE(Block A,PO HEI COURT),PO ON RD|寶熙苑,A座(富熙閣),保安道",KCSW,5266293.562387912,8452.0,449.0,5430787.3508960055,8716.0,449.0,8107153.402279931,9618.0,625.0,3.0,8.0,11.0,"['1', '10', '11', '12', '13', '14', '2', '3', '6', '7', '8', '9']",6117430.068322104,9026.25,513.3333333333334,12,144,1993/02,28,PO HEI COURT,寶熙苑,True,2.0,312.0,POINT Z (22.3375953 114.1587519 0),22.3375953,114.15875190000001
313,"WING NING BLDG(Block A),SHUN NING RD|永寧大廈A座,順寧道",KCSW,3373480.0,14534.0,220.0,3370750.0,13483.0,220.0,4028284.0,17368.0,250.0,6.0,14.0,22.0,"['1', '2', '3', '4', '5', '6']",3639746.7222222225,15873.77777777778,229.7222222222222,25,150,1984/08,37,WING NING BLDG,永寧大廈,True,2.0,300.0,POINT Z (22.340478 114.154411 0),22.340478,114.15441100000001
314,"NEW UN CHAU BLDG,UN CHAU ST|新元洲大廈,元州街",KCSW,5277918.800735481,7548.0,688.0,,,372.0,,,372.0,3.0,6.0,8.0,['whole floor'],5277918.800735481,7548.0,477.3333333333333,10,10,1963/01,58,blank,,False,,,POINT Z (22.3341303 114.1606794 0),22.3341303,114.1606794
315,"HANG MOON BLDG,CHEUNG SHA WAN RD|恒滿樓,長沙灣道",KCSW,4270155.020220608,10773.0,390.0,4518925.468217232,10871.0,409.0,4577537.232638042,11012.0,409.0,5.0,8.0,10.0,['whole floor'],4455539.240358627,10885.333333333334,402.6666666666667,8,8,1976/09,45,blank,,False,,,POINT Z (22.3276483 114.1666709 0),22.3276483,114.1666709
316,"MANOR CTR(Block 5),UN CHAU ST|美居中心5座,元州街",KCSW,4275772.0,14166.0,277.0,4377431.0,14539.0,277.0,4888675.0,16640.0,320.0,3.0,7.0,11.0,"['A', 'B', 'C', 'D', 'E', 'F', 'G', 'H']",4552680.5,15543.333333333334,293.5,13,104,1986/12,35,MANOR CTR,美居中心,True,7.0,728.0,POINT Z (22.3345712 114.1596808 0),22.3345712,114.15968079999999
317,"SIU CHEONG BLDG,NAM CHEONG ST|兆昌大廈,南昌街",KCSW,3585912.0,13583.0,257.0,3669864.0,13901.0,257.0,3987456.0,15399.0,264.0,4.0,8.0,13.0,"['A', 'B', 'C', 'D']",3791037.3333333335,14556.166666666666,260.5,14,56,1999/03,22,blank,,False,,,POINT Z (22.3277263 114.162305 0),22.327726300000002,114.162305
