,final_address,district,lowZone_value,lowZone_npsf_min,lowZone_nfa_min,midZone_value,midZone_npsf_min,midZone_nfa_min,highZone_value,highZone_npsf_max,highZone_nfa_max,oneSixth_floor,middle_floor,fifthSixth_floor,unit_list,value_avg,npsf_avg,unitSize_avg,noStorey,noFlat,op_date,bldgAge,est_name_en,est_name_ch,est_orNot,est_bldgNo,est_flatNo,final_coords,lat,long
0,"SERENITY PARK(Block 3),TAI PO TAU RD|太湖花園3座,大埔頭路",NTP,4933019.0,12713.0,359.0,4973227.0,13071.0,359.0,6200228.0,15225.0,443.0,4.0,12.0,20.0,"['A', 'B', 'C', 'D', 'E', 'F', 'G', 'H']",5488102.166666667,14025.0,392.375,22,176,1992/03,29,SERENITY PARK,太湖花園,True,15.0,3200.0,POINT Z (22.4537993 114.1604936 0),22.4537993,114.1604936
1,"FU SHING BLDG,FU SHIN ST|富盛大廈,富善街",NTP,2860250.0,11441.0,250.0,3203750.0,12389.0,250.0,3369060.0,12941.0,270.0,3.0,6.0,10.0,"['A', 'B', 'C']",3235402.7777777775,12525.77777777778,258.3333333333333,12,36,1982/04,39,blank,,False,,,POINT Z (22.4481597 114.1647202 0),22.448159699999998,114.1647202
2,"PLOVER COVE GARDEN(Block A),PLOVER COVE RD|寶湖花園A座,寶湖道",NTP,4382874.0,11955.0,354.0,4494384.0,12261.0,354.0,7757577.0,13805.0,563.0,4.0,10.0,17.0,"['1', '2', '3', '4', '5', '6', '7', '8']",5877998.708333333,12885.0,458.5,20,160,1990/05,31,PLOVER COVE GARDEN,寶湖花園,True,5.0,800.0,POINT Z (22.4495921 114.1680642 0),22.4495921,114.1680642
3,"EIGHTLAND GARDEN(Block 2),ON CHEE RD|八號花園2座,安慈路",NTP,4306186.0,11490.0,337.0,4411330.0,11789.0,337.0,5691492.0,13536.0,453.0,3.0,8.0,13.0,"['A', 'B', 'C', 'D', 'E', 'F', 'G', 'H', 'J']",5064098.740740741,12384.518518518518,410.77777777777777,15,135,1984/04,37,EIGHTLAND GARDEN,八號花園,True,4.0,540.0,POINT Z (22.4525823 114.166489 0),22.4525823,114.16648899999998
4,"RIVIERA LODGE,TING KOK RD|樂賢居,汀角路",NTP,4437125.0,10364.0,385.0,4676210.0,10632.0,385.0,8336299.999999999,12734.0,700.0,13.0,23.0,33.0,"['A', 'B', 'C', 'D', 'E', 'F']",6551899.511111111,11384.522222222222,569.3333333333334,29,174,1995/05,26,blank,,False,,,POINT Z (22.4572266 114.1765636 0),22.457226600000002,114.1765636
5,"PLOVER COVE GARDEN(Block D),PLOVER COVE RD|寶湖花園D座,寶湖道",NTP,4685544.0,12434.0,354.0,4827852.0,12739.0,354.0,7842027.0,15394.0,563.0,4.0,10.0,17.0,"['1', '2', '3', '4', '5', '6', '7', '8']",6095524.833333333,13785.875,445.0,20,160,1990/05,31,PLOVER COVE GARDEN,寶湖花園,True,5.0,800.0,POINT Z (22.4490458 114.1687609 0),22.4490458,114.16876090000002
6,"PARC VERSAILLES(Block 8),MUI SHU HANG RD|帝欣苑8座,梅樹坑路",NTP,12373916.579051536,4075.0,932.0,12820843.490065167,4114.0,932.0,14918839.341227215,6547.0,1021.0,2.0,4.0,5.0,"['A', 'B', 'C', 'D']",13519087.960037125,5199.333333333333,976.75,6,24,1996/04,25,PARC VERSAILLES,帝欣苑,True,24.0,560.0,POINT Z (22.4522695 114.1547343 0),22.4522695,114.15473429999999
7,"FU CHEONG COURT(Block 1,FORTUNE PLAZA),ON CHEE RD|昌運中心,1座(富昌閣),安慈路",NTP,4539740.0,12788.0,352.0,4733925.0,13335.0,352.0,5339200.0,15040.0,355.0,7.0,15.0,23.0,"['A', 'B', 'C', 'D', 'E', 'F', 'G', 'H']",5014175.416666667,14185.416666666666,353.5,25,200,1988/04,33,FORTUNE PLAZA,昌運中心,True,4.0,800.0,POINT Z (22.4526156 114.1676927 0),22.4526156,114.16769270000002
8,"SAVANNA GARDEN(Block 46),TAI PO RD TAI PO KAU|翡翠花園46座,大埔公路大埔滘段",NTP,12789265.704754587,3937.0,959.0,12907082.95552901,3991.0,959.0,18168493.73409238,10169.0,1317.0,1.0,4.0,6.0,"['A', 'B', 'C', 'D']",14768410.698646164,6122.583333333333,1068.6666666666667,8,32,1988/09,33,SAVANNA GARDEN,翡翠花園,True,6.0,180.0,POINT Z (22.434882 114.1811151 0),22.434882,114.18111509999999
9,"KWEI CHEONG COURT(Block 2,FORTUNE PLAZA),ON CHEE RD|昌運中心,2座(貴昌閣),安慈路",NTP,4831550.0,13610.0,347.0,5063872.0,14386.0,347.0,5458112.0,15506.0,355.0,7.0,15.0,23.0,"['A', 'B', 'C', 'D', 'E', 'F', 'G', 'H']",5186209.375,14698.041666666666,352.8333333333333,25,200,1988/07,33,FORTUNE PLAZA,昌運中心,True,4.0,800.0,POINT Z (22.4526077 114.1680178 0),22.452607699999998,114.1680178
10,"UPTOWN PLAZA(Block 5),NAM WAN RD|新達廣場5座,南運路",NTP,6696170.0,13555.0,478.0,6913530.0,13995.0,478.0,9908496.0,15678.0,632.0,8.0,16.0,25.0,"['A', 'B', 'C', 'D', 'E', 'F', 'G', 'H']",7785945.916666667,14851.791666666666,524.0,26,208,1991/04,30,UPTOWN PLAZA,新達廣場,True,6.0,1200.0,POINT Z (22.4438702 114.1697827 0),22.4438702,114.1697827
11,"EIGHTLAND GARDEN(Block 1),ON CHEE RD|八號花園1座,安慈路",NTP,4347300.0,10217.0,337.0,4447726.0,10480.0,337.0,5621277.0,13741.0,453.0,3.0,8.0,13.0,"['A', 'B', 'C', 'D', 'E', 'F', 'G', 'H', 'J']",4959772.148148148,12162.518518518518,410.77777777777777,15,135,1984/04,37,EIGHTLAND GARDEN,八號花園,True,4.0,540.0,POINT Z (22.4525823 114.166489 0),22.4525823,114.16648899999998
12,"REVE PLAZA,CHUI WO LANE|麗和閣,翠和里",NTP,5095750.0,11694.0,425.0,5237700.0,12205.0,425.0,5777038.0,13342.0,446.0,6.0,15.0,24.0,"['A', 'B', 'C', 'D', 'E', 'F', 'G', 'H']",5436100.791666667,12484.958333333334,435.5,29,232,1991/06,30,blank,,False,,,POINT Z (22.4524393 114.1649524 0),22.4524393,114.1649524
13,"EIGHTLAND GARDEN(Block 3),ON CHEE RD|八號花園3座,安慈路",NTP,4259680.0,11302.0,337.0,4461206.0,11517.0,337.0,5709612.0,13465.0,453.0,3.0,8.0,13.0,"['A', 'B', 'C', 'D', 'E', 'F', 'G', 'H', 'J']",5144434.185185186,12568.407407407407,410.77777777777777,15,135,1984/04,37,EIGHTLAND GARDEN,八號花園,True,4.0,540.0,POINT Z (22.4526241 114.1670889 0),22.4526241,114.1670889
14,"UPTOWN PLAZA(Block 3),NAM WAN RD|新達廣場3座,南運路",NTP,6007534.0,12161.0,478.0,6332586.0,12819.0,478.0,9269280.0,15100.0,632.0,8.0,16.0,25.0,"['A', 'B', 'C', 'D', 'E', 'F', 'G', 'H']",7326096.333333333,14001.708333333334,524.0,26,208,1991/04,30,UPTOWN PLAZA,新達廣場,True,6.0,1200.0,POINT Z (22.4435259 114.1693415 0),22.443525899999997,114.1693415
15,"PO HONG BLDG,PO HEUNG ST|寶康大廈,寶鄉街",NTP,3625730.0,13682.0,265.0,3747895.0,14143.0,265.0,3863965.0,14581.0,265.0,6.0,12.0,19.0,"['A', 'B']",3730007.5,14075.5,265.0,20,40,1992/02,29,blank,,False,,,POINT Z (22.4474238 114.1657884 0),22.447423800000003,114.16578840000001
16,"BEAUTIFUL GARDEN(Block A),CHUI LOK ST|美豐花園A座,翠樂街",NTP,4225941.0,13947.0,300.0,4224000.0,14080.0,300.0,4819200.0,16064.0,303.0,6.0,12.0,17.0,"['1', '2', '3', '4', '5', '6', '7', '8']",4492690.0,14901.541666666666,301.5,18,144,1992/07,29,BEAUTIFUL GARDEN,美豐花園,True,2.0,288.0,POINT Z (22.4541775 114.1641628 0),22.4541775,114.1641628
17,"TAI PO GARDEN(Block D),MUI SHU HANG RD|大埔花園D座,梅樹坑路",NTP,8933881.592674071,3093.0,803.0,8290367.843979663,2808.0,803.0,9342179.68234115,3299.0,858.0,1.0,2.0,3.0,"['1', '2', '3', '4']",9087394.999475678,3149.4166666666665,827.5,5,20,1989/10,32,TAI PO GARDEN,大埔花園,True,10.0,195.0,POINT Z (22.4545599 114.1540376 0),22.4545599,114.1540376
18,"JADE PLAZA(Block C),ON CHEE RD|翠屏花園C座,安慈路",NTP,3834550.0,14399.0,265.0,3951180.0,14634.0,265.0,4361904.0,16158.0,276.0,5.0,12.0,18.0,"['1', '2', '3', '4', '5', '6', '7', '8']",4072834.8333333335,15141.666666666666,269.0,22,176,1986/02,35,JADE PLAZA,翠屏花園,True,4.0,704.0,POINT Z (22.4532334 114.1676462 0),22.4532334,114.16764620000001
19,"PARC VERSAILLES(Block 18),MUI SHU HANG RD|帝欣苑18座,梅樹坑路",NTP,10293075.014871692,10032.0,990.0,10376370.401353434,10121.0,990.0,10964931.621128466,10571.0,1024.0,2.0,4.0,5.0,"['A', 'B', 'C', 'D']",10700757.258515256,10454.02777777778,1007.75,6,24,1996/04,25,PARC VERSAILLES,帝欣苑,True,24.0,560.0,POINT Z (22.4520058 114.155849 0),22.452005800000002,114.155849
20,"SERENITY PARK(Block 6),TAI PO TAU RD|太湖花園6座,大埔頭路",NTP,5015589.0,13499.0,359.0,5223809.0,13791.0,359.0,6529377.0,15698.0,443.0,4.0,12.0,20.0,"['A', 'B', 'C', 'D', 'E', 'F', 'G', 'H']",5663213.625,14504.291666666666,391.125,22,176,1992/03,29,SERENITY PARK,太湖花園,True,15.0,3200.0,POINT Z (22.4536675 114.161051 0),22.453667499999998,114.161051
21,"JADE PLAZA(Block B),ON CHEE RD|翠屏花園B座,安慈路",NTP,3960425.0,14600.0,265.0,3805920.0,13989.0,265.0,4545720.0,16638.0,276.0,5.0,12.0,18.0,"['1', '2', '3', '4', '5', '6', '7', '8']",4192119.6666666665,15411.333333333334,272.3333333333333,22,176,1986/02,35,JADE PLAZA,翠屏花園,True,4.0,704.0,POINT Z (22.4530343 114.1680669 0),22.4530343,114.1680669
22,"WAH CHEONG COURT(Block 4,FORTUNE PLAZA),ON CHEE RD|昌運中心,4座(華昌閣),安慈路",NTP,4890835.0,13777.0,352.0,5012600.0,14120.0,352.0,5522735.0,15557.0,355.0,7.0,15.0,23.0,"['A', 'B', 'C', 'D', 'E', 'F', 'G', 'H']",5204402.166666667,14722.416666666666,353.5,25,200,1988/04,33,FORTUNE PLAZA,昌運中心,True,4.0,800.0,POINT Z (22.4522437 114.1683894 0),22.4522437,114.16838940000001
23,"SERENITY PARK(Block 16),TAI PO TAU DR|太湖花園16座,大埔頭徑",NTP,5705147.0,12778.0,427.0,5904556.0,13059.0,427.0,6767748.0,14461.0,468.0,6.0,14.0,21.0,"['A', 'B', 'C', 'D', 'E', 'F', 'G', 'H']",6154985.625,13762.375,447.5,20,160,1994/12,27,SERENITY PARK,太湖花園,True,15.0,3200.0,POINT Z (22.453968 114.159704 0),22.453968,114.159704
24,"SERENITY PARK(Block 18),TAI PO TAU DR|太湖花園18座,大埔頭徑",NTP,5317651.0,11311.0,421.0,5602207.0,11647.0,421.0,8952265.0,13951.0,685.0,5.0,12.0,21.0,"['A', 'B', 'C', 'D', 'E', 'F', 'G', 'H']",7172510.833333333,12823.25,560.25,21,168,1994/12,27,SERENITY PARK,太湖花園,True,15.0,3200.0,POINT Z (22.4544759 114.1600756 0),22.4544759,114.1600756
25,"TREASURE GARDEN(Block A),ON CHEE RD|海寶花園A座,安慈路",NTP,4792400.0,11192.0,398.0,4920400.0,11503.0,398.0,6613360.0,13095.0,528.0,3.0,8.0,13.0,"['1', '2', '3', '4', '5', '6', '7', '8']",5620570.583333333,12273.5,459.25,15,120,1986/10,35,TREASURE GARDEN,海寶花園,True,4.0,480.0,POINT Z (22.4535883 114.166369 0),22.4535883,114.16636899999999
26,"EVERGREEN COURT(Block 1),CHUI LOK ST|翠林閣1座,翠樂街",NTP,5566424.0,10936.0,509.0,5740502.0,11278.0,509.0,7934976.0,12096.0,656.0,7.0,12.0,18.0,"['A', 'B', 'C', 'D', 'E', 'F', 'G', 'H']",6672860.083333333,11513.916666666666,579.0,18,144,1991/05,30,EVERGREEN COURT,翠林閣,True,2.0,288.0,POINT Z (22.4536254 114.1640699 0),22.4536254,114.1640699
27,"GREENERY PLAZA(Block A),CHUI YI ST|翠怡花園A座,翠怡街",NTP,4587732.0,12576.0,320.0,4721920.0,12732.0,320.0,6172280.0,15662.0,460.0,4.0,11.0,18.0,"['1', '2', '3', '4', '5', '6', '7', '8']",5241917.0,14169.916666666666,373.25,21,168,1986/12,35,GREENERY PLAZA,翠怡花園,True,3.0,496.0,POINT Z (22.4524601 114.1635823 0),22.452460100000003,114.16358229999999
28,"JADE PLAZA(Block D),ON CHEE RD|翠屏花園D座,安慈路",NTP,3658325.0,13805.0,260.0,3637390.0,13726.0,260.0,4598160.0,16660.0,276.0,5.0,12.0,18.0,"['1', '2', '3', '4', '5', '6', '7', '8']",4060686.7083333335,15171.333333333334,267.6666666666667,22,176,1986/02,35,JADE PLAZA,翠屏花園,True,4.0,704.0,POINT Z (22.4534078 114.1676462 0),22.4534078,114.16764620000001
29,"SERENITY PARK(Block 5),TAI PO TAU RD|太湖花園5座,大埔頭路",NTP,4983279.0,13296.0,359.0,5219501.0,13810.0,359.0,6462927.0,15137.0,443.0,4.0,12.0,20.0,"['A', 'B', 'C', 'D', 'E', 'F', 'G', 'H']",5587417.166666667,14316.208333333334,391.125,22,176,1992/03,29,SERENITY PARK,太湖花園,True,15.0,3200.0,POINT Z (22.4537733 114.1607955 0),22.4537733,114.1607955
30,"TAI WO CTR(Block 2),TAI PO TAI WO RD|太和中心2座,大埔太和路",NTP,4123128.0,13836.0,298.0,4301630.0,14435.0,298.0,4686348.0,15726.0,303.0,6.0,14.0,21.0,"['A', 'B', 'C', 'D', 'E', 'F', 'G', 'H']",4408867.5,14764.166666666666,298.625,24,192,1987/05,34,TAI WO CTR,太和中心,True,2.0,384.0,POINT Z (22.4520332 114.164488 0),22.4520332,114.16448799999999
31,"PLOVER COVE GARDEN(Block E),PLOVER COVE RD|寶湖花園E座,寶湖道",NTP,4660410.0,13165.0,354.0,4865730.0,12241.0,354.0,7143907.0,14430.0,563.0,4.0,10.0,17.0,"['1', '2', '3', '4', '5', '6', '7', '8']",5198762.8,13704.533333333335,458.5,20,160,1990/05,31,PLOVER COVE GARDEN,寶湖花園,True,5.0,800.0,POINT Z (22.449176 114.1690396 0),22.449176,114.16903959999999
32,"FOREST PLACE(FOREST HILL),LO FAI RD|倚龍山莊(倚龍居),露輝路",NTP,6609707.467674988,9534.0,563.0,6609707.467674988,9534.0,563.0,13118721.0,11442.0,1281.0,0.0,0.0,0.0,"['18A', '18B', '18C', '1A', '1B', '1C', '1D', '1E', '1H', '28A', '28B', '28C', '28D', '2A', '2B', '2C', '2D', '2E', '2F', '36A', '36B', '36C', '36D', '36E', '36F', '36G', '36H', '37A', '37B', '37C', '37D', '37E', '3A', '3B', '3C', '3D', '3E', '3F', '3G', '3H', '5A', '5C', '5D', '6A', '6B', '6C', '6D', '7A', '7B', '7C', '7D', '8A', '8B', '8C', '8E', '8F', '9B', '9C', '9E', '9F']",9368356.257794583,10655.683333333332,885.2666666666668,1,60,1996/05,25,FOREST HILL,倚龍山莊,True,2.0,159.0,POINT Z (22.465262 114.196435 0),22.465262,114.19643500000001
33,"UPTOWN PLAZA(Block 4),NAM WAN RD|新達廣場4座,南運路",NTP,6698146.0,13559.0,478.0,6725460.0,13622.0,478.0,9358024.0,15367.0,632.0,8.0,16.0,25.0,"['A', 'B', 'C', 'D', 'E', 'F', 'G', 'H']",7478858.75,14280.416666666666,524.0,26,208,1991/04,30,UPTOWN PLAZA,新達廣場,True,6.0,1200.0,POINT Z (22.443467 114.169713 0),22.443467000000002,114.16971299999999
34,"WING CHEONG COURT(Block 3,FORTUNE PLAZA),ON CHEE RD|昌運中心,3座(榮昌閣),安慈路",NTP,4764672.0,13536.0,352.0,4923424.0,13987.0,352.0,5327840.0,15008.0,355.0,7.0,15.0,23.0,"['A', 'B', 'C', 'D', 'E', 'F', 'G', 'H']",5018424.875,14196.375,353.5,25,200,1988/07,33,FORTUNE PLAZA,昌運中心,True,4.0,800.0,POINT Z (22.4525489 114.1683894 0),22.452548899999996,114.16838940000001
35,"BEAUTIFUL GARDEN(Block B),CHUI LOK ST|美豐花園B座,翠樂街",NTP,4290177.0,14159.0,300.0,4450161.0,14687.0,300.0,4741950.0,15650.0,303.0,6.0,12.0,17.0,"['1', '2', '3', '4', '5', '6', '7', '8']",4500485.25,14927.75,301.5,18,144,1992/07,29,BEAUTIFUL GARDEN,美豐花園,True,2.0,288.0,POINT Z (22.4543802 114.1645344 0),22.4543802,114.16453440000001
36,"SAVANNA GARDEN(Block 48),TAI PO RD TAI PO KAU|翡翠花園48座,大埔公路大埔滘段",NTP,11799019.28000922,8322.0,959.0,11905290.156686809,4970.0,959.0,22479661.738792267,12207.0,1317.0,1.0,3.0,5.0,"['A', 'B', 'C', 'D']",14805159.00031252,8946.333333333334,1068.6666666666667,7,28,1988/09,33,SAVANNA GARDEN,翡翠花園,True,6.0,180.0,POINT Z (22.4343651 114.181626 0),22.4343651,114.181626
37,"88 SQUARE,PO HEUNG ST|88廣場,寶鄉街",NTP,3997193.535466712,11729.0,320.0,4047429.333965678,12289.0,320.0,4526454.760583878,13926.0,349.0,8.0,16.0,22.0,"['A', 'B', 'C', 'D']",4293074.024423391,12663.083333333334,333.75,20,80,1994/03,27,blank,,False,,,POINT Z (22.4481996 114.1666709 0),22.448199600000002,114.1666709
38,"SERENITY PARK(Block 8),TAI PO TAU RD|太湖花園8座,大埔頭路",NTP,5081645.0,13166.0,359.0,5189345.0,13476.0,359.0,8506120.0,15188.0,595.0,4.0,11.0,20.0,"['A', 'B', 'C', 'D', 'E', 'F', 'G', 'H']",6707551.666666667,13998.5,480.7916666666667,21,168,1991/12,30,SERENITY PARK,太湖花園,True,15.0,3200.0,POINT Z (22.4534847 114.1616548 0),22.453484699999997,114.1616548
39,"GREENERY PLAZA(Block B),CHUI YI ST|翠怡花園B座,翠怡街",NTP,4373625.0,12641.0,320.0,4537014.0,13059.0,320.0,6551320.0,15349.0,460.0,4.0,11.0,18.0,"['1', '2', '3', '4', '5', '6', '7', '8']",5206053.041666667,14016.083333333334,373.25,21,168,1986/12,35,GREENERY PLAZA,翠怡花園,True,3.0,496.0,POINT Z (22.452755 114.1632339 0),22.452755,114.16323390000001
40,"SERENITY PARK(Block 15),TAI PO TAU RD|太湖花園15座,大埔頭路",NTP,5936745.0,11304.0,445.0,6135215.0,13787.0,445.0,9220835.0,14870.0,635.0,4.0,11.0,20.0,"['A', 'B', 'C', 'D', 'E', 'F', 'G', 'H']",7460147.416666667,13873.166666666666,537.4166666666666,21,168,1992/03,29,SERENITY PARK,太湖花園,True,15.0,3200.0,POINT Z (22.4540719 114.1623515 0),22.4540719,114.16235149999999
41,"TONY COURT,TUNG CHEONG ST|東昌閣,東昌街",NTP,3890306.0,11342.0,343.0,4042255.0,11550.0,343.0,4552548.0,12537.0,379.0,5.0,14.0,23.0,"['A', 'B', 'C', 'D']",4320387.5,11967.5,361.0,27,108,1985/08,36,blank,,False,,,POINT Z (22.4480052 114.1695505 0),22.4480052,114.16955049999999
42,"KAM FU BLDG,ON FU RD|金富樓,安富道",NTP,3562920.0,9706.0,360.0,3661560.0,9975.0,360.0,4526720.0,10951.0,440.0,6.0,12.0,19.0,"['A', 'B', 'C', 'D']",4067986.6666666665,10190.0,400.0,19,76,1976/10,45,blank,,False,,,POINT Z (22.447516 114.1650685 0),22.447516,114.1650685
43,"UPTOWN PLAZA(Block 1),NAM WAN RD|新達廣場1座,南運路",NTP,6410458.0,13058.0,478.0,6658540.0,13547.0,478.0,8886828.0,15149.0,632.0,8.0,16.0,25.0,"['A', 'B', 'C', 'D', 'E', 'F', 'G', 'H']",7363897.083333333,14079.416666666666,524.0,26,208,1991/04,30,UPTOWN PLAZA,新達廣場,True,6.0,1200.0,POINT Z (22.443716 114.1686912 0),22.443716000000002,114.1686912
44,"JADE PLAZA(Block A),ON CHEE RD|翠屏花園A座,安慈路",NTP,3820116.0,13841.0,265.0,3944700.0,14476.0,265.0,4337785.0,16369.0,276.0,5.0,12.0,18.0,"['1', '2', '3', '4', '5', '6', '7', '8']",4093951.7916666665,15241.916666666666,268.75,22,176,1986/02,35,JADE PLAZA,翠屏花園,True,4.0,704.0,POINT Z (22.4530721 114.1683894 0),22.453072100000004,114.16838940000001
45,"KWONG ON BLDG,WAN TAU ST|廣安大廈,運頭街",NTP,4112387.6742932615,8485.0,344.0,4150333.5813224954,8563.0,344.0,4986364.727111479,12270.0,410.0,6.0,8.0,11.0,"['A', 'B', 'C', 'D', 'E', 'F']",4291402.473555905,10853.166666666666,355.8888888888889,10,60,1982/07,39,blank,,False,,,POINT Z (22.4471461 114.1685055 0),22.4471461,114.1685055
46,"CRANSTOWN BLDG,SUI ON ST|康城樓,瑞安街",NTP,1466641.114371536,4946.0,216.0,1473461.3217371942,4969.0,216.0,1970720.8246447144,8892.0,289.0,2.0,3.0,4.0,"['A', 'B', 'C', 'D']",1700536.1051547267,6851.916666666667,252.5,5,20,1978/08,43,blank,,False,,,POINT Z (22.4490299 114.163768 0),22.4490299,114.16376799999999
47,"SERENITY PARK(Block 11),TAI PO TAU RD|太湖花園11座,大埔頭路",NTP,4952764.0,13435.0,359.0,5137290.0,13885.0,359.0,6921882.0,15436.0,473.0,4.0,12.0,20.0,"['A', 'B', 'C', 'D', 'E', 'F', 'G', 'H']",5712555.375,14571.958333333334,392.375,22,176,1992/03,29,SERENITY PARK,太湖花園,True,15.0,3200.0,POINT Z (22.4541494 114.1617244 0),22.4541494,114.1617244
48,"SERENITY PARK(Block 2),TAI PO TAU RD|太湖花園2座,大埔頭路",NTP,5334740.0,14023.0,359.0,,,328.0,,,961.0,20.0,66.0,101.0,"['A', 'B', 'C', 'D', 'E', 'F', 'G', 'H']",6075522.75,14626.125,442.0833333333333,99,792,1992/03,29,SERENITY PARK,太湖花園,True,15.0,3200.0,POINT Z (22.4538797 114.1602614 0),22.453879699999998,114.16026140000001
49,"YEE TAK COURT(Block 3,TAI PO PLAZA),ON TAI RD|大埔廣場,3座(宜德閣),安泰路",NTP,4961032.0,11756.0,422.0,4990572.0,11539.0,422.0,6206556.0,13262.0,488.0,7.0,17.0,27.0,"['A', 'B', 'C', 'D', 'E', 'F', 'G', 'H']",5547755.583333333,12336.25,449.75,31,248,1984/12,37,TAI PO PLAZA,大埔廣場,True,5.0,1392.0,POINT Z (22.452909 114.170445 0),22.452909,114.170445
50,"TAI WO CTR(Block 1),TAI PO TAI WO RD|太和中心1座,大埔太和路",NTP,4017040.0,13480.0,298.0,4215806.0,14147.0,298.0,4553142.0,15279.0,298.0,6.0,14.0,21.0,"['A', 'B', 'C', 'D', 'E', 'F', 'G', 'H']",4341164.666666667,14567.666666666666,298.0,24,192,1987/05,34,TAI WO CTR,太和中心,True,2.0,384.0,POINT Z (22.4521793 114.1641164 0),22.4521793,114.16411640000001
51,"PLOVER COVE GARDEN(Block C),PLOVER COVE RD|寶湖花園C座,寶湖道",NTP,4681650.0,11900.0,354.0,4850508.0,12241.0,354.0,7297024.0,14413.0,509.0,4.0,10.0,17.0,"['1', '2', '3', '4', '5', '6', '7', '8']",5780656.125,13464.5,431.5,20,160,1990/05,31,PLOVER COVE GARDEN,寶湖花園,True,5.0,800.0,POINT Z (22.4491845 114.1684358 0),22.4491845,114.1684358
52,"EVERGREEN COURT(Block 2),CHUI LOK ST|翠林閣2座,翠樂街",NTP,5839248.0,11472.0,509.0,5932904.0,11656.0,509.0,8257728.0,12588.0,656.0,7.0,12.0,18.0,"['A', 'B', 'C', 'D', 'E', 'F', 'G', 'H']",6921672.166666667,11942.083333333334,579.0,18,144,1991/05,30,EVERGREEN COURT,翠林閣,True,2.0,288.0,POINT Z (22.4537641 114.1637448 0),22.4537641,114.16374479999999
53,"FULL SCENE GARDEN(Block 2),TING KOK RD|富善花園2座,汀角路",NTP,4579680.0,11155.0,376.0,4763544.0,11707.0,376.0,5627541.0,13843.0,453.0,5.0,14.0,23.0,"['A', 'B', 'C', 'D', 'E', 'F', 'G', 'H']",5116427.791666667,12492.208333333334,411.0,27,216,1990/03,31,FULL SCENE GARDEN,富善花園,True,3.0,464.0,POINT Z (22.4528248 114.1647202 0),22.452824800000002,114.1647202
54,"LAGOON COURT,PLOVER COVE RD|麗湖閣,寶湖道",NTP,5548000.0,12894.0,400.0,5709600.0,13297.0,400.0,8193796.0,14828.0,598.0,6.0,11.0,16.0,"['A', 'B', 'C', 'D', 'E', 'F', 'G', 'H']",6201187.80952381,14083.77777777778,461.5,17,136,1996/02,25,blank,,False,,,POINT Z (22.4481972 114.1698524 0),22.4481972,114.1698524
55,"TREASURE GARDEN(Block B),ON CHEE RD|海寶花園B座,安慈路",NTP,4463600.0,11052.0,398.0,4574800.0,11325.0,398.0,6118464.0,12042.0,528.0,3.0,8.0,13.0,"['1', '2', '3', '4', '5', '6', '7', '8']",5297659.291666667,11553.916666666666,459.25,15,120,1986/12,35,TREASURE GARDEN,海寶花園,True,4.0,480.0,POINT Z (22.4533267 114.166369 0),22.453326699999998,114.16636899999999
56,"HONG MAN COURT(Block 5,SUN HING GARDEN),ON PO LANE|新興花園,5座(康民閣),安埔里",NTP,4846744.0,9836.0,424.0,4932654.0,10116.0,424.0,6159402.0,12056.0,592.0,4.0,10.0,15.0,"['A', 'B', 'C', 'D', 'E', 'F', 'G', 'H', 'I', 'J']",5616470.674074073,10855.837037037038,517.2666666666667,18,180,1986/05,35,SUN HING GARDEN,新興花園,True,5.0,1450.0,POINT Z (22.4540949 114.1729409 0),22.454094899999998,114.1729409
57,"UPTOWN PLAZA(Block 6),NAM WAN RD|新達廣場6座,南運路",NTP,6756438.0,13677.0,478.0,6980220.0,13653.0,478.0,9774512.0,15564.0,632.0,7.0,14.0,20.0,"['A', 'B', 'C', 'D', 'E', 'F', 'G', 'H']",7742752.583333333,14775.833333333334,524.0,20,160,1991/04,30,UPTOWN PLAZA,新達廣場,True,6.0,1200.0,POINT Z (22.4440501 114.1687841 0),22.444050100000002,114.1687841
58,"HONG SHING COURT(Block 4,SUN HING GARDEN),ON PO LANE|新興花園,4座(康誠閣),安埔里",NTP,4570296.0,10284.0,424.0,4806132.0,10809.0,424.0,6765376.0,11979.0,592.0,6.0,16.0,27.0,"['A', 'B', 'C', 'D', 'E', 'F', 'G', 'H', 'I', 'J']",5872936.666666667,11050.133333333333,532.4,32,320,1986/05,35,SUN HING GARDEN,新興花園,True,5.0,1450.0,POINT Z (22.454084 114.173457 0),22.454083999999998,114.17345700000001
59,"PARC VERSAILLES(Block 10),MUI SHU HANG RD|帝欣苑10座,梅樹坑路",NTP,9860265.29160297,9721.0,932.0,9903298.163111275,10042.0,932.0,10477160.076323885,10456.0,1025.0,2.0,4.0,5.0,"['A', 'B', 'C', 'D']",10102498.621838404,10196.444444444445,979.0,6,24,1996/04,25,PARC VERSAILLES,帝欣苑,True,24.0,560.0,POINT Z (22.4520147 114.1549665 0),22.4520147,114.1549665
60,"NAM SHING MANSION,NAM SHING ST|南盛大廈,南盛街",NTP,3839560.248632642,7475.0,390.0,3893182.0384520036,7586.0,390.0,4053932.651319959,9872.0,390.0,3.0,6.0,9.0,"['A', 'B']",3942012.7162101655,8661.833333333334,390.0,11,22,1988/03,33,blank,,False,,,POINT Z (22.4479396 114.1658349 0),22.4479396,114.16583490000002
61,"SERENITY PARK(Block 12),TAI PO TAU RD|太湖花園12座,大埔頭路",NTP,5138726.0,13190.0,359.0,5307815.0,13742.0,359.0,8454000.0,15013.0,600.0,4.0,12.0,20.0,"['A', 'B', 'C', 'D', 'E', 'F', 'G', 'H']",6514495.0,14205.333333333334,460.5416666666667,22,176,1992/03,29,SERENITY PARK,太湖花園,True,15.0,3200.0,POINT Z (22.4540798 114.1620263 0),22.454079800000002,114.16202630000001
62,"LUEN FUNG BLDG,PO HEUNG ST|聯豐大廈,寶鄉街",NTP,,,390.0,,,390.0,,,630.0,7.0,10.0,12.0,"['A', 'B', 'D', 'E', 'F']",,,500.0,8,40,1980/10,41,blank,,False,,,POINT Z (22.4477313 114.1664619 0),22.4477313,114.1664619
63,"PARC VERSAILLES(Block 5),MUI SHU HANG RD|帝欣苑5座,梅樹坑路",NTP,9403160.567581417,9733.0,932.0,9493051.4547321,9825.0,932.0,10696049.024317848,10210.0,1021.0,2.0,4.0,5.0,"['A', 'B', 'C', 'D']",9893981.471185474,9921.138888888889,976.75,6,24,1996/04,25,PARC VERSAILLES,帝欣苑,True,24.0,560.0,POINT Z (22.452757 114.1544092 0),22.452757000000002,114.15440919999999
64,"PARC VERSAILLES(Block 34),MUI SHU HANG RD|帝欣苑34座,梅樹坑路",NTP,10932497.444901118,6802.0,991.0,11078174.153605537,6890.0,991.0,15134608.908001082,8255.0,1001.0,2.0,4.0,5.0,"['A', 'B', 'C', 'D']",12893619.223366117,7602.916666666667,996.5,6,24,1996/04,25,PARC VERSAILLES,帝欣苑,True,24.0,560.0,POINT Z (22.4534967 114.1552452 0),22.4534967,114.15524520000001
65,"FULL SCENE GARDEN(Block 1),TING KOK RD|富善花園1座,汀角路",NTP,4729328.0,11507.0,376.0,4744368.0,11674.0,376.0,5691039.0,13678.0,453.0,6.0,14.0,23.0,"['A', 'B', 'C', 'D', 'E', 'F', 'G', 'H']",5143343.75,12556.916666666666,411.0,26,208,1990/03,31,FULL SCENE GARDEN,富善花園,True,3.0,464.0,POINT Z (22.4527626 114.1649756 0),22.452762600000003,114.1649756
66,"GREENERY PLAZA(Block C),CHUI YI ST|翠怡花園C座,翠怡街",NTP,4330010.0,13774.0,288.0,4444175.0,14228.0,288.0,6914290.0,16223.0,482.0,4.0,10.0,17.0,"['1', '2', '3', '4', '5', '6', '7', '8']",5057548.333333333,14968.416666666666,340.625,20,160,1986/12,35,GREENERY PLAZA,翠怡花園,True,3.0,496.0,POINT Z (22.4529412 114.1627462 0),22.452941199999998,114.1627462
67,"EIGHTLAND GARDEN(Block 4),ON CHEE RD|八號花園4座,安慈路",NTP,4390773.0,11750.0,337.0,4348606.0,11718.0,337.0,5755365.0,13568.0,453.0,3.0,8.0,13.0,"['A', 'B', 'C', 'D', 'E', 'F', 'G', 'H', 'J']",5119489.074074074,12512.185185185184,410.77777777777777,15,135,1984/04,37,EIGHTLAND GARDEN,八號花園,True,4.0,540.0,POINT Z (22.4523262 114.1670424 0),22.452326199999998,114.16704240000001
68,"TAI PO GARDEN(Block B),MUI SHU HANG RD|大埔花園B座,梅樹坑路",NTP,8443245.943783352,7803.0,803.0,8484363.891478311,7767.0,803.0,9004671.457547823,10929.0,846.0,1.0,2.0,3.0,"['2', '3', '4']",8705842.095737109,8745.444444444445,817.3333333333334,5,15,1989/12,32,TAI PO GARDEN,大埔花園,True,10.0,195.0,POINT Z (22.4543277 114.1538518 0),22.4543277,114.1538518
69,"SERENITY PARK(Block 10),TAI PO TAU RD|太湖花園10座,大埔頭路",NTP,5001947.0,12883.0,359.0,5186114.0,12916.0,359.0,6506341.0,15540.0,443.0,4.0,12.0,20.0,"['A', 'B', 'C', 'D', 'E', 'F', 'G', 'H']",5577326.666666667,14263.833333333334,392.2083333333333,22,176,1992/03,29,SERENITY PARK,太湖花園,True,15.0,3200.0,POINT Z (22.4542117 114.161469 0),22.4542117,114.161469
70,"SERENITY PARK(Block 1),TAI PO TAU RD|太湖花園1座,大埔頭路",NTP,5610891.0,12441.0,450.0,5919750.0,12984.0,450.0,8632602.0,14533.0,595.0,4.0,11.0,20.0,"['A', 'B', 'C', 'D', 'E', 'F', 'G', 'H']",7106962.416666667,13466.916666666666,525.7083333333334,21,168,1992/03,29,SERENITY PARK,太湖花園,True,15.0,3200.0,POINT Z (22.4543661 114.1604936 0),22.4543661,114.1604936
71,"PLOVER COVE GARDEN(Block B),PLOVER COVE RD|寶湖花園B座,寶湖道",NTP,4389954.0,12401.0,354.0,4517748.0,12762.0,354.0,7404576.0,14150.0,563.0,4.0,10.0,17.0,"['1', '2', '3', '4', '5', '6', '7', '8']",5858413.958333333,13171.416666666666,445.0,20,160,1990/05,31,PLOVER COVE GARDEN,寶湖花園,True,5.0,800.0,POINT Z (22.4493232 114.1681107 0),22.4493232,114.16811070000001
72,"TREASURE GARDEN(Block C),ON CHEE RD|海寶花園C座,安慈路",NTP,4813200.0,11474.0,398.0,4946000.0,11772.0,398.0,6531360.0,12937.0,528.0,3.0,8.0,13.0,"['1', '2', '3', '4', '5', '6', '7', '8']",5591370.541666667,12210.875,459.25,15,120,1986/12,35,TREASURE GARDEN,海寶花園,True,4.0,480.0,POINT Z (22.4531365 114.1670192 0),22.4531365,114.1670192
73,"BONG HING BLDG,SUI ON ST|邦興大樓,瑞安街",NTP,3380544.0,9556.0,288.0,3434976.0,10570.0,288.0,5228532.0,12450.0,467.0,4.0,6.0,9.0,"['A', 'B', 'C', 'D', 'E', 'F', 'G', 'H']",4259319.120214245,11211.255555555554,368.0,10,80,1980/10,41,blank,,False,,,POINT Z (22.4492631 114.1633965 0),22.449263100000003,114.1633965
74,"MEE LEE BLDG,KAU HUI CHIK ST|美利大廈,舊墟直街",NTP,3664050.0,10747.0,325.0,3715725.0,10873.0,325.0,5191494.0,11897.0,462.0,3.0,6.0,9.0,"['A', 'B', 'C', 'D', 'E', 'F', 'G', 'H']",4553728.041666667,11258.291666666666,405.375,11,88,1981/12,40,blank,,False,,,POINT Z (22.4545016 114.1650814 0),22.4545016,114.1650814
75,"SHUN KING BLDG,KAU HUI CHIK ST|順景樓,舊墟直街",NTP,4290170.025666889,9704.0,416.0,4409258.418579143,10024.0,416.0,5016684.740298661,11148.0,480.0,8.0,14.0,19.0,"['A', 'B', 'C']",4717592.374530044,10411.666666666666,442.3333333333333,18,54,1984/10,37,blank,,False,,,POINT Z (22.4540558 114.1650685 0),22.454055800000003,114.1650685
76,"TAI PO GARDEN(Block H),MUI SHU HANG RD|大埔花園H座,梅樹坑路",NTP,7896492.931570898,3262.0,803.0,7927802.064646826,3277.0,803.0,9719334.381189834,10100.0,858.0,1.0,2.0,3.0,"['1', '2', '3', '4']",8600992.962278506,7574.833333333333,827.5,5,20,1989/12,32,TAI PO GARDEN,大埔花園,True,10.0,195.0,POINT Z (22.4541444 114.1547343 0),22.4541444,114.15473429999999
77,"PARC VERSAILLES(Block 24),MUI SHU HANG RD|帝欣苑24座,梅樹坑路",NTP,11949709.232520524,11752.0,991.0,12049357.931021802,11850.0,991.0,12133754.27771166,11933.0,1021.0,2.0,4.0,5.0,"['A', 'B', 'C', 'D']",11840798.650690326,11592.333333333334,1007.75,6,24,1996/04,25,PARC VERSAILLES,帝欣苑,True,24.0,560.0,POINT Z (22.4529068 114.1559419 0),22.4529068,114.1559419
78,"TAI PO GARDEN(Block C),MUI SHU HANG RD|大埔花園C座,梅樹坑路",NTP,8521740.0,9909.0,803.0,,,803.0,,,860.0,1.0,2.0,3.0,"['1', '2', '3', '4']",8521740.0,9909.0,827.5,5,20,1989/10,32,TAI PO GARDEN,大埔花園,True,10.0,195.0,POINT Z (22.454325 114.153832 0),22.454325,114.15383200000001
79,"PARC VERSAILLES(Block 32),MUI SHU HANG RD|帝欣苑32座,梅樹坑路",NTP,,,887.0,,,887.0,,,947.0,2.0,4.0,5.0,"['A', 'B', 'C', 'D']",,,917.75,6,24,1996/04,25,PARC VERSAILLES,帝欣苑,True,24.0,560.0,POINT Z (22.4539474 114.1551523 0),22.453947399999997,114.1551523
80,"SERENITY PARK(Block 9),TAI PO TAU RD|太湖花園9座,大埔頭路",NTP,5153445.0,13459.0,352.0,5301712.0,13973.0,359.0,7633248.0,15403.0,518.0,4.0,12.0,20.0,"['A', 'B', 'C', 'D', 'E', 'F', 'G', 'H']",5813355.0,14509.958333333334,401.25,22,176,1992/03,29,SERENITY PARK,太湖花園,True,15.0,3200.0,POINT Z (22.4542558 114.1611903 0),22.454255800000002,114.16119029999999
81,"SERENITY PARK(Block 7),TAI PO TAU RD|太湖花園7座,大埔頭路",NTP,5033898.0,13402.0,359.0,5241041.0,13872.0,359.0,6415969.0,15451.0,443.0,4.0,12.0,20.0,"['A', 'B', 'C', 'D', 'E', 'F', 'G', 'H']",5668884.458333333,14529.958333333334,391.125,22,176,1992/03,29,SERENITY PARK,太湖花園,True,15.0,3200.0,POINT Z (22.4535288 114.1613761 0),22.4535288,114.1613761
82,"PARC VERSAILLES(Block 23),MUI SHU HANG RD|帝欣苑23座,梅樹坑路",NTP,10958422.3093295,10440.0,1004.0,11773723.872729909,11382.0,1004.0,12047966.596406512,11481.0,1025.0,2.0,4.0,5.0,"['A', 'B', 'C', 'D']",11729624.242946016,11293.444444444445,1015.5,6,24,1996/04,25,PARC VERSAILLES,帝欣苑,True,24.0,560.0,POINT Z (22.4526961 114.1558955 0),22.4526961,114.15589550000001
83,"TAI WAN BLDG,TAI KWONG LANE|大運大廈,大光里",NTP,3636907.0,9966.0,347.0,3807978.0,10294.0,347.0,4793360.0,11269.0,440.0,5.0,12.0,18.0,"['A', 'B', 'C', 'D', 'E', 'F', 'G', 'H', 'J']",4176364.4814814813,10637.666666666666,393.1481481481482,20,180,1974/11,47,blank,,False,,,POINT Z (22.446966 114.1673394 0),22.446966,114.1673394
84,"UPTOWN PLAZA(Block 2),NAM WAN RD|新達廣場2座,南運路",NTP,6657584.0,13520.0,478.0,6858344.0,14049.0,478.0,9649376.0,15268.0,632.0,8.0,16.0,25.0,"['A', 'B', 'C', 'D', 'E', 'F', 'G', 'H']",7562126.333333333,14435.0,524.0,26,208,1991/04,30,UPTOWN PLAZA,新達廣場,True,6.0,1200.0,POINT Z (22.4436391 114.1690396 0),22.4436391,114.16903959999999
85,"FOREST HILL,LO FAI RD|倚龍山莊,露輝路",NTP,7869758.778564183,5351.0,678.0,7869758.778564183,5351.0,678.0,14981280.0,9988.0,1618.0,0.0,0.0,0.0,"['10A', '10B', '10C', '10D', '11A', '11B', '11C', '12A', '12B', '12D', '13A', '13B', '13C', '13D', '15A', '15B', '15C', '16A', '16B', '16C', '16D', '17A', '17B', '17C', '17D', '18A', '18B', '18C', '18D', '19A', '19B', '19C', '19D', '1C', '1D', '20A', '20B', '20D', '21A', '21B', '21C', '21D', '22A', '22B', '22C', '22D', '23A', '23B', '23C', '25A', '25B', '25C', '26A', '26B', '26C', '26D', '27A', '27B', '27C', '27D', '29A', '29B', '29D', '2A', '2D', '30A', '30B', '30C', '31A', '31B', '31C', '31D', '32A', '32B', '32C', '32D', '33A', '33B', '33C', '35A', '35B', '35C', '36A', '36B', '36D', '37B', '37C', '3C', '5A', '5B', '5C', '5D', '6D', '7A', '7B', '7C', '9A', '9B', '9C']",13469881.918121027,8765.054945054944,1429.111111111111,1,99,1996/05,25,FOREST HILL,倚龍山莊,True,2.0,159.0,POINT Z (22.465262 114.196435 0),22.465262,114.19643500000001
86,"WING FAI GARDEN,TING KOK RD|榮暉花園,汀角路",NTP,5345660.0,10889.0,460.0,5281720.0,11104.0,460.0,7695000.0,12825.0,600.0,7.0,14.0,22.0,"['A', 'B', 'C', 'D', 'E', 'F', 'G', 'H']",6225815.833333333,11771.625,530.0,24,192,1990/04,31,blank,,False,,,POINT Z (22.45339 114.1655562 0),22.45339,114.1655562
87,"TAI PO GARDEN(Block L),MUI SHU HANG RD|大埔花園L座,梅樹坑路",NTP,8042476.356146853,9287.0,803.0,8262003.512201811,9363.0,803.0,8897561.265445964,10799.0,860.0,1.0,2.0,3.0,"['1', '2', '3', '4']",8611811.475333204,10235.194444444445,827.5,5,20,1989/12,32,TAI PO GARDEN,大埔花園,True,10.0,195.0,POINT Z (22.4535614 114.1546298 0),22.453561399999998,114.1546298
88,"RICHWOOD PARK(Block 8),LO FAI RD|嘉豐花園8座,露輝路",NTP,9003865.0,9669.0,323.0,9003865.0,9669.0,323.0,9777970.0,9800.0,1007.0,2.0,2.0,3.0,"['A', 'B', 'C', 'D']",9348660.11111111,9722.555555555555,802.0,4,16,1995/02,26,RICHWOOD PARK,嘉豐花園,True,9.0,136.0,POINT Z (22.462975 114.1963948 0),22.462975,114.19639479999998
89,"PARC VERSAILLES(Block 29),MUI SHU HANG RD|帝欣苑29座,梅樹坑路",NTP,10612068.0,5545.0,887.0,10581502.345316302,5599.0,887.0,11281259.12017763,12142.0,947.0,2.0,4.0,5.0,"['A', 'B', 'C', 'D']",10937563.008940045,7221.5,917.75,6,24,1996/04,25,PARC VERSAILLES,帝欣苑,True,24.0,560.0,POINT Z (22.4536989 114.1558955 0),22.453698899999996,114.15589550000001
90,"SAVANNA GARDEN(Block 45),TAI PO RD TAI PO KAU|翡翠花園45座,大埔公路大埔滘段",NTP,14198195.508430142,9501.0,968.0,,,968.0,,,1109.0,1.0,3.0,5.0,"['A', 'B', 'C', 'D']",14198195.508430142,9501.0,1038.5,7,28,1988/09,33,SAVANNA GARDEN,翡翠花園,True,6.0,180.0,POINT Z (22.4352092 114.1809758 0),22.4352092,114.18097579999998
91,"CENTRAL PLAZA,KWONG FUK RD|中嘉閣,廣福道",NTP,4256696.0,10617.0,376.0,4337536.0,10799.0,376.0,4963344.0,11997.0,424.0,5.0,9.0,13.0,"['A', 'B', 'C', 'D', 'E', 'F', 'G', 'H']",4582742.530863858,11299.0,400.0,13,104,1991/01,30,blank,,False,,,POINT Z (22.4491118 114.1665548 0),22.4491118,114.1665548
92,"PARC VERSAILLES(Block 21),MUI SHU HANG RD|帝欣苑21座,梅樹坑路",NTP,10808996.72312781,8036.0,991.0,10909352.59763073,8139.0,991.0,11083352.63800587,8191.0,1006.0,2.0,4.0,5.0,"['A', 'B', 'C', 'D']",10960103.227015974,8126.0,999.0,6,24,1996/04,25,PARC VERSAILLES,帝欣苑,True,24.0,560.0,POINT Z (22.4528132 114.155431 0),22.452813199999998,114.15543100000001
93,"MEI CHEONG BLDG,YAN HING ST|美昌大廈,仁興街",NTP,3666816.2059878227,10576.0,321.0,3633025.038668247,10414.0,321.0,4642666.086931771,11432.0,410.0,2.0,4.0,7.0,"['A', 'B', 'C', 'D']",4090363.190879311,10918.0,365.6666666666667,8,32,1988/08,33,blank,,False,,,POINT Z (22.4491749 114.1639538 0),22.4491749,114.16395379999999
94,"SAVANNA GARDEN(Block 44),TAI PO RD TAI PO KAU|翡翠花園44座,大埔公路大埔滘段",NTP,,,959.0,,,959.0,,,1109.0,1.0,4.0,6.0,"['A', 'B', 'C', 'D']",,,1034.0,8,32,1988/09,33,SAVANNA GARDEN,翡翠花園,True,6.0,180.0,POINT Z (22.4355653 114.1809293 0),22.4355653,114.1809293
95,"TREASURE GARDEN(Block D),ON CHEE RD|海寶花園D座,安慈路",NTP,5037200.0,11315.0,398.0,5169600.0,11874.0,398.0,6537696.0,13510.0,528.0,3.0,8.0,13.0,"['1', '2', '3', '4', '5', '6', '7', '8']",5689579.75,12459.666666666666,459.25,15,120,1986/12,35,TREASURE GARDEN,海寶花園,True,4.0,480.0,POINT Z (22.4533653 114.1670889 0),22.4533653,114.1670889
96,"HILLTOP GARDEN,PUN SHAN CHAU|山頂花園,半山洲",NTP,,,850.0,,,850.0,,,850.0,0.0,0.0,0.0,['F'],,,850.0,1,1,1995/12,26,HILLTOP GARDEN,山頂花園,True,1.0,1.0,POINT Z (22.43164 114.17048 0),22.431639999999998,114.17048
97,"HONG LOK YUEN,HONG LOK YUEN 24TH ST|康樂園,康樂園第24街",NTP,,,1667.0,,,1667.0,,,2225.0,0.0,0.0,0.0,"['18B', '7', 'whole floor']",,,2039.0,1,3,1989/09,32,HONG LOK YUEN,康樂園,True,8.0,40.0,POINT Z (22.4644226 114.1599157 0),22.464422600000002,114.15991570000001
98,"GRANDVILLE COURT,YAN HING ST|嘉賢閣,仁興街",NTP,2963628.919437627,8906.0,287.0,2978723.258320762,8948.0,287.0,3332763.53683934,10738.0,363.0,3.0,4.0,4.0,"['A', 'B', 'C', 'D']",3182367.222181134,9538.5,328.5,4,16,1994/04,27,blank,,False,,,POINT Z (22.4482401 114.164488 0),22.4482401,114.16448799999999
99,"SAVANNA GARDEN(Block 47),TAI PO RD TAI PO KAU|翡翠花園47座,大埔公路大埔滘段",NTP,10425977.529029671,7851.0,959.0,10570710.980101973,7958.0,959.0,12005925.977763157,8034.0,1109.0,1.0,4.0,6.0,"['A', 'B', 'C', 'D']",11554802.684285441,8000.0,1031.5,8,32,1988/09,33,SAVANNA GARDEN,翡翠花園,True,6.0,180.0,POINT Z (22.434591 114.1813009 0),22.434591,114.18130090000001
100,"MEI SUN BLDG,KAU HUI CHIK ST|美新大廈,舊墟直街",NTP,5456724.0,10718.0,494.0,5712616.0,11063.0,494.0,8052800.0,12751.0,700.0,7.0,14.0,21.0,"['A', 'B', 'C', 'D', 'E', 'F', 'G', 'H']",6567995.666666667,11668.541666666666,566.6666666666666,21,168,1984/05,37,blank,,False,,,POINT Z (22.4537218 114.1649756 0),22.4537218,114.1649756
101,"TAI PO GARDEN(Block K),MUI SHU HANG RD|大埔花園K座,梅樹坑路",NTP,8391307.483537087,4733.0,803.0,8501676.711560398,4807.0,803.0,8928870.398521893,10837.0,858.0,1.0,2.0,3.0,"['1', '2', '3', '4']",8670409.611400405,7051.166666666667,827.5,5,20,1989/12,32,TAI PO GARDEN,大埔花園,True,10.0,195.0,POINT Z (22.4537882 114.1547807 0),22.453788199999998,114.1547807
102,"YEE SING COURT(Block 5,TAI PO PLAZA),ON TAI RD|大埔廣場,5座(宜盛閣),安泰路",NTP,4846988.0,11343.0,394.0,4721520.0,11460.0,394.0,6224928.0,13534.0,488.0,6.0,16.0,27.0,"['A', 'B', 'C', 'D', 'E', 'F', 'G', 'H']",5394312.166666667,12405.791666666666,435.5,32,256,1984/12,37,TAI PO PLAZA,大埔廣場,True,5.0,1392.0,POINT Z (22.45225 114.170193 0),22.45225,114.170193
103,"CHEONG HING BLDG,YAN HING ST|昌興樓,仁興街",NTP,3726125.021451536,8485.0,317.0,3779947.301940232,8606.0,317.0,4374586.345804213,9160.0,366.0,3.0,6.0,9.0,"['A', 'B', 'C', 'D']",4048540.0249786214,8807.333333333334,341.5,11,44,1982/05,39,blank,,False,,,POINT Z (22.4493311 114.1639306 0),22.449331100000002,114.16393059999999
104,"YEE FAI COURT(Block 2,TAI PO PLAZA),ON TAI RD|大埔廣場,2座(宜輝閣),安泰路",NTP,4675177.0,12401.0,370.0,4714170.0,12741.0,370.0,5256280.0,13869.0,397.0,6.0,16.0,27.0,"['A', 'B', 'C', 'D', 'E', 'F', 'G', 'H', 'I', 'J']",5005098.300000001,13069.1,383.0,32,320,1984/12,37,TAI PO PLAZA,大埔廣場,True,5.0,1392.0,POINT Z (22.453464 114.1704562 0),22.453464,114.17045619999999
105,"FOOK ON BLDG(Block B),WAN TAU ST|福安樓B座,運頭街",NTP,3832764.0,11221.0,316.0,3876372.0,11419.0,316.0,5586720.0,12522.0,480.0,3.0,7.0,11.0,"['1', '2', '3', '4', '5', '6']",4530726.444444444,11853.166666666666,384.0,13,78,1974/07,47,FOOK ON BLDG,福安樓,True,3.0,215.0,POINT Z (22.4465105 114.1675263 0),22.446510500000002,114.1675263
106,"MEE TAK BLDG,KWONG FUK RD|美德大廈,廣福道",NTP,3786174.452147732,8900.0,340.0,3897111.840499615,9212.0,340.0,6272441.184946056,11004.0,635.0,6.0,12.0,18.0,"['A', 'B', 'C', 'D', 'E', 'F', 'G', 'H']",5279866.6017477205,9844.708333333334,529.875,19,152,1977/05,44,blank,,False,,,POINT Z (22.4493054 114.1660206 0),22.449305399999997,114.1660206
107,"PARC VERSAILLES(Block 12),MUI SHU HANG RD|帝欣苑12座,梅樹坑路",NTP,9688140.0,9465.0,932.0,9789728.0,9627.0,932.0,10651300.0,10560.0,1021.0,2.0,4.0,5.0,"['A', 'B', 'C', 'D']",10111863.031334158,10208.5,976.75,6,24,1996/04,25,PARC VERSAILLES,帝欣苑,True,24.0,560.0,POINT Z (22.4517815 114.1553381 0),22.4517815,114.15533810000001
108,"SAVANNA GARDEN(Block 42),TAI PO RD TAI PO KAU|翡翠花園42座,大埔公路大埔滘段",NTP,10933991.868923854,6166.0,875.0,12614453.816504635,6044.0,950.0,14290494.122374617,9945.0,1106.0,1.0,3.0,5.0,"['A', 'B', 'C', 'D']",12751155.558078865,7588.305555555556,1010.5,7,28,1988/10,33,SAVANNA GARDEN,翡翠花園,True,6.0,180.0,POINT Z (22.4360659 114.1813473 0),22.4360659,114.1813473
109,"RICHWOOD PARK(Block 7),LO FAI RD|嘉豐花園7座,露輝路",NTP,8124495.326506603,9155.0,828.0,8124495.326506603,9155.0,828.0,9859054.543191433,9846.0,1039.0,2.0,2.0,3.0,"['A', 'B', 'C', 'D']",9213995.493090654,9477.25,949.0,4,16,1995/02,26,RICHWOOD PARK,嘉豐花園,True,9.0,136.0,POINT Z (22.4630481 114.196209 0),22.4630481,114.19620900000001
110,"MEI HING MANSION,YAN HING ST|美馨大廈,仁興街",NTP,3594399.0861663357,11121.0,315.0,3611205.9158112104,11173.0,315.0,3646435.6164129665,11282.0,450.0,7.0,8.0,10.0,"['B', 'E', 'F']",3617346.8727968372,11192.0,361.6666666666667,6,18,1984/12,37,blank,,False,,,POINT Z (22.4480844 114.1642325 0),22.4480844,114.1642325
111,"PARC VERSAILLES(Block 30),MUI SHU HANG RD|帝欣苑30座,梅樹坑路",NTP,9738213.643256381,10564.0,887.0,9833775.55283974,10715.0,887.0,10590306.567497833,11085.0,947.0,2.0,4.0,5.0,"['A', 'B', 'C', 'D']",10192361.353696285,10826.166666666666,917.75,6,24,1996/04,25,PARC VERSAILLES,帝欣苑,True,24.0,560.0,POINT Z (22.4537867 114.1556168 0),22.4537867,114.1556168
112,"PROSPERITY MANSION,WAN TAU KOK LANE|順景大廈,運頭角里",NTP,3713600.0,10550.0,352.0,3788576.0,10763.0,352.0,4226816.0,12008.0,352.0,3.0,7.0,11.0,"['A', 'B']",3966746.6666666665,11269.166666666666,352.0,13,26,1984/09,37,blank,,False,,,POINT Z (22.4469746 114.1689002 0),22.4469746,114.16890020000001
113,"HONG LOK YUEN,HONG LOK YUEN 5TH ST|康樂園,康樂園第5街",NTP,46009342.56936879,17794.0,1596.0,46009342.56936879,17794.0,1596.0,46009342.56936879,17794.0,2520.0,0.0,0.0,0.0,"['32', 'whole floor']",46009342.56936879,17794.0,2058.0,1,2,1980/10,41,HONG LOK YUEN,康樂園,True,8.0,40.0,POINT Z (22.462528 114.153892 0),22.462528,114.153892
114,"RICHWOOD PARK(Block 4),LO FAI RD|嘉豐花園4座,露輝路",NTP,,,828.0,,,828.0,,,1039.0,2.0,2.0,3.0,"['A', 'B', 'C', 'D']",,,952.75,4,16,1995/02,26,RICHWOOD PARK,嘉豐花園,True,9.0,136.0,POINT Z (22.4634705 114.1957446 0),22.4634705,114.1957446
115,"PARC VERSAILLES(Block 4),MUI SHU HANG RD|帝欣苑4座,梅樹坑路",NTP,10029252.0,10653.0,932.0,10129908.0,10759.0,932.0,11284092.0,11052.0,1021.0,2.0,4.0,5.0,"['A', 'B', 'C', 'D']",10579855.666666666,10830.25,976.75,6,24,1996/04,25,PARC VERSAILLES,帝欣苑,True,24.0,560.0,POINT Z (22.4528951 114.1543627 0),22.4528951,114.15436270000001
116,"WING FU BLDG,FU SHIN ST|永富大廈,富善街",NTP,2756945.0,11899.0,215.0,2824240.0,11987.0,215.0,3189470.436276134,14458.0,230.0,4.0,9.0,15.0,"['A', 'B', 'C', 'D']",2925757.452506114,12988.0,221.25,15,60,1983/08,38,blank,,False,,,POINT Z (22.4489553 114.1647898 0),22.4489553,114.16478980000001
117,"TAI PO GARDEN(Block N),MUI SHU HANG RD|大埔花園N座,梅樹坑路",NTP,8188162.223909806,9758.0,803.0,8260667.584717219,9799.0,803.0,9064996.484123593,10379.0,860.0,1.0,2.0,3.0,"['1', '2', '3', '4']",8547678.09625847,10119.75,826.8333333333334,5,20,1989/10,32,TAI PO GARDEN,大埔花園,True,10.0,195.0,POINT Z (22.4536055 114.1543511 0),22.4536055,114.1543511
118,"WINNYE TOWER,KAU HUI CHIK ST|榮麗苑,舊墟直街",NTP,,,1177.0,,,1177.0,,,1177.0,6.0,12.0,17.0,"['A', 'B']",,,1177.0,18,36,1992/02,29,blank,,False,,,POINT Z (22.4544937 114.165078 0),22.4544937,114.16507800000001
119,"PARC VERSAILLES(Block 26),MUI SHU HANG RD|帝欣苑26座,梅樹坑路",NTP,9615082.581919169,9456.0,991.0,9724899.514961394,6768.0,991.0,9706596.69278769,9546.0,1025.0,3.0,4.0,5.0,"['A', 'B', 'C', 'D']",10465016.01949293,9056.0,1008.75,5,20,1996/04,25,PARC VERSAILLES,帝欣苑,True,24.0,560.0,POINT Z (22.4532409 114.1560348 0),22.453240899999997,114.1560348
120,"TAI PO GARDEN(Block F),MUI SHU HANG RD|大埔花園F座,梅樹坑路",NTP,8622370.46419965,10465.0,803.0,8661918.842821876,10513.0,803.0,9193470.0,10715.0,858.0,1.0,2.0,3.0,"['1', '2', '3', '4']",8874292.395881314,10519.916666666666,827.5,5,20,1989/12,32,TAI PO GARDEN,大埔花園,True,10.0,195.0,POINT Z (22.454334 114.1543627 0),22.454334,114.15436270000001
121,"HONG LOK YUEN,HONG LOK RD E|康樂園,康樂東路",NTP,30603029.829567738,11534.0,1214.0,30603029.829567738,11534.0,1214.0,39773758.39530419,17271.0,1628.0,0.0,0.0,0.0,"['183', '215', '64', 'whole floor']",35976854.63279179,13085.25,1477.75,1,4,1989/03,32,HONG LOK YUEN,康樂園,True,8.0,40.0,POINT Z (22.461693 114.15758 0),22.461693,114.15758000000001
122,"SHUN ON BLDG,ON FU RD|順安樓,安富道",NTP,3219231.247866463,11209.0,275.0,3312740.0,11345.0,275.0,3351576.0,11818.0,292.0,6.0,10.0,13.0,"['A', 'B', 'C']",3362115.9823061093,11538.388888888889,286.3333333333333,12,36,1979/12,42,blank,,False,,,POINT Z (22.4477012 114.1651382 0),22.447701199999997,114.1651382
123,"YEE HING COURT(Block 4,TAI PO PLAZA),ON TAI RD|大埔廣場,4座(宜興閣),安泰路",NTP,4939088.0,11691.0,422.0,5252212.0,12326.0,422.0,6280560.0,13370.0,488.0,6.0,17.0,27.0,"['A', 'B', 'C', 'D', 'E', 'F', 'G', 'H']",5611954.166666667,12484.791666666666,449.75,31,248,1984/12,37,TAI PO PLAZA,大埔廣場,True,5.0,1392.0,POINT Z (22.452918 114.169921 0),22.452918,114.169921
124,"FOOK ON BLDG(Block A),HEUNG SZE WUI ST|福安樓A座,鄉事會街",NTP,3650580.0,10019.0,340.0,3715860.0,10200.0,340.0,4858776.0,11242.0,468.0,3.0,7.0,11.0,"['1', '2', '3', '4', '5']",4147631.733333333,10662.866666666667,391.2,13,65,1974/07,47,FOOK ON BLDG,福安樓,True,3.0,215.0,POINT Z (22.446429 114.167248 0),22.446429000000002,114.167248
125,"VILLA CASTELL(Block 38),YAU KING LANE|新翠山莊38座,優景里",NTP,9279080.0,9935.0,916.0,9369555.116755474,9969.0,916.0,9381773.415132225,9982.0,916.0,1.0,2.0,2.0,"['A', 'A2', 'B']",9357831.447594369,9985.11111111111,916.0,4,12,1992/07,29,VILLA CASTELL,新翠山莊,True,1.0,12.0,POINT Z (22.4329219 114.1948622 0),22.432921899999997,114.1948622
126,"YEE FU COURT(Block 1,TAI PO PLAZA),ON TAI RD|大埔廣場,1座(宜富閣),安泰路",NTP,4305340.0,11420.0,370.0,4625740.0,12013.0,370.0,5324961.0,13724.0,397.0,6.0,16.0,27.0,"['A', 'B', 'C', 'D', 'E', 'F', 'G', 'H', 'I', 'J']",4991900.133333333,13033.066666666666,383.0,32,320,1984/12,37,TAI PO PLAZA,大埔廣場,True,5.0,1392.0,POINT Z (22.4537256 114.1704562 0),22.453725600000002,114.17045619999999
127,"MEI FUNG BLDG,WAN TAU KOK LANE|美楓大廈,運頭角里",NTP,6676673.972535172,8157.0,590.0,6330835.299273347,7963.0,590.0,7362786.099029318,8850.0,630.0,5.0,8.0,10.0,"['A', 'B', 'C', 'D']",7004466.106028209,8521.916666666666,610.0,10,40,1987/03,34,blank,,False,,,POINT Z (22.4471303 114.1691557 0),22.4471303,114.1691557
128,"PARC VERSAILLES(Block 35),MUI SHU HANG RD|帝欣苑35座,梅樹坑路",NTP,11170552.0,10918.0,991.0,11274607.0,11343.0,991.0,11475442.0,11440.0,1006.0,2.0,4.0,5.0,"['A', 'B', 'C', 'D']",11514099.0,11328.25,1017.0833333333334,6,24,1996/04,25,PARC VERSAILLES,帝欣苑,True,24.0,560.0,POINT Z (22.4533296 114.1551988 0),22.4533296,114.1551988
129,"TAI PO GARDEN(Block M),MUI SHU HANG RD|大埔花園M座,梅樹坑路",NTP,7705342.434896811,9304.0,803.0,7780319.569368113,9350.0,803.0,8290240.627697961,9481.0,860.0,1.0,2.0,3.0,"['1', '2', '3', '4']",8095891.395284076,9374.5,841.75,5,20,1989/12,32,TAI PO GARDEN,大埔花園,True,10.0,195.0,POINT Z (22.4534198 114.1545601 0),22.4534198,114.1545601
130,"PARC VERSAILLES(Block 22),MUI SHU HANG RD|帝欣苑22座,梅樹坑路",NTP,10679853.725226596,10482.0,991.0,11070083.068554375,10865.0,991.0,11156540.0,11090.0,1006.0,2.0,4.0,5.0,"['A', 'B', 'C', 'D']",11028110.10756634,10893.5,999.0,6,24,1996/04,25,PARC VERSAILLES,帝欣苑,True,24.0,560.0,POINT Z (22.4527838 114.1556168 0),22.452783800000002,114.1556168
131,"FOOK ON BLDG(Block C),WAN TAU ST|福安樓C座,運頭街",NTP,3689664.0,9864.0,340.0,3743168.0,10007.0,340.0,4853160.0,10931.0,468.0,3.0,6.0,10.0,"['1', '2', '3', '4', '5', '6']",4271559.866666666,10483.977777777778,386.6666666666667,12,72,1974/07,47,FOOK ON BLDG,福安樓,True,3.0,215.0,POINT Z (22.4465261 114.1677345 0),22.446526100000003,114.1677345
132,"TAI PO BLDG,KWONG FUK RD|大埔大廈,廣福道",NTP,3824296.0,9701.0,376.0,3901376.0,9932.0,376.0,5367056.861553476,11161.0,478.0,8.0,13.0,18.0,"['A', 'B', 'C', 'D', 'E', 'F']",4645274.582262713,10387.5,441.1666666666667,17,102,1979/03,42,blank,,False,,,POINT Z (22.4489679 114.1658116 0),22.448967899999996,114.1658116
133,"HONG LOK YUEN,HONG LOK YUEN 18TH ST|康樂園,康樂園第18街",NTP,30852446.586881984,14743.0,1237.0,30852446.586881984,14743.0,1237.0,30852446.586881984,14743.0,1745.0,0.0,0.0,0.0,"['14', '25', '6', '62', '83', 'whole floor']",30852446.586881984,14743.0,1425.0,1,6,1989/05,32,HONG LOK YUEN,康樂園,True,8.0,40.0,POINT Z (22.464435 114.153791 0),22.464435,114.153791
134,"MING HOI HSE(Block A,MING NGA COURT),ON PO LANE|明雅苑,A座(明凱閣),安埔里",NTP,4142528.0,11750.0,338.0,4225338.0,12034.0,338.0,5683926.0,13553.0,438.0,7.0,18.0,29.0,"['1', '10', '11', '12', '13', '14', '15', '16', '2', '3', '4', '5', '6', '7', '8', '9']",4849983.104166667,12621.833333333334,384.875,35,560,1985/12,36,MING NGA COURT,明雅苑,True,3.0,1680.0,POINT Z (22.4519152 114.1747291 0),22.451915200000002,114.1747291
135,"MING CHEONG HSE(Block C,MING NGA COURT),ON PO LANE|明雅苑,C座(明昌閣),安埔里",NTP,3947840.0,10529.0,338.0,4016844.0,10915.0,338.0,5779848.0,14012.0,438.0,7.0,18.0,29.0,"['1', '10', '11', '12', '13', '14', '15', '16', '2', '3', '4', '5', '6', '7', '8', '9']",4668284.166666667,12147.9375,384.875,35,560,1985/12,36,MING NGA COURT,明雅苑,True,3.0,1680.0,POINT Z (22.4520709 114.1757969 0),22.4520709,114.17579690000001
136,"MING YAN HSE(Block B,MING NGA COURT),ON PO LANE|明雅苑,B座(明欣閣),安埔里",NTP,3842384.0,10809.0,338.0,4207424.0,10684.0,338.0,5577054.0,13397.0,438.0,7.0,18.0,29.0,"['1', '10', '11', '12', '13', '14', '15', '16', '2', '3', '4', '5', '6', '7', '8', '9']",4645816.666666667,12094.958333333334,384.875,35,560,1985/05,36,MING NGA COURT,明雅苑,True,3.0,1680.0,POINT Z (22.451708 114.175291 0),22.451708,114.17529099999999
137,"HONG SHUN COURT(Block 3,SUN HING GARDEN),ON PO LANE|新興花園,3座(康信閣),安埔里",NTP,4644615.0,10534.0,419.0,4682166.0,10991.0,419.0,7011624.0,12271.0,591.0,6.0,16.0,27.0,"['A', 'B', 'C', 'D', 'E', 'F', 'G', 'H', 'I', 'J']",5710166.666666667,11368.466666666667,503.2,32,320,1986/05,35,SUN HING GARDEN,新興花園,True,5.0,1450.0,POINT Z (22.4537088 114.1734518 0),22.4537088,114.1734518
138,"TAK KAY BLDG,YAN HING ST|德基大廈,仁興街",NTP,3227998.913270337,9253.0,340.0,3185438.0284309355,9131.0,340.0,3415685.438217861,9791.0,340.0,4.0,7.0,10.0,"['A', 'B']",3309864.658972355,9487.666666666666,340.0,9,18,1980/12,41,blank,,False,,,POINT Z (22.4491925 114.1642557 0),22.4491925,114.1642557
139,"PARC VERSAILLES(Block 31),MUI SHU HANG RD|帝欣苑31座,梅樹坑路",NTP,8914302.0,10383.0,844.0,9064560.0,10469.0,844.0,9783990.0,11565.0,891.0,2.0,4.0,5.0,"['A', 'B', 'C', 'D']",9363209.833333334,10807.916666666666,867.0,6,24,1996/04,25,PARC VERSAILLES,帝欣苑,True,24.0,560.0,POINT Z (22.4538415 114.1554078 0),22.4538415,114.15540779999999
140,"RICHWOOD PARK(Block 14),LO FAI RD|嘉豐花園14座,露輝路",NTP,6727732.508161759,8363.0,597.0,6727732.508161759,8363.0,597.0,12002945.224540956,10509.0,1158.0,2.0,2.0,3.0,"['A', 'B', 'C', 'D']",9063387.841960406,9832.888888888889,827.0,4,16,1995/02,26,RICHWOOD PARK,嘉豐花園,True,9.0,136.0,POINT Z (22.4643069 114.1961742 0),22.4643069,114.1961742
141,"MOUNTAIN VIEW COURT,FU SHIN ST|山景閣,富善街",NTP,3656697.0,11463.0,319.0,3885739.0,12181.0,319.0,4091175.0,12825.0,319.0,5.0,12.0,20.0,['whole floor'],3877870.3333333335,12156.333333333334,319.0,24,24,1995/12,26,blank,,False,,,POINT Z (22.4480077 114.1648066 0),22.448007699999998,114.16480659999999
142,"TAI PO GARDEN(Block A),MUI SHU HANG RD|大埔花園A座,梅樹坑路",NTP,8750291.0,10657.0,803.0,8716565.0,10704.0,803.0,9665681.604941597,11135.0,860.0,1.0,2.0,3.0,"['1', '2', '3', '4']",9184264.197111346,10854.666666666666,828.0,5,20,1989/12,32,TAI PO GARDEN,大埔花園,True,10.0,195.0,POINT Z (22.454325 114.153832 0),22.454325,114.15383200000001
143,"HONG YAN COURT(Block 2,SUN HING GARDEN),ON PO LANE|新興花園,2座(康仁閣),安埔里",NTP,4405360.0,10390.0,419.0,4502456.0,10566.0,419.0,7049448.0,11928.0,591.0,6.0,17.0,27.0,"['A', 'B', 'C', 'D', 'E', 'F', 'G', 'H', 'I', 'J']",5580794.699999999,11076.233333333332,503.2,31,310,1986/05,35,SUN HING GARDEN,新興花園,True,5.0,1450.0,POINT Z (22.4532957 114.1735211 0),22.453295699999998,114.17352109999999
144,"SERENITY PARK(Block 17),TAI PO TAU DR|太湖花園17座,大埔頭徑",NTP,5649165.0,13052.0,423.0,5807970.0,13230.0,423.0,8450741.0,14193.0,611.0,5.0,12.0,21.0,"['A', 'B', 'C', 'D', 'E', 'F', 'G', 'H']",6547950.083333333,13576.333333333334,482.625,21,168,1994/12,27,SERENITY PARK,太湖花園,True,15.0,3200.0,POINT Z (22.454353 114.1597505 0),22.454353,114.15975049999999
145,"FU HING HSE,YAN HING ST|富興樓,仁興街",NTP,2365533.568950739,8766.0,260.0,2418694.6587389316,8963.0,260.0,2409245.6908390755,9031.0,264.0,2.0,3.0,4.0,"['A', 'B', 'C']",2403479.1310082013,8929.666666666666,262.3333333333333,5,15,1979/03,42,blank,,False,,,POINT Z (22.4484224 114.1641628 0),22.4484224,114.1641628
146,"PO HONG MANSION,KWONG FUK RD|寶康大廈,廣福道",NTP,4386192.635281415,10371.0,400.0,4450629.076166526,10844.0,400.0,5140858.276539364,11134.0,450.0,5.0,8.0,11.0,"['A', 'B', 'C']",4773989.829679353,10831.555555555555,433.3333333333333,9,27,1985/08,36,blank,,False,,,POINT Z (22.4484573 114.1668334 0),22.4484573,114.1668334
147,"HONG CHE COURT(Block 1,SUN HING GARDEN),ON PO LANE|新興花園,1座(康智閣),安埔里",NTP,4636016.0,10646.0,424.0,4869640.0,11150.0,424.0,6999804.0,12239.0,592.0,6.0,16.0,27.0,"['A', 'B', 'C', 'D', 'E', 'F', 'G', 'H', 'I', 'J']",6030158.7,11335.433333333334,532.4,32,320,1986/05,35,SUN HING GARDEN,新興花園,True,5.0,1450.0,POINT Z (22.4529677 114.1734518 0),22.4529677,114.1734518
148,"PARC VERSAILLES(Block 6),MUI SHU HANG RD|帝欣苑6座,梅樹坑路",NTP,9709576.0,10418.0,932.0,,,932.0,,,1025.0,2.0,4.0,5.0,"['A', 'B', 'C', 'D']",9709576.0,10418.0,979.0,6,24,1996/04,25,PARC VERSAILLES,帝欣苑,True,24.0,560.0,POINT Z (22.4526115 114.1545021 0),22.4526115,114.1545021
149,"WANG KEI BLDG,YAN HING ST|宏基大廈,仁興街",NTP,2818642.456297246,6049.0,325.0,2854755.7484983634,6126.0,325.0,3027924.374646336,6914.0,360.0,3.0,6.0,9.0,"['A', 'B', 'C', 'D']",2938617.528085359,6446.5,338.75,11,44,1976/10,45,blank,,False,,,POINT Z (22.44889 114.164032 0),22.44889,114.164032
150,"WING CHEUNG BLDG,FU SHIN ST|永祥大廈,富善街",NTP,3208388.4248232944,7034.0,303.0,2984501.047335728,5751.0,245.0,3947748.7921614484,11189.0,395.0,5.0,8.0,10.0,"['A', 'B', 'C', 'D', 'E']",3458352.5664918763,8233.666666666666,336.6,8,40,1980/08,41,blank,,False,,,POINT Z (22.4482283 114.1649756 0),22.4482283,114.1649756
151,"MEE FAT BLDG,TAI WING LANE|美發大廈,大榮里",NTP,3501983.0703370194,2805.0,328.0,3555319.616039087,2843.0,328.0,7452783.727354847,11254.0,741.0,4.0,7.0,10.0,"['A', 'B', 'C', 'D', 'E', 'F', 'G', 'H']",4869864.20176593,8549.125,470.125,11,88,1973/07,48,blank,,False,,,POINT Z (22.4471199 114.1670192 0),22.4471199,114.1670192
152,"HONG LOK YUEN,HONG LOK YUEN 10TH ST|康樂園,康樂園第10街",NTP,21292591.1233491,11456.0,1214.0,21292591.1233491,11456.0,1214.0,42297612.639905065,15919.0,2740.0,0.0,0.0,0.0,"['24', '44A', 'whole floor']",32744743.148773823,13463.666666666666,2025.0,1,3,1986/06,35,HONG LOK YUEN,康樂園,True,8.0,40.0,POINT Z (22.462352 114.157577 0),22.462352,114.157577
153,"RICHWOOD PARK(Block 16),LO FAI RD|嘉豐花園16座,露輝路",NTP,5471696.306049422,9472.0,563.0,5471696.306049422,9472.0,563.0,6431442.207061972,9835.0,658.0,2.0,2.0,3.0,"['A', 'B', 'C', 'D']",6060322.509496261,9669.25,610.75,4,16,1995/02,26,RICHWOOD PARK,嘉豐花園,True,9.0,136.0,POINT Z (22.4642404 114.1958375 0),22.464240399999998,114.1958375
154,"RICHWOOD PARK(Block 3),LO FAI RD|嘉豐花園3座,露輝路",NTP,9274212.11157415,5333.0,821.0,9274212.11157415,5333.0,821.0,10968605.578403536,8992.0,1030.0,2.0,2.0,3.0,"['A', 'B', 'C', 'D']",9948622.581594124,6338.25,912.5,4,16,1995/02,26,RICHWOOD PARK,嘉豐花園,True,9.0,136.0,POINT Z (22.4636375 114.1957911 0),22.4636375,114.19579109999998
155,"PARC VERSAILLES(Block 36),MUI SHU HANG RD|帝欣苑36座,梅樹坑路",NTP,10055116.779396046,9849.0,993.0,10222548.919899747,10013.0,993.0,10788999.616352595,10811.0,1000.0,2.0,4.0,5.0,"['A', 'B', 'C', 'D']",10598426.502701625,10429.083333333334,997.0,6,24,1996/04,25,PARC VERSAILLES,帝欣苑,True,24.0,560.0,POINT Z (22.4531484 114.1549665 0),22.4531484,114.1549665
156,"PARC VERSAILLES(Block 19),MUI SHU HANG RD|帝欣苑19座,梅樹坑路",NTP,11371321.108026305,8437.0,990.0,11483380.114722013,8520.0,990.0,12300052.572610427,9814.0,1020.0,2.0,4.0,5.0,"['A', 'B', 'C', 'D']",11610893.718766496,8778.416666666666,1005.5,6,24,1996/04,25,PARC VERSAILLES,帝欣苑,True,24.0,560.0,POINT Z (22.452144 114.1558026 0),22.452144,114.15580259999999
157,"PARC VERSAILLES(Block 33),MUI SHU HANG RD|帝欣苑33座,梅樹坑路",NTP,9602902.247687528,9425.0,991.0,9654864.901759895,9476.0,991.0,10956955.046423994,10615.0,1006.0,2.0,4.0,5.0,"['A', 'B', 'C', 'D']",9963766.239269847,9719.75,999.0,6,24,1996/04,25,PARC VERSAILLES,帝欣苑,True,24.0,560.0,POINT Z (22.4536564 114.1553381 0),22.4536564,114.15533810000001
158,"PARC VERSAILLES(Block 14),MUI SHU HANG RD|帝欣苑14座,梅樹坑路",NTP,10566960.670372691,10994.0,932.0,10778811.886710107,11093.0,932.0,11894100.0,11604.0,1025.0,2.0,4.0,5.0,"['A', 'B', 'C', 'D']",11193790.675358588,11310.611111111111,979.0,6,24,1996/04,25,PARC VERSAILLES,帝欣苑,True,24.0,560.0,POINT Z (22.4516791 114.1557097 0),22.451679100000003,114.1557097
159,"WING WO HSE,WAN TAU ST|永和樓,運頭街",NTP,3236404.380208726,8233.0,369.0,3235268.5340294293,8264.0,369.0,4130396.3818951375,8620.0,485.0,2.0,3.0,4.0,"['B', 'C', 'E', 'F', 'G', 'H', 'I', 'J']",3817955.6146449796,8396.541666666666,443.5416666666667,5,40,1971/11,50,blank,,False,,,POINT Z (22.4468131 114.1678552 0),22.446813100000004,114.16785520000002
160,"WING MING GARDEN,KAU HUI CHIK ST|榮明花園,舊墟直街",NTP,5541300.0,11790.0,470.0,5700630.0,12095.0,470.0,5863720.0,12476.0,470.0,8.0,14.0,20.0,"['A', 'B']",5728595.833333333,12124.166666666666,473.3333333333333,18,36,1990/03,31,blank,,False,,,POINT Z (22.4535889 114.1653799 0),22.4535889,114.1653799
161,"ELEGANCE GARDEN(Block 3),NAM WAN RD|富雅花園3座,南運路",NTP,3778421.5580820013,8311.0,431.0,3919493.2431274317,8373.0,431.0,5562810.25430735,9291.0,592.0,5.0,13.0,22.0,"['A', 'B', 'C', 'D', 'E', 'F', 'G', 'H', 'J', 'K']",4830818.098062531,8778.0,538.2,25,250,1990/11,31,ELEGANCE GARDEN,富雅花園,True,4.0,908.0,POINT Z (22.4442731 114.1680642 0),22.444273100000004,114.1680642
162,"ON TAK BLDG,WAI YAN ST|安迪樓,懷仁街",NTP,2971773.0,9873.0,301.0,3148658.9802856045,10195.0,301.0,3318290.0,9935.0,334.0,3.0,6.0,8.0,['whole floor'],3146240.6600952013,10001.0,312.0,8,8,1978/07,43,blank,,False,,,POINT Z (22.4487901 114.1656955 0),22.4487901,114.16569550000001
163,"WONDERFUL BLDG,TSING YUEN ST|彩威閣,靖遠街",NTP,2614087.6061959737,6783.0,286.0,,,286.0,,,286.0,2.0,3.0,4.0,['whole floor'],2614087.6061959737,6783.0,286.0,3,3,1983/03,38,blank,,False,,,POINT Z (22.4490221 114.1649872 0),22.4490221,114.1649872
164,"GRAND PALISADES(Block 10),SHAN YIN RD|大埔寶馬山10座,山賢路",NTP,8355410.999999999,11375.0,727.0,8434654.0,11476.0,727.0,10979002.980209652,12333.0,921.0,6.0,8.0,11.0,"['A', 'B', 'C', 'D', 'E', 'F']",9820370.109143713,11675.888888888889,823.6666666666666,10,60,1998/04,23,GRAND PALISADES,大埔寶馬山,True,9.0,548.0,POINT Z (22.4406546 114.1737073 0),22.4406546,114.17370729999999
165,"GRAND PALISADES(Block 1),SHAN YIN RD|大埔寶馬山1座,山賢路",NTP,10519320.0,12348.0,840.0,10662960.0,12517.0,840.0,11972952.0,12888.0,987.0,5.0,8.0,11.0,"['A', 'B', 'C', 'D', 'E', 'F']",11585851.0,12498.611111111111,927.8333333333334,9,54,1997/12,24,GRAND PALISADES,大埔寶馬山,True,9.0,548.0,POINT Z (22.4419206 114.1728713 0),22.4419206,114.1728713
166,"GRAND PALISADES(Block 2),SHAN YIN RD|大埔寶馬山2座,山賢路",NTP,6126648.0,10454.0,547.0,6226560.0,10622.0,547.0,10704672.0,11629.0,992.0,5.0,8.0,11.0,"['A', 'B', 'C', 'D', 'E', 'F']",8435473.88888889,11069.77777777778,767.0555555555555,9,54,1997/12,24,GRAND PALISADES,大埔寶馬山,True,9.0,548.0,POINT Z (22.4417315 114.1729642 0),22.4417315,114.1729642
167,"ELEGANCE GARDEN(Block 4),NAM WAN RD|富雅花園4座,南運路",NTP,3494548.0,7932.0,431.0,3644105.0,8274.0,431.0,5113696.0,8809.0,592.0,5.0,14.0,22.0,"['A', 'C', 'D', 'E', 'F', 'G', 'H', 'K']",4482894.291666667,8339.625,538.25,26,208,1990/11,31,ELEGANCE GARDEN,富雅花園,True,4.0,908.0,POINT Z (22.443917 114.1681107 0),22.443917000000003,114.16811070000001
168,"GRAND PALISADES(Block 3),SHAN YIN RD|大埔寶馬山3座,山賢路",NTP,7116135.82465495,11182.0,547.0,7155984.838264108,11258.0,547.0,12316728.118375978,13066.0,1035.0,6.0,8.0,11.0,"['A', 'B', 'C', 'D', 'E', 'F']",9496020.638501406,12125.888888888889,773.8333333333334,10,60,1997/12,24,GRAND PALISADES,大埔寶馬山,True,9.0,548.0,POINT Z (22.4414846 114.1728713 0),22.441484600000003,114.1728713
169,"GRAND PALISADES(Block 5),SHAN YIN RD|大埔寶馬山5座,山賢路",NTP,7047662.871692738,11877.0,547.0,7123432.122921416,11965.0,547.0,11748129.0,13024.0,1035.0,6.0,8.0,11.0,"['A', 'B', 'C', 'D', 'E', 'F']",9097027.131081993,12511.466666666667,770.6666666666666,10,60,1997/12,24,GRAND PALISADES,大埔寶馬山,True,9.0,548.0,POINT Z (22.441223 114.1728713 0),22.441223,114.1728713
170,"GRAND PALISADES(Block 6),SHAN YIN RD|大埔寶馬山6座,山賢路",NTP,6881774.0,12480.0,542.0,6911813.0,12211.0,542.0,12045180.0,12495.0,964.0,6.0,8.0,11.0,"['A', 'B', 'C', 'D', 'E', 'F']",9452473.333333334,12501.555555555557,754.9444444444445,10,60,1997/12,24,GRAND PALISADES,大埔寶馬山,True,9.0,548.0,POINT Z (22.4409761 114.1727784 0),22.440976100000004,114.1727784
171,"GRAND PALISADES(Block 7),SHAN YIN RD|大埔寶馬山7座,山賢路",NTP,6603248.0,12420.0,496.0,6646400.0,12510.0,496.0,10332604.92445035,13926.0,796.0,6.0,8.0,11.0,"['A', 'B', 'C', 'D', 'E', 'F', 'G', 'H']",7887276.5297780605,13149.25,593.75,10,80,1997/12,24,GRAND PALISADES,大埔寶馬山,True,9.0,548.0,POINT Z (22.440787 114.1728713 0),22.440787,114.1728713
172,"GRAND PALISADES(Block 8),SHAN YIN RD|大埔寶馬山8座,山賢路",NTP,6795570.0,11505.0,535.0,6827670.0,11614.0,535.0,11106654.0,13002.0,948.0,6.0,8.0,11.0,"['A', 'B', 'C', 'D', 'E', 'F']",8586526.383333333,12422.9,745.3333333333334,10,60,1997/12,24,GRAND PALISADES,大埔寶馬山,True,9.0,548.0,POINT Z (22.4406557 114.1731499 0),22.4406557,114.17314990000001
173,"GRAND PALISADES(Block 9),SHAN YIN RD|大埔寶馬山9座,山賢路",NTP,6821785.0,11485.0,535.0,6886520.0,11594.0,535.0,11786526.0,13430.0,1002.0,6.0,8.0,11.0,"['A', 'B', 'C', 'D', 'E', 'F']",9272811.388888888,12407.055555555557,754.8333333333334,10,60,1997/12,24,GRAND PALISADES,大埔寶馬山,True,9.0,548.0,POINT Z (22.4406116 114.1734286 0),22.4406116,114.17342859999998
174,"HONG LOK YUEN(Block C2),HONG LOK YUEN TOWN CTR CRES|康樂園C2座,康樂園市中心徑",NTP,,,750.0,,,750.0,,,1364.0,0.0,0.0,1.0,"['A', 'B', 'D', 'E', 'H']",,,1001.6,2,10,1983/06,38,HONG LOK YUEN,康樂園,True,8.0,40.0,POINT Z (22.4618898 114.1522332 0),22.4618898,114.1522332
175,"KING YAN HSE(Block A,KING NGA COURT),HIU WAN RD|景雅苑,A座(景欣閣),曉運路",NTP,3415317.0,7855.0,401.0,3939023.0,8240.0,401.0,5593440.0,8780.0,645.0,7.0,18.0,29.0,"['1', '10', '2', '3', '4', '5', '6', '7', '8', '9']",4688993.566137566,8473.08201058201,511.0,35,350,1992/06,29,KING NGA COURT,景雅苑,True,2.0,670.0,POINT Z (22.4406969 114.1664374 0),22.4406969,114.1664374
176,"ELEGANCE GARDEN(Block 2),NAM WAN RD|富雅花園2座,南運路",NTP,5198722.0,11822.0,431.0,5408188.0,11829.0,431.0,7636208.0,12967.0,592.0,5.0,14.0,22.0,"['A', 'C', 'D', 'E', 'F', 'G', 'H', 'J']",6656883.958333333,12380.541666666666,538.25,25,200,1990/11,31,ELEGANCE GARDEN,富雅花園,True,4.0,908.0,POINT Z (22.4443251 114.1674605 0),22.4443251,114.1674605
177,"TUNG LOK BLDG,WAN TAU ST|同樂樓,運頭街",NTP,3785404.9086658238,3824.0,468.0,3785404.9086658238,3824.0,468.0,4250503.771601503,7732.0,520.0,2.0,2.0,4.0,"['A', 'B', 'C', 'D']",3968717.861545604,4821.083333333333,489.25,4,16,1975/02,46,blank,,False,,,POINT Z (22.44766 114.168623 0),22.44766,114.168623
178,"HONG LOK BLDG,KWONG FUK LANE|康樂樓,廣福里",NTP,4649635.072703931,7699.0,524.0,4216285.642939896,7480.0,524.0,4598098.2326915525,7519.0,648.0,2.0,3.0,4.0,"['A', 'B', 'C', 'E', 'F']",4557423.242411814,7784.5,587.0,5,25,1971/03,50,blank,,False,,,POINT Z (22.4475853 114.1668334 0),22.4475853,114.1668334
179,"FU SHIN BLDG,FU SHIN ST|富善大廈,富善街",NTP,3793986.0,10037.0,378.0,3891888.0,10296.0,378.0,4068792.0,10764.0,378.0,3.0,6.0,10.0,"['A', 'B']",3916395.0,10360.833333333334,378.0,12,24,1987/04,34,blank,,False,,,POINT Z (22.4494447 114.1646907 0),22.449444699999997,114.16469070000001
180,"THE PARAGON(Block 10),SHAN YIN RD|悠然山莊10座,山賢路",NTP,9828015.0,10492.0,914.0,9866920.0,10672.0,914.0,12096036.0,11179.0,1108.0,2.0,6.0,10.0,"['A', 'B', 'C', 'D', 'E', 'F']",10637879.88888889,10867.111111111111,979.8333333333334,12,72,1998/02,23,THE PARAGON,悠然山莊,True,3.0,216.0,POINT Z (22.4426023 114.1735215 0),22.4426023,114.1735215
181,"THE PARAGON(Block 12),SHAN YIN RD|悠然山莊12座,山賢路",NTP,9481230.0,10362.0,914.0,9643185.0,10539.0,914.0,12178028.0,10991.0,1108.0,2.0,6.0,10.0,"['A', 'B', 'C', 'D', 'E', 'F']",10450280.0,10663.722222222223,979.5,12,72,1998/02,23,THE PARAGON,悠然山莊,True,3.0,216.0,POINT Z (22.4431391 114.1739859 0),22.4431391,114.17398590000002
182,"TOLO RIDGE(Block A),TAI PO RD TAI PO KAU|松苑A座,大埔公路大埔滘段",NTP,,,1479.0,,,1515.0,,,1515.0,1.0,3.0,5.0,"['1', '2']",,,1509.0,7,14,1992/04,29,TOLO RIDGE,松苑,True,1.0,14.0,POINT Z (22.4368423 114.1855272 0),22.436842300000002,114.18552720000001
183,"FU SHIN MANSION,FU SHIN ST|富善樓,富善街",NTP,2451192.9930089014,11322.0,211.0,2451192.9930089014,11322.0,211.0,2462883.8975860504,11376.0,297.0,2.0,2.0,3.0,"['A', 'B', 'C']",2455089.9612012845,11340.0,268.3333333333333,4,12,1980/04,41,blank,,False,,,POINT Z (22.4486976 114.1646273 0),22.448697600000003,114.1646273
184,"KA WO HSE(Block C,Phase 2,PO NGA COURT),2 TAI PO TAI WO RD|寶雅苑,2期,C座(家和閣),2 大埔太和路",NTP,4406521.0,9947.0,380.0,4652391.0,10547.0,380.0,6287606.0,12667.0,538.0,7.0,18.0,28.0,"['1', '10', '11', '12', '13', '14', '15', '16', '17', '18', '19', '2', '20', '21', '22', '23', '24', '3', '4', '5', '6', '7', '8', '9']",5258629.055555556,11527.65277777778,456.5833333333333,34,816,1989/07,32,PO NGA COURT,寶雅苑,True,3.0,2448.0,POINT Z (22.4515093 114.1591235 0),22.451509299999998,114.1591235
185,"TAI PO CTR(Phase 5),Block 19,ON PONG RD|大埔中心5期,19座,安邦路",NTP,5565690.0,13596.0,390.0,5735340.0,13967.0,390.0,7963296.0,15177.0,528.0,6.0,12.0,19.0,"['A', 'B', 'C', 'D', 'E', 'F', 'G', 'H']",6482483.083333333,14507.291666666666,446.75,20,160,1987/03,34,TAI PO CTR,大埔中心,True,22.0,4072.0,POINT Z (22.4535214 114.1719292 0),22.453521399999996,114.17192920000001
186,"TAI PO CTR(Phase 1),Block 3,ON PONG RD|大埔中心1期,3座,安邦路",NTP,4892040.0,13439.0,360.0,5128560.0,13948.0,360.0,6188805.0,15346.0,405.0,9.0,18.0,28.0,"['A', 'B', 'C', 'D', 'E', 'F', 'G', 'H']",5515501.875,14424.583333333334,382.5,30,240,1985/05,36,TAI PO CTR,大埔中心,True,22.0,4072.0,POINT Z (22.4523869 114.1687348 0),22.452386899999997,114.1687348
187,"TAI PO CTR(Phase 3),Block 23,PO WU LANE|大埔中心3期,23座,寶湖里",NTP,4209800.0,13442.0,310.0,4399830.0,13848.0,310.0,5213325.0,16041.0,325.0,7.0,14.0,20.0,"['A', 'B', 'C', 'D', 'E', 'F', 'G', 'H']",4625917.5,14570.75,317.5,20,160,1985/11,36,TAI PO CTR,大埔中心,True,22.0,4072.0,POINT Z (22.4495939 114.1687617 0),22.4495939,114.1687617
188,"TAI PO CTR(Phase 2),Block 4,ON PONG RD|大埔中心2期,4座,安邦路",NTP,4513500.0,14974.0,300.0,4596900.0,15323.0,300.0,5135460.0,16566.0,310.0,9.0,18.0,26.0,"['A', 'B', 'C', 'D', 'E', 'F', 'G', 'H']",4785777.083333333,15690.666666666666,305.0,28,224,1985/03,36,TAI PO CTR,大埔中心,True,22.0,4072.0,POINT Z (22.4516974 114.169086 0),22.4516974,114.16908600000001
189,"TAI PO CTR(Phase 4),Block 6,ON PONG RD|大埔中心4期,6座,安邦路",NTP,5171625.0,13791.0,375.0,5323125.0,14195.0,375.0,6614925.0,15360.0,445.0,8.0,14.0,21.0,"['A', 'B', 'C', 'D', 'E', 'F', 'G', 'H']",5987550.833333333,14615.25,410.0,22,176,1985/11,36,TAI PO CTR,大埔中心,True,22.0,4072.0,POINT Z (22.4517252 114.1697363 0),22.4517252,114.16973629999998
190,"TAI PO CTR(Phase 2),Block 5,ON PONG RD|大埔中心2期,5座,安邦路",NTP,4185600.0,13952.0,300.0,4491300.0,14971.0,300.0,5284570.0,17047.0,310.0,9.0,18.0,26.0,"['A', 'B', 'C', 'D', 'E', 'F', 'G', 'H']",4770156.25,15634.666666666666,305.0,28,224,1985/06,36,TAI PO CTR,大埔中心,True,22.0,4072.0,POINT Z (22.4516729 114.1692843 0),22.4516729,114.16928429999999
191,"TAI PO CTR(Phase 5),Block 16,ON PONG RD|大埔中心5期,16座,安邦路",NTP,5399160.0,13340.0,390.0,5513820.0,13537.0,390.0,7879344.0,14923.0,528.0,6.0,12.0,19.0,"['A', 'B', 'C', 'D', 'E', 'F', 'G', 'H']",6364955.541666667,14237.875,446.75,20,160,1987/03,34,TAI PO CTR,大埔中心,True,22.0,4072.0,POINT Z (22.4536456 114.171692 0),22.4536456,114.171692
192,"TAI PO CTR(Phase 4),Block 7,ON PONG RD|大埔中心4期,7座,安邦路",NTP,5299500.0,13318.0,375.0,5315250.0,13440.0,375.0,6777795.0,15231.0,445.0,8.0,14.0,21.0,"['A', 'B', 'C', 'D', 'E', 'F', 'G', 'H']",5810924.583333333,14197.75,410.0,22,176,1985/11,36,TAI PO CTR,大埔中心,True,22.0,4072.0,POINT Z (22.451753 114.1703865 0),22.451753,114.17038649999999
193,"THE PARAGON(Block 11),SHAN YIN RD|悠然山莊11座,山賢路",NTP,8862370.555047292,9037.0,914.0,8991789.29966068,9001.0,914.0,10812791.848697245,10594.0,1108.0,2.0,6.0,10.0,"['A', 'B', 'C', 'D', 'E', 'F']",9628585.960907487,9604.72222222222,979.6666666666666,12,72,1998/02,23,THE PARAGON,悠然山莊,True,3.0,216.0,POINT Z (22.4428345 114.1737073 0),22.4428345,114.17370729999999
194,"PING ON BLDG,HEUNG SZE WUI SQUARE|平安樓,鄉事會坊",NTP,3001127.234224049,7222.0,322.0,3001127.234224049,7222.0,322.0,3026891.549998334,7284.0,456.0,2.0,2.0,4.0,"['A', 'B', 'C', 'E', 'F', 'G']",3009715.339482144,7242.666666666667,395.3333333333333,4,24,1971/11,50,blank,,False,,,POINT Z (22.4466986 114.1669263 0),22.4466986,114.1669263
195,"ELEGANCE GARDEN(Block 1),NAM WAN RD|富雅花園1座,南運路",NTP,3790804.025734892,8427.0,431.0,3941162.56151999,8751.0,431.0,5587714.733497851,9999.0,592.0,6.0,14.0,22.0,"['A', 'B', 'C', 'D', 'E', 'F', 'G', 'H', 'J', 'K']",4885955.890659739,8862.533333333335,538.2,25,250,1990/11,31,ELEGANCE GARDEN,富雅花園,True,4.0,908.0,POINT Z (22.4445731 114.166996 0),22.444573100000003,114.166996
196,"TAI PO CTR(Phase 6),Block 11,ON PONG RD|大埔中心6期,11座,安邦路",NTP,5224124.0,13107.0,386.0,5572682.0,13655.0,386.0,7702496.0,15107.0,544.0,8.0,15.0,22.0,"['A', 'B', 'C', 'D', 'E', 'F', 'G', 'H']",6334760.208333333,14122.625,449.75,23,184,1987/06,34,TAI PO CTR,大埔中心,True,22.0,4072.0,POINT Z (22.4521873 114.1712225 0),22.452187300000002,114.17122250000001
197,"TAI PO CTR(Phase 1),Block 2,ON PONG RD|大埔中心1期,2座,安邦路",NTP,4754880.0,13208.0,360.0,4602960.0,12786.0,360.0,5875335.0,15322.0,405.0,9.0,18.0,28.0,"['A', 'B', 'C', 'D', 'E', 'F', 'G', 'H']",5418166.875,14170.833333333334,382.5,30,240,1985/05,36,TAI PO CTR,大埔中心,True,22.0,4072.0,POINT Z (22.4523834 114.1686741 0),22.4523834,114.16867409999999
198,"TAI PO CTR(Phase 6),Block 14,ON PONG RD|大埔中心6期,14座,安邦路",NTP,5087480.0,12781.0,386.0,5284726.0,13242.0,386.0,7858080.0,14518.0,544.0,8.0,15.0,22.0,"['A', 'B', 'C', 'D', 'E', 'F', 'G', 'H']",6166081.333333333,13703.458333333334,449.75,23,184,1987/06,34,TAI PO CTR,大埔中心,True,22.0,4072.0,POINT Z (22.4528849 114.1712225 0),22.452884899999997,114.17122250000001
199,"GRAND DYNASTY VIEW(Block 30,Phase 4,CLASSICAL GARDEN),9 MA WO RD|新峰花園,4期,30座(御峰豪園),9 馬窩路",NTP,10768400.476428878,11094.0,511.0,10864494.910101715,11193.0,511.0,10693660.361350004,11017.0,946.0,3.0,6.0,9.0,"['A', 'B', 'C', 'D']",10775518.582626866,11101.333333333334,648.5,10,40,1997/09,24,CLASSICAL GARDEN,新峰花園,True,27.0,1450.0,POINT Z (22.4406404 114.161239 0),22.4406404,114.161239
200,"TAI PO CTR(Phase 4),Block 10,ON PONG RD|大埔中心4期,10座,安邦路",NTP,5188500.0,13374.0,375.0,5277375.0,13811.0,375.0,6979380.0,15684.0,445.0,8.0,14.0,21.0,"['A', 'B', 'C', 'D', 'E', 'F', 'G', 'H']",5950501.458333333,14523.708333333334,410.0,22,176,1985/11,36,TAI PO CTR,大埔中心,True,22.0,4072.0,POINT Z (22.4514535 114.171176 0),22.4514535,114.171176
201,"GRAND DYNASTY VIEW(Block 29,Phase 4,CLASSICAL GARDEN),9 MA WO RD|新峰花園,4期,29座(御峰豪園),9 馬窩路",NTP,8151220.0,10575.0,737.0,8423173.0,10665.0,737.0,10857912.0,11582.0,1014.0,3.0,6.0,9.0,"['A', 'B', 'C', 'D', 'E', 'F']",9259304.833333334,11069.77777777778,839.3333333333334,10,60,1997/09,24,CLASSICAL GARDEN,新峰花園,True,27.0,1450.0,POINT Z (22.4406404 114.161239 0),22.4406404,114.161239
202,"DEERHILL TOWER(Block 3,DEERHILL BAY),TAI PO RD TAI PO KAU|鹿茵山莊,3座(鹿怡居),大埔公路大埔滘段",NTP,14418768.0,12077.0,1092.0,14696136.0,12298.0,1092.0,28665252.0,13651.0,2298.0,3.0,7.0,10.0,"['A', 'AB', 'B', 'C', 'D', 'E']",18253249.866666663,13019.466666666667,1365.0,11,66,1998/12,23,DEERHILL BAY,鹿茵山莊,True,6.0,422.0,POINT Z (22.429872 114.196211 0),22.429872,114.196211
203,"DEERHILL TOWER(Block 5,DEERHILL BAY),TAI PO RD TAI PO KAU|鹿茵山莊,5座(鹿怡居),大埔公路大埔滘段",NTP,13235938.572993508,11184.0,1092.0,13577677.44243929,12118.0,1092.0,17312865.021649715,14251.0,2298.0,3.0,7.0,10.0,"['A', 'A & B', 'A&B', 'B', 'C', 'D', 'D & E', 'DE', 'E']",19124113.751211997,12605.874074074074,1671.111111111111,11,99,1998/12,23,DEERHILL BAY,鹿茵山莊,True,6.0,422.0,POINT Z (22.429872 114.196211 0),22.429872,114.196211
204,"DEERHILL TOWER(Block 6,DEERHILL BAY),TAI PO RD TAI PO KAU|鹿茵山莊,6座(鹿怡居),大埔公路大埔滘段",NTP,13702636.0,11067.0,1108.0,13982960.0,11259.0,1108.0,26115048.0,12778.0,2292.0,3.0,7.0,10.0,"['A', 'AB', 'B', 'C', 'D']",17999395.066666666,12185.066666666666,1494.2,11,55,1998/08,23,DEERHILL BAY,鹿茵山莊,True,6.0,422.0,POINT Z (22.429872 114.196211 0),22.429872,114.196211
205,"DEERHILL VILLAS(Block 7,DEERHILL BAY),TAI PO RD TAI PO KAU|鹿茵山莊,7座(鹿茵軒),大埔公路大埔滘段",NTP,,,1437.0,37935136.12651729,12463.0,1437.0,,,1749.0,2.0,3.0,5.0,"['A', 'B', 'C']",37935136.12651729,12463.0,1627.6666666666667,5,15,1998/08,23,DEERHILL BAY,鹿茵山莊,True,6.0,422.0,POINT Z (22.43011 114.196447 0),22.43011,114.19644699999999
206,"TAI PO CTR(Phase 3),Block 22,PO WU LANE|大埔中心3期,22座,寶湖里",NTP,4268080.0,13678.0,310.0,4420290.0,14156.0,310.0,5092425.0,15721.0,325.0,7.0,14.0,20.0,"['A', 'B', 'C', 'D', 'E', 'F', 'G', 'H']",4690713.958333333,14770.708333333334,317.5,20,160,1985/11,36,TAI PO CTR,大埔中心,True,22.0,4072.0,POINT Z (22.4502893 114.1689751 0),22.4502893,114.1689751
207,"GRAND DYNASTY VIEW(Block 28,Phase 4,CLASSICAL GARDEN),9 MA WO RD|新峰花園,4期,28座(御峰豪園),9 馬窩路",NTP,6545714.283835457,10412.0,551.0,6620906.890481692,10543.0,551.0,9733998.597091476,11852.0,882.0,3.0,6.0,9.0,"['A', 'B', 'C', 'D', 'E', 'F']",8385308.091343388,10979.5,749.0,10,60,1997/09,24,CLASSICAL GARDEN,新峰花園,True,27.0,1450.0,POINT Z (22.4406404 114.161239 0),22.4406404,114.161239
208,"GRAND DYNASTY VIEW(Block 25,Phase 4,CLASSICAL GARDEN),9 MA WO RD|新峰花園,4期,25座(御峰豪園),9 馬窩路",NTP,6457192.0,10647.0,536.0,6504896.0,10461.0,536.0,9643949.0,11880.0,929.0,3.0,6.0,9.0,"['A', 'B', 'C', 'D', 'E', 'F']",8333843.722222223,11023.27777777778,761.0,10,60,1997/09,24,CLASSICAL GARDEN,新峰花園,True,27.0,1450.0,POINT Z (22.4406404 114.161239 0),22.4406404,114.161239
209,"DEERHILL TOWER(Block 2,DEERHILL BAY),TAI PO RD TAI PO KAU|鹿茵山莊,2座(鹿怡居),大埔公路大埔滘段",NTP,13774488.0,10556.0,1092.0,14069328.0,10758.0,1092.0,25071180.0,13130.0,2298.0,3.0,7.0,10.0,"['A', 'A & B', 'B', 'C', 'D', 'DE', 'E']",17522548.0,11992.333333333334,1495.3333333333333,11,77,1998/08,23,DEERHILL BAY,鹿茵山莊,True,6.0,422.0,POINT Z (22.429872 114.196211 0),22.429872,114.196211
210,"TAI PO CTR(Phase 3),Block 20,PO WU LANE|大埔中心3期,20座,寶湖里",NTP,4576840.0,14764.0,310.0,4511430.0,14553.0,310.0,5299125.0,16305.0,325.0,8.0,14.0,21.0,"['A', 'B', 'C', 'D', 'E', 'F', 'G', 'H']",4915190.416666667,15478.916666666666,317.5,20,160,1985/11,36,TAI PO CTR,大埔中心,True,22.0,4072.0,POINT Z (22.4502826 114.1694013 0),22.4502826,114.1694013
211,"GRAND DYNASTY VIEW(Block 31,Phase 4,CLASSICAL GARDEN),9 MA WO RD|新峰花園,4期,31座(御峰豪園),9 馬窩路",NTP,6881130.0,11355.0,511.0,6956274.0,11479.0,511.0,11191180.0,13655.0,946.0,3.0,6.0,9.0,"['A', 'B', 'C', 'D']",8788149.0,11817.888888888889,648.5,10,40,1997/09,24,CLASSICAL GARDEN,新峰花園,True,27.0,1450.0,POINT Z (22.4406404 114.161239 0),22.4406404,114.161239
212,"GRAND DYNASTY VIEW(Block 26,Phase 4,CLASSICAL GARDEN),9 MA WO RD|新峰花園,4期,26座(御峰豪園),9 馬窩路",NTP,6696033.829417472,10310.0,556.0,6790695.886155983,10427.0,556.0,9831995.342251591,12154.0,845.0,3.0,6.0,9.0,"['A', 'B', 'C', 'D', 'E', 'F']",7809680.731376837,11322.777777777776,677.3333333333334,10,60,1997/09,24,CLASSICAL GARDEN,新峰花園,True,27.0,1450.0,POINT Z (22.4406404 114.161239 0),22.4406404,114.161239
213,"GRAND DYNASTY VIEW(Block 27,Phase 4,CLASSICAL GARDEN),9 MA WO RD|新峰花園,4期,27座(御峰豪園),9 馬窩路",NTP,6444694.771878406,10875.0,544.0,6536235.560254299,11025.0,544.0,9442832.0,12509.0,826.0,3.0,6.0,9.0,"['A', 'B', 'C', 'D', 'E', 'F']",8343196.160389538,11432.944444444445,730.1666666666666,10,60,1997/09,24,CLASSICAL GARDEN,新峰花園,True,27.0,1450.0,POINT Z (22.4406404 114.161239 0),22.4406404,114.161239
214,"TAI PO CTR(Phase 1),Block 1,ON PONG RD|大埔中心1期,1座,安邦路",NTP,4705560.0,13071.0,360.0,4907160.0,13631.0,360.0,6192045.0,15289.0,405.0,9.0,18.0,28.0,"['A', 'B', 'C', 'D', 'E', 'F', 'G', 'H']",5437693.125,14200.791666666666,382.5,30,240,1985/05,36,TAI PO CTR,大埔中心,True,22.0,4072.0,POINT Z (22.4524695 114.1686031 0),22.4524695,114.1686031
215,"TAI PO CTR(Phase 5),Block 18,ON PONG RD|大埔中心5期,18座,安邦路",NTP,5217420.0,12679.0,390.0,5261880.0,12849.0,390.0,7011312.0,14289.0,528.0,6.0,12.0,19.0,"['A', 'B', 'C', 'D', 'E', 'F', 'G', 'H']",6005610.083333333,13470.208333333334,446.75,20,160,1987/03,34,TAI PO CTR,大埔中心,True,22.0,4072.0,POINT Z (22.4536145 114.1717552 0),22.4536145,114.17175520000002
216,"TAI PO CTR(Phase 4),Block 8,ON PONG RD|大埔中心4期,8座,安邦路",NTP,5016750.0,13282.0,375.0,5265000.0,13674.0,375.0,6605580.0,16179.0,445.0,8.0,14.0,21.0,"['A', 'B', 'C', 'D', 'E', 'F', 'G', 'H']",5916895.833333333,14533.5,408.0,22,176,1985/11,36,TAI PO CTR,大埔中心,True,22.0,4072.0,POINT Z (22.4517451 114.1707116 0),22.4517451,114.17071159999999
217,"TAI PO CTR(Phase 6),Block 15,ON PONG RD|大埔中心6期,15座,安邦路",NTP,5511308.0,13728.0,386.0,5705080.0,14078.0,386.0,7815104.0,15382.0,544.0,8.0,15.0,22.0,"['A', 'B', 'C', 'D', 'E', 'F', 'G', 'H']",6505632.708333333,14499.791666666666,449.75,23,184,1987/06,34,TAI PO CTR,大埔中心,True,22.0,4072.0,POINT Z (22.4532663 114.1708211 0),22.4532663,114.17082109999998
218,"DYNASTY VIEW(Block 18,Phase 3,CLASSICAL GARDEN),11 MA WO RD|新峰花園,3期,18座(御峰苑),11 馬窩路",NTP,6325321.134848859,10801.0,519.0,6617144.335884149,10944.0,519.0,13569575.688661762,12141.0,1230.0,2.0,6.0,8.0,"['A', 'B', 'C', 'D', 'E', 'F']",9128078.155193903,11506.5,780.4444444444445,8,48,1996/06,25,CLASSICAL GARDEN,新峰花園,True,27.0,1450.0,POINT Z (22.4414865 114.1599135 0),22.4414865,114.1599135
219,"WANG SUN HSE(Block C,WANG FUK COURT),TAI PO RD YUEN CHAU TSAI|宏福苑,C座(宏新閣),大埔公路元洲仔段",NTP,4481568.828371138,9758.0,431.0,4681457.234767797,10044.0,431.0,5361249.37341001,11168.0,483.0,7.0,16.0,26.0,"['1', '2', '3', '4', '5', '6', '7', '8']",4883544.184139854,10416.958333333334,457.0,29,232,1983/07,38,WANG FUK COURT,宏福苑,True,8.0,1714.0,POINT Z (22.4469311 114.1754355 0),22.4469311,114.17543549999999
220,"CLASSICAL GARDEN(Phase 1),Block 17,MA WO RD|新峰花園1期,17座,馬窩路",NTP,6704460.0,10631.0,612.0,6798096.0,10789.0,612.0,12985000.0,11686.0,1250.0,2.0,5.0,7.0,"['A', 'B', 'C', 'D', 'E', 'F']",7976947.833333333,11013.0,727.2777777777777,7,42,1994/07,27,CLASSICAL GARDEN,新峰花園,True,27.0,1450.0,POINT Z (22.4419365 114.1609344 0),22.4419365,114.1609344
221,"TAI PO CTR(Phase 5),Block 17,ON PONG RD|大埔中心5期,17座,安邦路",NTP,5422332.0,13161.0,390.0,5262270.0,13493.0,390.0,8043552.0,15276.0,528.0,6.0,12.0,19.0,"['A', 'B', 'C', 'D', 'E', 'F', 'G', 'H']",6450046.458333333,14416.875,446.75,20,160,1987/03,34,TAI PO CTR,大埔中心,True,22.0,4072.0,POINT Z (22.4536255 114.1719173 0),22.4536255,114.17191729999999
222,"CLASSICAL GARDEN(Phase 2),Block 6,MA WO RD|新峰花園2期,6座,馬窩路",NTP,8198856.0,9902.0,828.0,8389296.0,10132.0,828.0,10066875.0,11375.0,885.0,3.0,8.0,11.0,"['A', 'B', 'C', 'D', 'E', 'F']",9320825.944444446,10838.611111111111,859.3333333333334,12,72,1995/09,26,CLASSICAL GARDEN,新峰花園,True,27.0,1450.0,POINT Z (22.4421285 114.1627462 0),22.4421285,114.1627462
223,"DYNASTY VIEW(Block 20,Phase 3,CLASSICAL GARDEN),11 MA WO RD|新峰花園,3期,20座(御峰苑),11 馬窩路",NTP,6675458.517700641,7874.0,534.0,6686971.650856102,7936.0,534.0,11538292.531531258,9741.0,1200.0,2.0,6.0,8.0,"['A', 'B', 'C', 'D', 'E', 'F']",8814493.896304393,9216.5,752.8333333333334,8,48,1996/06,25,CLASSICAL GARDEN,新峰花園,True,27.0,1450.0,POINT Z (22.4414865 114.1599135 0),22.4414865,114.1599135
224,"CLASSICAL GARDEN(Phase 2),Block 2,MA WO RD|新峰花園2期,2座,馬窩路",NTP,6390061.0,10351.0,589.0,6542612.0,10597.0,589.0,9598857.0,12142.0,893.0,3.0,8.0,11.0,"['A', 'B', 'C', 'D', 'E', 'F']",8120752.944444444,11042.722222222224,740.3333333333334,12,72,1995/09,26,CLASSICAL GARDEN,新峰花園,True,27.0,1450.0,POINT Z (22.4429604 114.1628624 0),22.4429604,114.16286240000001
225,"DYNASTY VIEW(Block 23,Phase 3,CLASSICAL GARDEN),11 MA WO RD|新峰花園,3期,23座(御峰苑),11 馬窩路",NTP,7155219.439322687,6572.0,514.0,7274981.176742877,6682.0,514.0,16289733.529914586,12285.0,1209.0,2.0,6.0,8.0,"['A', 'B', 'C', 'D', 'E', 'F']",10346739.427587733,10718.583333333334,783.3333333333334,8,48,1996/06,25,CLASSICAL GARDEN,新峰花園,True,27.0,1450.0,POINT Z (22.4414865 114.1599135 0),22.4414865,114.1599135
226,"CLASSICAL GARDEN(Phase 2),Block 1,MA WO RD|新峰花園2期,1座,馬窩路",NTP,6778877.750389826,10845.0,546.0,7017054.536214334,11055.0,546.0,10142074.0,13052.0,907.0,3.0,8.0,11.0,"['A', 'B', 'C', 'D', 'E', 'F']",7888610.964422551,12270.22222222222,645.8333333333334,12,72,1995/05,26,CLASSICAL GARDEN,新峰花園,True,27.0,1450.0,POINT Z (22.4429604 114.1628624 0),22.4429604,114.16286240000001
227,"BEGONIA COURT(Block 2,Phase 1,FULLER GARDENS),8 CHUI LOK ST|富萊花園,1期,2座(金棠閣),8 翠樂街",NTP,6551100.0,12968.0,502.0,6781518.0,13183.0,502.0,8819200.0,14068.0,640.0,8.0,15.0,20.0,"['A', 'B', 'C', 'D']",7686969.833333333,13476.583333333334,571.0,17,68,1997/02,24,FULLER GARDENS,富萊花園,True,3.0,172.0,POINT Z (22.4536243 114.1646273 0),22.4536243,114.1646273
228,"CLASSICAL GARDEN(Phase 2),Block 7,MA WO RD|新峰花園2期,7座,馬窩路",NTP,6719312.0,10676.0,589.0,6951378.0,10824.0,589.0,9733661.0,12208.0,889.0,3.0,8.0,11.0,"['A', 'B', 'C', 'D', 'E', 'F']",8409517.833333334,11431.833333333334,739.6666666666666,12,72,1995/09,26,CLASSICAL GARDEN,新峰花園,True,27.0,1450.0,POINT Z (22.4424755 114.1630156 0),22.4424755,114.1630156
229,"CLASSICAL GARDEN(Phase 2),Block 8,MA WO RD|新峰花園2期,8座,馬窩路",NTP,8879768.394086272,10221.0,828.0,9045435.714871464,10409.0,828.0,10067484.882237274,10781.0,931.0,4.0,8.0,11.0,"['A', 'B', 'C', 'D', 'E', 'F']",9425764.966809327,10483.111111111111,876.5,11,66,1995/09,26,CLASSICAL GARDEN,新峰花園,True,27.0,1450.0,POINT Z (22.4424755 114.1630156 0),22.4424755,114.1630156
230,"CLASSICAL GARDEN(Phase 1),Block 9,MA WO RD|新峰花園1期,9座,馬窩路",NTP,6870222.0,10986.0,606.0,6980514.0,11176.0,606.0,8784004.0,11667.0,779.0,2.0,6.0,8.0,"['A', 'B', 'C', 'D', 'E', 'F']",8167390.611111112,11250.444444444443,726.5,8,48,1994/07,27,CLASSICAL GARDEN,新峰花園,True,27.0,1450.0,POINT Z (22.4423158 114.1617012 0),22.4423158,114.16170120000001
231,"CLASSICAL GARDEN(Phase 1),Block 11,MA WO RD|新峰花園1期,11座,馬窩路",NTP,6561995.0,12231.0,521.0,6651607.0,12346.0,521.0,9020616.0,12878.0,727.0,2.0,6.0,8.0,"['A', 'B', 'C', 'D', 'E', 'F']",7802418.444444444,12513.444444444445,624.6666666666666,8,48,1994/07,27,CLASSICAL GARDEN,新峰花園,True,27.0,1450.0,POINT Z (22.4417524 114.1618173 0),22.4417524,114.1618173
232,"CLASSICAL GARDEN(Phase 2),Block 3,MA WO RD|新峰花園2期,3座,馬窩路",NTP,9238200.0,10481.0,828.0,9610403.757549169,10706.0,828.0,10194286.1529542,11486.0,885.0,3.0,8.0,11.0,"['A', 'B', 'C', 'D', 'E', 'F']",9737070.147493174,11064.388888888889,859.3333333333334,12,72,1995/05,26,CLASSICAL GARDEN,新峰花園,True,27.0,1450.0,POINT Z (22.4425351 114.162932 0),22.442535100000004,114.16293200000001
233,"TAI PO CTR(Phase 4),Block 9,ON PONG RD|大埔中心4期,9座,安邦路",NTP,5418375.0,13934.0,375.0,5517750.0,14390.0,375.0,6748425.0,15552.0,445.0,8.0,14.0,21.0,"['A', 'B', 'C', 'D', 'E', 'F', 'G', 'H']",6066509.375,14816.208333333334,410.0,22,176,1985/11,36,TAI PO CTR,大埔中心,True,22.0,4072.0,POINT Z (22.4514541 114.1708974 0),22.451454100000003,114.17089740000002
234,"MARIGOLD COURT(Block 1,Phase 1,FULLER GARDENS),8 CHUI LOK ST|富萊花園,1期,1座(銀菊閣),8 翠樂街",NTP,6784028.0,12641.0,502.0,7013944.0,13097.0,502.0,8899840.0,14555.0,640.0,8.0,15.0,20.0,"['A', 'B', 'C', 'D']",7763802.0,13641.25,571.0,17,68,1997/02,24,FULLER GARDENS,富萊花園,True,3.0,172.0,POINT Z (22.4541906 114.164906 0),22.4541906,114.164906
235,"CLASSICAL GARDEN(Phase 2),Block 5,MA WO RD|新峰花園2期,5座,馬窩路",NTP,,,843.0,,,843.0,,,933.0,3.0,8.0,11.0,"['A', 'B', 'C', 'D']",,,888.0,12,48,1995/09,26,CLASSICAL GARDEN,新峰花園,True,27.0,1450.0,POINT Z (22.4424048 114.1626534 0),22.442404800000002,114.1626534
236,"TAI PO CTR(Phase 6),Block 12,ON PONG RD|大埔中心6期,12座,安邦路",NTP,5197490.0,12864.0,386.0,5388174.0,13334.0,386.0,7505568.0,14667.0,544.0,8.0,15.0,22.0,"['A', 'B', 'C', 'D', 'E', 'F', 'G', 'H']",6155870.666666667,13716.291666666666,449.75,23,184,1987/06,34,TAI PO CTR,大埔中心,True,22.0,4072.0,POINT Z (22.4524058 114.1709438 0),22.4524058,114.1709438
237,"DYNASTY VIEW(Block 19,Phase 3,CLASSICAL GARDEN),11 MA WO RD|新峰花園,3期,19座(御峰苑),11 馬窩路",NTP,8763983.907856343,10217.0,836.0,8932109.663551738,10413.0,836.0,9662328.0,11544.0,842.0,2.0,6.0,8.0,"['A', 'B', 'C', 'D']",9341119.113926252,11089.22222222222,838.0,8,32,1996/06,25,CLASSICAL GARDEN,新峰花園,True,27.0,1450.0,POINT Z (22.4414865 114.1599135 0),22.4414865,114.1599135
238,"DYNASTY VIEW(Block 21,Phase 3,CLASSICAL GARDEN),11 MA WO RD|新峰花園,3期,21座(御峰苑),11 馬窩路",NTP,6620770.4247709,10651.0,532.0,6601665.225260059,10381.0,532.0,12751474.01304518,12077.0,1199.0,2.0,6.0,8.0,"['A', 'B', 'C', 'D', 'E', 'F']",8868864.559546689,11370.666666666666,781.8888888888888,8,48,1996/06,25,CLASSICAL GARDEN,新峰花園,True,27.0,1450.0,POINT Z (22.4414865 114.1599135 0),22.4414865,114.1599135
239,"CLASSICAL GARDEN(Phase 1),Block 10,MA WO RD|新峰花園1期,10座,馬窩路",NTP,8226370.0,11104.0,730.0,8112490.0,10953.0,730.0,8984528.0,11578.0,776.0,2.0,6.0,8.0,"['A', 'B', 'C', 'D', 'E', 'F']",8425802.777777778,11193.166666666666,752.6666666666666,8,48,1994/07,27,CLASSICAL GARDEN,新峰花園,True,27.0,1450.0,POINT Z (22.4416667 114.1616667 0),22.4416667,114.16166670000001
240,"MEE WAH BLDG,WAN TAU ST|美華大廈,運頭街",NTP,4172783.1129669216,8484.0,365.0,4233771.456437914,8608.0,365.0,6927861.368487248,12057.0,560.0,4.0,7.0,10.0,"['A', 'B', 'C', 'E', 'F']",6075005.332002674,10950.0,479.3999999999999,9,45,1982/12,39,blank,,False,,,POINT Z (22.4468698 114.1685984 0),22.4468698,114.16859840000002
241,"GOLD RESERVED COURT,TAI MING LANE|儲金閣,大明里",NTP,3815700.0,8200.0,460.0,3848820.0,8249.0,460.0,3970050.0,8507.0,475.0,2.0,4.0,5.0,"['A', 'B', 'C', 'D', 'E', 'F', 'G']",3865821.1904761903,8288.333333333334,466.4285714285714,6,42,1972/03,49,blank,,False,,,POINT Z (22.4471619 114.1678552 0),22.447161899999998,114.16785520000002
242,"CLASSICAL GARDEN(Phase 1),Block 12,MA WO RD|新峰花園1期,12座,馬窩路",NTP,6501885.19133787,12940.0,457.0,6528144.067056529,12977.0,457.0,9896813.476703728,14260.0,766.0,2.0,6.0,8.0,"['A', 'B', 'C', 'D', 'E', 'F']",8502443.303094048,13454.4,638.3333333333334,8,48,1994/07,27,CLASSICAL GARDEN,新峰花園,True,27.0,1450.0,POINT Z (22.4416838 114.1615619 0),22.441683800000003,114.1615619
243,"CINNAMON COURT(Block 3,Phase 2,FULLER GARDENS),23 KAU HUI CHIK ST|富萊花園,2期,3座(玉桂閣),23 舊墟直街",NTP,5661000.0,12580.0,450.0,5871600.0,13048.0,450.0,6043950.0,13431.0,450.0,8.0,16.0,21.0,"['A', 'B']",5866125.0,13035.833333333334,450.0,18,36,1998/07,23,FULLER GARDENS,富萊花園,True,3.0,172.0,POINT Z (22.454209 114.165106 0),22.454209,114.16510600000001
244,"WANG YAN HSE(Block A,WANG FUK COURT),TAI PO RD YUEN CHAU TSAI|宏福苑,A座(宏仁閣),大埔公路元洲仔段",NTP,3915575.4786652094,4228.0,431.0,4128289.185013774,4371.0,431.0,5081676.278548721,11491.0,483.0,6.0,17.0,27.0,"['1', '2', '3', '4', '5', '6', '7', '8']",4463119.432371906,5769.733333333334,457.0,27,216,1983/07,38,WANG FUK COURT,宏福苑,True,8.0,1714.0,POINT Z (22.4469311 114.1754355 0),22.4469311,114.17543549999999
245,"RICHWOOD PARK(Block 15),LO FAI RD|嘉豐花園15座,露輝路",NTP,6820674.536454894,5063.0,594.0,6820674.536454894,5063.0,594.0,7112589.005517968,5653.0,658.0,2.0,2.0,3.0,"['A', 'B', 'C']",6913931.52289633,5316.833333333333,629.3333333333334,4,12,1995/02,26,RICHWOOD PARK,嘉豐花園,True,9.0,136.0,POINT Z (22.4643055 114.1959768 0),22.4643055,114.1959768
246,"CLASSICAL GARDEN(Phase 1),Block 15,MA WO RD|新峰花園1期,15座,馬窩路",NTP,6005218.749940407,11417.0,459.0,6179945.136594621,11655.0,459.0,11262942.0,12269.0,918.0,2.0,6.0,8.0,"['A', 'B', 'C', 'D', 'E', 'F']",8086598.115027626,11980.333333333334,677.0,8,48,1994/07,27,CLASSICAL GARDEN,新峰花園,True,27.0,1450.0,POINT Z (22.4414865 114.1599135 0),22.4414865,114.1599135
247,"WANG CHI HSE(Block H,WANG FUK COURT),TAI PO RD YUEN CHAU TSAI|宏福苑,H座(宏志閣),大埔公路元洲仔段",NTP,4525500.0,10481.0,431.0,4734535.0,10704.0,431.0,5562228.0,11781.0,483.0,6.0,15.0,25.0,"['1', '2', '3', '4', '5', '6', '7', '8']",5051628.5,11056.333333333334,457.0,29,232,1983/07,38,WANG FUK COURT,宏福苑,True,8.0,1714.0,POINT Z (22.4471638 114.1762385 0),22.447163800000002,114.1762385
248,"DYNASTY VIEW(Block 22,Phase 3,CLASSICAL GARDEN),11 MA WO RD|新峰花園,3期,22座(御峰苑),11 馬窩路",NTP,6084378.0,12653.0,471.0,6203070.0,13101.0,471.0,9056219.0,13753.0,790.0,2.0,6.0,8.0,"['A', 'B', 'C', 'D', 'E', 'F']",6930001.244444445,12996.644444444444,624.1666666666666,8,48,1996/06,25,CLASSICAL GARDEN,新峰花園,True,27.0,1450.0,POINT Z (22.4414865 114.1599135 0),22.4414865,114.1599135
249,"KWONG FUK PLACE,KWONG FUK RD|廣福華庭,廣福道",NTP,5161278.0,12497.0,402.0,5232432.0,12669.0,402.0,6253080.0,13193.0,487.0,7.0,10.0,13.0,"['A', 'B', 'C', 'D']",5551142.166666667,12898.583333333334,430.75,10,40,1999/06,22,blank,,False,,,POINT Z (22.4491886 114.1653124 0),22.449188600000003,114.1653124
250,"THE PARAMOUNT(Block 2),SHAN TONG RD|盈峰翠邸2座,山塘路",NTP,14328629.784216024,7204.0,917.0,14751384.057319516,7212.0,917.0,15726550.464703802,7432.0,999.0,1.0,2.0,3.0,"['A', 'B', 'C', 'D']",15103139.620432416,7339.88888888889,958.0,3,12,1998/11,23,THE PARAMOUNT,盈峰翠邸,True,2.0,24.0,POINT Z (22.4363387 114.1677856 0),22.4363387,114.16778559999999
251,"RICHWOOD PARK(Block 2),LO FAI RD|嘉豐花園2座,露輝路",NTP,9489171.779114615,5655.0,923.0,9489171.779114615,5655.0,923.0,11454332.544088792,9288.0,1030.0,2.0,2.0,3.0,"['A', 'B', 'D']",10166534.824630657,7081.88888888889,986.3333333333334,4,12,1995/02,26,RICHWOOD PARK,嘉豐花園,True,9.0,136.0,POINT Z (22.4638193 114.1957446 0),22.4638193,114.1957446
252,"THE PARAMOUNT(Block 11),SHAN TONG RD|盈峰翠邸11座,山塘路",NTP,9761940.0,11527.0,843.0,9950578.914639713,11504.0,843.0,12319233.751953073,11853.0,1029.0,1.0,2.0,3.0,"['A', 'B', 'C', 'D']",11251029.379322616,11612.666666666666,948.0,3,12,1998/11,23,THE PARAMOUNT,盈峰翠邸,True,2.0,24.0,POINT Z (22.4353649 114.1678785 0),22.435364899999996,114.16787849999999
253,"LA FONTAINE(Block A),CHUI LOK ST|菁泉雅居A座,翠樂街",NTP,5992178.57912498,12025.0,400.0,6185487.901780313,12399.0,400.0,9205500.0,15478.0,722.0,7.0,14.0,20.0,"['A', 'B', 'C', 'D']",7474434.218429874,13062.25,578.25,18,72,1998/07,23,LA FONTAINE,菁泉雅居,True,2.0,162.0,POINT Z (22.4527988 114.1643215 0),22.4527988,114.16432150000001
254,"LA FONTAINE(Block B),CHUI LOK ST|菁泉雅居B座,翠樂街",NTP,5886605.421870985,13462.0,400.0,6080124.060353397,14601.0,400.0,8225332.200143946,15283.0,682.0,7.0,14.0,20.0,"['A', 'B', 'C', 'D', 'E']",6954307.357278451,14616.944444444445,535.2,18,90,1998/07,23,LA FONTAINE,菁泉雅居,True,2.0,162.0,POINT Z (22.4525932 114.1642557 0),22.4525932,114.1642557
255,"CLASSICAL GARDEN(Phase 1),Block 16,MA WO RD|新峰花園1期,16座,馬窩路",NTP,6665868.0,11813.0,543.0,6756006.0,11977.0,543.0,12724818.0,12392.0,1147.0,2.0,5.0,7.0,"['A', 'B', 'C', 'D', 'E', 'F']",8410145.677777776,12074.244444444443,719.6666666666666,7,42,1994/07,27,CLASSICAL GARDEN,新峰花園,True,27.0,1450.0,POINT Z (22.4419572 114.1610742 0),22.441957199999997,114.1610742
256,"TAI PO CTR(Phase 3),Block 21,PO WU LANE|大埔中心3期,21座,寶湖里",NTP,4524975.0,13923.0,310.0,4764700.0,14698.0,310.0,5142150.0,16125.0,325.0,7.0,14.0,21.0,"['A', 'B', 'C', 'D', 'E', 'F', 'G', 'H']",4812931.666666667,15165.291666666666,317.5,21,168,1985/11,36,TAI PO CTR,大埔中心,True,22.0,4072.0,POINT Z (22.4503127 114.1686807 0),22.450312699999998,114.1686807
257,"CHAN COURT,ON FU RD|長江雅苑,安富道",NTP,6852562.0,12107.0,566.0,6978214.0,12329.0,566.0,7139524.0,12614.0,566.0,7.0,11.0,16.0,['whole floor'],6990100.0,12350.0,566.0,13,13,1998/10,23,blank,,False,,,POINT Z (22.4479769 114.165324 0),22.447976899999997,114.165324
258,"RICHWOOD PARK(Block 9),LO FAI RD|嘉豐花園9座,露輝路",NTP,6783055.709843954,5364.0,597.0,6783055.709843954,5364.0,597.0,11030737.727286285,7106.0,1190.0,2.0,2.0,3.0,"['A', 'B', 'C', 'D']",8446953.017843874,6210.833333333333,831.5,4,16,1995/02,26,RICHWOOD PARK,嘉豐花園,True,9.0,136.0,POINT Z (22.4628799 114.1967199 0),22.4628799,114.1967199
259,"YAT YAN HSE(Block B,YAT NGA COURT),YAT NGA LANE|逸雅苑,B座(逸欣閣),逸雅里",NTP,4378144.0,10437.0,374.0,4457480.0,10956.0,374.0,6980478.0,13042.0,566.0,7.0,18.0,28.0,"['1', '10', '11', '12', '13', '14', '15', '16', '17', '18', '2', '3', '4', '5', '6', '7', '8', '9']",5296680.018518519,12027.685185185184,442.3888888888889,34,612,1991/09,30,YAT NGA COURT,逸雅苑,True,2.0,1224.0,POINT Z (22.442731 114.16738 0),22.442731,114.16738000000001
260,"PARC VERSAILLES(Block 25),MUI SHU HANG RD|帝欣苑25座,梅樹坑路",NTP,11649746.313562598,11457.0,991.0,11193263.38067443,10769.0,991.0,12343913.524446854,11737.0,1025.0,2.0,4.0,5.0,"['A', 'B', 'C', 'D']",11907825.460440373,11504.25,1008.75,6,24,1996/04,25,PARC VERSAILLES,帝欣苑,True,24.0,560.0,POINT Z (22.4530738 114.1559884 0),22.453073800000002,114.15598840000001
261,"KING YUET HSE(Block B,KING NGA COURT),HIU WAN RD|景雅苑,B座(景悅閣),曉運路",NTP,4541726.0,10750.0,401.0,4775108.0,11278.0,401.0,7774185.0,12770.0,645.0,7.0,18.0,29.0,"['1', '10', '2', '3', '4', '5', '6', '7', '8', '9']",6021829.774074075,11741.214814814817,511.0,32,320,1992/06,29,KING NGA COURT,景雅苑,True,2.0,670.0,POINT Z (22.440637 114.166453 0),22.440637,114.166453
262,"YEE HAU HSE(Block C,YEE NGA COURT),ON PO RD|怡雅苑,C座(怡厚閣),安埔路",NTP,3073937.3342502965,6978.0,401.0,3262792.5392323453,7419.0,401.0,7066260.0,12732.0,645.0,6.0,19.0,30.0,"['1', '10', '2', '3', '4', '5', '6', '7', '8', '9']",4286905.916143041,8201.4,511.2,33,330,1993/06,28,YEE NGA COURT,怡雅苑,True,5.0,1594.0,POINT Z (22.4552347 114.1734518 0),22.4552347,114.1734518
263,"YEE SHUN HSE(Block B,YEE NGA COURT),ON PO RD|怡雅苑,B座(怡順閣),安埔路",NTP,3230857.0,7767.0,401.0,3389252.0,8142.0,401.0,5537325.0,8935.0,645.0,7.0,18.0,30.0,"['1', '10', '2', '3', '4', '5', '6', '7', '8', '9']",4224630.625925926,8346.744444444443,511.0,32,320,1993/06,28,YEE NGA COURT,怡雅苑,True,5.0,1594.0,POINT Z (22.4549452 114.1734697 0),22.454945199999997,114.1734697
264,"HEI WO HSE(Block 1,TAI WO EST),TAI PO TAI WO RD|太和村,1座(喜和樓),大埔太和路",NTP,2289672.0,5446.0,217.0,2409792.0,5738.0,217.0,3018672.825611555,12542.0,485.0,9.0,20.0,30.0,"['1', '11', '12', '14', '15', '16', '18', '2', '20', '23', '29', '30', '4']",2671041.3916084752,7570.120779220779,361.3846153846154,30,390,1989/04,32,TAI WO EST,太和村,True,9.0,2322.0,POINT Z (22.4516934 114.1614334 0),22.451693399999996,114.1614334
265,"JADE GARDEN,PAK SHING ST|翠河花園,北盛街",NTP,5192431.138178259,8563.0,412.0,5407696.004936788,8918.0,412.0,6070267.115955058,9458.0,480.0,7.0,10.0,13.0,"['A', 'B', 'C', 'D']",5694652.943439352,9185.555555555555,448.0,10,40,2000/06,21,blank,,False,,,POINT Z (22.4495384 114.1638609 0),22.449538399999998,114.16386090000002
266,"DEERHILL TOWER(Block 1,DEERHILL BAY),TAI PO RD TAI PO KAU|鹿茵山莊,1座(鹿怡居),大埔公路大埔滘段",NTP,15035616.0,11088.0,1092.0,15241748.0,10988.0,1092.0,25724484.20366209,13971.0,5892.0,3.0,7.0,10.0,"['A', 'A & B', 'A & C & D', 'A-E', 'B', 'C', 'D', 'D & E', 'DE', 'E']",19671246.643965404,12621.875,2222.8,11,110,1998/08,23,DEERHILL BAY,鹿茵山莊,True,6.0,422.0,POINT Z (22.429872 114.196211 0),22.429872,114.196211
267,"FULLVIEW COURT(Block 3,Phase 2,FULL SCENE GARDEN),19 TING KOK RD|富善花園,2期,3座(富景閣),19 汀角路",NTP,5146624.722363795,11830.0,424.0,5334565.709689338,12262.0,424.0,5446704.0,12846.0,424.0,5.0,12.0,20.0,"['A', 'B']",5290463.41277201,12215.0,424.0,20,40,2000/03,21,FULL SCENE GARDEN,富善花園,True,3.0,464.0,POINT Z (22.4527988 114.1650238 0),22.4527988,114.16502379999999
268,"PARC VERSAILLES(Block 15),MUI SHU HANG RD|帝欣苑15座,梅樹坑路",NTP,,,991.0,,,997.0,,,997.0,2.0,4.0,5.0,"['A', 'B']",,,996.0,6,12,1996/04,25,PARC VERSAILLES,帝欣苑,True,24.0,560.0,POINT Z (22.4515551 114.1559419 0),22.4515551,114.1559419
269,"CONSTELLATION COVE(Block 2),HUNG LAM DR|滌濤山2座,紅林路",NTP,13085603.636541855,11711.0,1089.0,13303492.178009337,11906.0,1089.0,14811951.31124574,13256.0,1098.0,2.0,6.0,9.0,"['A', 'B']",13733682.375265643,12291.0,1093.5,9,18,2002/01,19,CONSTELLATION COVE,滌濤山,True,11.0,207.0,POINT Z (22.4360446 114.1847841 0),22.436044600000002,114.1847841
270,"CONSTELLATION COVE(Block 3),HUNG LAM DR|滌濤山3座,紅林路",NTP,12782743.129860051,11305.0,1093.0,13026977.76197414,11521.0,1093.0,,,2315.0,2.0,6.0,8.0,"['A', 'B']",12985895.084658653,11484.666666666666,1301.1666666666667,8,16,2002/01,19,CONSTELLATION COVE,滌濤山,True,11.0,207.0,POINT Z (22.4358487 114.1846448 0),22.4358487,114.18464479999999
271,"CONSTELLATION COVE(Block 1),HUNG LAM DR|滌濤山1座,紅林路",NTP,13874222.562279569,12315.0,1089.0,12478350.718620261,11076.0,1089.0,11751686.19952401,10431.0,1098.0,2.0,6.0,9.0,"['A', 'B']",12759426.475387221,11372.5,1093.5,9,18,2002/01,19,CONSTELLATION COVE,滌濤山,True,11.0,207.0,POINT Z (22.4361969 114.1849235 0),22.4361969,114.18492350000001
272,"CONSTELLATION COVE(Block 11),HUNG LAM DR|滌濤山11座,紅林路",NTP,,,1093.0,,,1093.0,,,1102.0,2.0,6.0,8.0,"['A', 'B']",,,1097.5,8,16,2002/01,19,CONSTELLATION COVE,滌濤山,True,11.0,207.0,POINT Z (22.4346705 114.1852021 0),22.4346705,114.1852021
273,"CONSTELLATION COVE(Block 5),HUNG LAM DR|滌濤山5座,紅林路",NTP,11942246.712861968,10908.0,1031.0,12200365.961505631,11167.0,1031.0,13277656.03817674,11670.0,1147.0,2.0,6.0,9.0,"['A', 'B']",12624229.314273015,11308.166666666666,1089.0,9,18,2002/01,19,CONSTELLATION COVE,滌濤山,True,11.0,207.0,POINT Z (22.4356454 114.1845519 0),22.4356454,114.1845519
274,"CONSTELLATION COVE(Block 6),HUNG LAM DR|滌濤山6座,紅林路",NTP,13250113.563930258,7230.0,1030.0,13525985.667672554,7384.0,1030.0,16317102.49718035,11649.0,1149.0,2.0,6.0,9.0,"['A', 'B']",14785062.233770771,9409.0,1089.5,9,18,2002/01,19,CONSTELLATION COVE,滌濤山,True,11.0,207.0,POINT Z (22.435471 114.1845519 0),22.435471,114.1845519
275,"CONSTELLATION COVE(Block 9),HUNG LAM DR|滌濤山9座,紅林路",NTP,17787382.22811049,8145.0,1031.0,20677888.851563502,5747.0,1031.0,,,1147.0,2.0,6.0,9.0,"['A', 'B']",19232635.539836995,6946.0,1089.0,9,18,2002/01,19,CONSTELLATION COVE,滌濤山,True,11.0,207.0,POINT Z (22.4348675 114.1847841 0),22.4348675,114.1847841
276,"CONSTELLATION COVE(Block 15),HUNG LAM DR|滌濤山15座,紅林路",NTP,15032400.430677837,10160.0,1089.0,15112297.047140101,10214.0,1089.0,16627555.539951978,11331.0,1098.0,2.0,6.0,9.0,"['A', 'B']",16158941.105782678,10969.333333333334,1093.5,9,18,2002/01,19,CONSTELLATION COVE,滌濤山,True,11.0,207.0,POINT Z (22.4344662 114.1856666 0),22.4344662,114.18566659999999
277,"CONSTELLATION COVE(Block 12),HUNG LAM DR|滌濤山12座,紅林路",NTP,12175292.182749111,10807.0,1089.0,12622557.010781998,11204.0,1089.0,12926430.0,11870.0,1098.0,2.0,6.0,9.0,"['A', 'B']",12617068.001871286,11393.833333333334,1093.5,9,18,2002/01,19,CONSTELLATION COVE,滌濤山,True,11.0,207.0,POINT Z (22.4345828 114.1854808 0),22.4345828,114.1854808
278,"CONSTELLATION COVE(Block 8),HUNG LAM DR|滌濤山8座,紅林路",NTP,20010354.48890641,5246.0,1093.0,21563461.8484151,5607.0,1093.0,24007848.103922408,6294.0,1102.0,2.0,6.0,8.0,"['A', 'B']",21858284.08691107,5715.0,1097.5,8,16,2002/01,19,CONSTELLATION COVE,滌濤山,True,11.0,207.0,POINT Z (22.4350204 114.1846448 0),22.4350204,114.18464479999999
279,"MERIT PLACE,MEI SUN LANE|美菱居,美新里",NTP,5335659.0,11779.0,440.0,5624955.0,12429.0,440.0,6473527.0,13403.0,499.0,7.0,17.0,26.0,"['A', 'B', 'C']",5811781.111111112,12645.0,460.0,25,75,2002/11,19,blank,,False,,,POINT Z (22.4530242 114.1649756 0),22.4530242,114.1649756
280,"CONSTELLATION COVE,HUNG LAM DR|滌濤山,紅林路",NTP,42544090.322452225,16428.0,1905.0,42544090.322452225,16428.0,1905.0,61412752.80998776,23668.0,2717.0,0.0,0.0,0.0,"['A10', 'A11', 'A12', 'A17', 'A20', 'A21', 'A22', 'A25', 'A26', 'A3', 'A8', 'A9', 'B1', 'B10', 'B11', 'B15', 'B16', 'B19', 'B2', 'B26', 'B3', 'B9', 'D1', 'D10', 'D11', 'D12', 'D17', 'D2', 'D5', 'D7', 'D71', 'D8', 'D9']",52912591.74467971,17820.666666666668,2295.3939393939395,1,33,2002/01,19,CONSTELLATION COVE,滌濤山,True,11.0,207.0,POINT Z (22.4354135 114.1850844 0),22.4354135,114.18508440000001
281,"HONG LOK YUEN(Block C2A),HONG LOK YUEN TOWN CTR CRES|康樂園C2A座,康樂園市中心徑",NTP,,,775.0,,,775.0,,,1401.0,0.0,0.0,0.0,"['C', 'D', 'F']",,,983.6666666666666,1,3,1983/06,38,HONG LOK YUEN,康樂園,True,8.0,40.0,POINT Z (22.4618898 114.1522332 0),22.4618898,114.1522332
282,"REDLAND GARDEN(Block 2),TAI PO RD TAI PO KAU|松濤閣2座,大埔公路大埔滘段",NTP,9547128.814292751,11838.0,786.0,9639067.713163285,11952.0,786.0,9773750.135192925,12119.0,786.0,2.0,4.0,5.0,"['A', 'B']",9667966.636053875,11987.833333333334,786.0,6,12,1990/03,31,REDLAND GARDEN,松濤閣,True,2.0,22.0,POINT Z (22.4415453 114.1808829 0),22.4415453,114.18088290000001
283,"REDLAND GARDEN(Block 3),TAI PO RD TAI PO KAU|松濤閣3座,大埔公路大埔滘段",NTP,8447894.435691549,10475.0,786.0,8628546.307156457,10699.0,786.0,9264053.783559792,11487.0,786.0,2.0,3.0,5.0,"['A', 'B']",8900465.009517698,11036.166666666666,786.0,5,10,1990/03,31,REDLAND GARDEN,松濤閣,True,2.0,22.0,POINT Z (22.4414575 114.1811615 0),22.441457500000002,114.1811615
284,"YEE DAT HSE(Block D,YEE NGA COURT),ON PO RD|怡雅苑,D座(怡達閣),安埔路",NTP,3084492.0,7222.0,401.0,3229253.0,7581.0,401.0,5140650.0,8494.0,645.0,7.0,18.0,29.0,"['1', '10', '2', '3', '4', '5', '6', '7', '8', '9']",3981963.366666667,7827.233333333334,511.2,35,350,1993/06,28,YEE NGA COURT,怡雅苑,True,5.0,1594.0,POINT Z (22.4547987 114.1734518 0),22.454798699999998,114.1734518
285,"YAT WING HSE(Block A,YAT NGA COURT),YAT NGA LANE|逸雅苑,A座(逸榮閣),逸雅里",NTP,3952432.0,10568.0,374.0,4179824.0,11119.0,374.0,6889352.0,13075.0,566.0,7.0,18.0,28.0,"['1', '10', '11', '12', '13', '14', '15', '16', '17', '18', '2', '3', '4', '5', '6', '7', '8', '9']",5213201.314814814,11812.38888888889,442.3888888888889,34,612,1991/09,30,YAT NGA COURT,逸雅苑,True,2.0,1224.0,POINT Z (22.443211 114.167833 0),22.443210999999998,114.167833
286,"HING WO HSE(Block B,Phase 2,PO NGA COURT),2 TAI PO TAI WO RD|寶雅苑,2期,B座(興和閣),2 大埔太和路",NTP,4165854.0000000005,9827.0,381.0,4395216.0,10521.0,381.0,5867550.0,12201.0,531.0,7.0,18.0,28.0,"['1', '10', '11', '12', '13', '14', '15', '16', '17', '18', '19', '2', '20', '21', '22', '23', '24', '3', '4', '5', '6', '7', '8', '9']",4988266.347222223,10947.541666666666,456.3333333333333,34,816,1989/12,32,PO NGA COURT,寶雅苑,True,3.0,2448.0,POINT Z (22.4506961 114.1587519 0),22.450696100000002,114.15875190000001
287,"YEE LEUNG HSE(Block E,YEE NGA COURT),ON PO RD|怡雅苑,E座(怡亮閣),安埔路",NTP,4607820.132012993,10084.0,401.0,4804492.872713253,10489.0,401.0,7389120.0,12642.0,645.0,7.0,18.0,30.0,"['1', '10', '2', '3', '4', '5', '6', '7', '8']",5729629.940314968,11309.037037037036,506.3333333333333,33,297,1993/06,28,YEE NGA COURT,怡雅苑,True,5.0,1594.0,POINT Z (22.4547359 114.1739859 0),22.4547359,114.17398590000002
